{
  "populationDemographics": {
    "id": 1,
    "chiefdom": "Chief Mwewa",
    "district": "Mansa",
    "province": "Luapula",
    "totalPopulation": 78966,
    "numberOfVillages": 35,
    "numberOfHouseholds": 17505,
    "malePopulation": 29611,
    "femalePopulation": 35199,
    "youthPopulation": 23612,
    "elderlyPopulation": 2901,
    "populationDensity": 43.0,
    "censusDate": "2025-07-26T15:00:30.716088"
  },
  "villages": [
    {
      "id": 1,
      "name": "Chongwe Central 1",
      "chiefdom": "Chief Mwewa",
      "population": 10429,
      "numberOfHouseholds": 2120,
      "villageHead": "Mr. Emmanuel Ngulube",
      "latitude": -11.2108,
      "longitude": 28.8596,
      "distanceToNearestHospital": 9.6,
      "distanceToNearestSchool": 6.4,
      "primaryEconomicActivity": "Fishing",
      "hasElectricity": false,
      "hasCleanWater": true
    },
    {
      "id": 2,
      "name": "Kafue Riverside 1",
      "chiefdom": "Chief Mwewa",
      "population": 11863,
      "numberOfHouseholds": 2132,
      "villageHead": "Mr. Andrew Sichone",
      "latitude": -11.1695,
      "longitude": 28.9173,
      "distanceToNearestHospital": 22.6,
      "distanceToNearestSchool": 4.4,
      "primaryEconomicActivity": "Fishing",
      "hasElectricity": false,
      "hasCleanWater": true
    },
    {
      "id": 3,
      "name": "Munyumba 1",
      "chiefdom": "Chief Mwewa",
      "population": 1486,
      "numberOfHouseholds": 246,
      "villageHead": "Mr. Simon Lubinda",
      "latitude": -11.1189,
      "longitude": 28.9827,
      "distanceToNearestHospital": 20.0,
      "distanceToNearestSchool": 2.4,
      "primaryEconomicActivity": "Trading",
      "hasElectricity": false,
      "hasCleanWater": false
    },
    {
      "id": 4,
      "name": "Kalingalinga 1",
      "chiefdom": "Chief Mwewa",
      "population": 2516,
      "numberOfHouseholds": 2172,
      "villageHead": "Mr. Steven Daka",
      "latitude": -11.1234,
      "longitude": 28.8733,
      "distanceToNearestHospital": 2.6,
      "distanceToNearestSchool": 1.9,
      "primaryEconomicActivity": "Services",
      "hasElectricity": true,
      "hasCleanWater": false
    },
    {
      "id": 5,
      "name": "Chilanga 1",
      "chiefdom": "Chief Mwewa",
      "population": 3436,
      "numberOfHouseholds": 1216,
      "villageHead": "Mr. Francis Chipanga",
      "latitude": -11.1278,
      "longitude": 28.9347,
      "distanceToNearestHospital": 13.0,
      "distanceToNearestSchool": 6.5,
      "primaryEconomicActivity": "Services",
      "hasElectricity": false,
      "hasCleanWater": true
    },
    {
      "id": 6,
      "name": "Makeni 1",
      "chiefdom": "Chief Mwewa",
      "population": 7723,
      "numberOfHouseholds": 1298,
      "villageHead": "Mrs. Florence Mwanza",
      "latitude": -11.2177,
      "longitude": 28.8471,
      "distanceToNearestHospital": 6.4,
      "distanceToNearestSchool": 6.9,
      "primaryEconomicActivity": "Services",
      "hasElectricity": false,
      "hasCleanWater": false
    },
    {
      "id": 7,
      "name": "Ngwerere 1",
      "chiefdom": "Chief Mwewa",
      "population": 4702,
      "numberOfHouseholds": 1798,
      "villageHead": "Mr. Joseph Lungu",
      "latitude": -11.2333,
      "longitude": 28.9547,
      "distanceToNearestHospital": 22.5,
      "distanceToNearestSchool": 9.2,
      "primaryEconomicActivity": "Farming",
      "hasElectricity": false,
      "hasCleanWater": true
    },
    {
      "id": 8,
      "name": "Lilayi 1",
      "chiefdom": "Chief Mwewa",
      "population": 2933,
      "numberOfHouseholds": 1128,
      "villageHead": "Mr. Michael Nyirenda",
      "latitude": -11.2586,
      "longitude": 28.9826,
      "distanceToNearestHospital": 9.0,
      "distanceToNearestSchool": 11.4,
      "primaryEconomicActivity": "Mining",
      "hasElectricity": true,
      "hasCleanWater": true
    },
    {
      "id": 9,
      "name": "Palabana 1",
      "chiefdom": "Chief Mwewa",
      "population": 11534,
      "numberOfHouseholds": 2199,
      "villageHead": "Mr. Patrick Zulu",
      "latitude": -11.2665,
      "longitude": 28.9898,
      "distanceToNearestHospital": 24.4,
      "distanceToNearestSchool": 3.9,
      "primaryEconomicActivity": "Mining",
      "hasElectricity": false,
      "hasCleanWater": false
    },
    {
      "id": 10,
      "name": "Chainda 1",
      "chiefdom": "Chief Mwewa",
      "population": 4884,
      "numberOfHouseholds": 1272,
      "villageHead": "Mr. Peter Sikalonga",
      "latitude": -11.1112,
      "longitude": 28.8532,
      "distanceToNearestHospital": 15.7,
      "distanceToNearestSchool": 11.6,
      "primaryEconomicActivity": "Fishing",
      "hasElectricity": false,
      "hasCleanWater": true
    },
    {
      "id": 11,
      "name": "Meanwood 1",
      "chiefdom": "Chief Mwewa",
      "population": 3228,
      "numberOfHouseholds": 2457,
      "villageHead": "Mr. John Banda",
      "latitude": -11.191,
      "longitude": 28.8215,
      "distanceToNearestHospital": 10.5,
      "distanceToNearestSchool": 1.0,
      "primaryEconomicActivity": "Services",
      "hasElectricity": false,
      "hasCleanWater": true
    },
    {
      "id": 12,
      "name": "Leopards Hill 1",
      "chiefdom": "Chief Mwewa",
      "population": 4474,
      "numberOfHouseholds": 2412,
      "villageHead": "Mrs. Linda Chiluba",
      "latitude": -11.2581,
      "longitude": 28.9116,
      "distanceToNearestHospital": 16.9,
      "distanceToNearestSchool": 7.8,
      "primaryEconomicActivity": "Farming",
      "hasElectricity": false,
      "hasCleanWater": true
    },
    {
      "id": 13,
      "name": "Chalala 1",
      "chiefdom": "Chief Mwewa",
      "population": 4782,
      "numberOfHouseholds": 1496,
      "villageHead": "Mr. Anthony Mulenga",
      "latitude": -11.2002,
      "longitude": 28.7933,
      "distanceToNearestHospital": 18.6,
      "distanceToNearestSchool": 3.8,
      "primaryEconomicActivity": "Farming",
      "hasElectricity": true,
      "hasCleanWater": false
    },
    {
      "id": 14,
      "name": "Sikanze 1",
      "chiefdom": "Chief Mwewa",
      "population": 11164,
      "numberOfHouseholds": 1122,
      "villageHead": "Mr. George Nkonde",
      "latitude": -11.1189,
      "longitude": 28.8776,
      "distanceToNearestHospital": 24.4,
      "distanceToNearestSchool": 9.7,
      "primaryEconomicActivity": "Fishing",
      "hasElectricity": true,
      "hasCleanWater": true
    },
    {
      "id": 15,
      "name": "Nyimba 1",
      "chiefdom": "Chief Mwewa",
      "population": 1675,
      "numberOfHouseholds": 414,
      "villageHead": "Mr. Simon Lubinda",
      "latitude": -11.1585,
      "longitude": 28.8097,
      "distanceToNearestHospital": 2.5,
      "distanceToNearestSchool": 10.5,
      "primaryEconomicActivity": "Trading",
      "hasElectricity": false,
      "hasCleanWater": true
    },
    {
      "id": 16,
      "name": "Luangwa 1",
      "chiefdom": "Chief Mwewa",
      "population": 2585,
      "numberOfHouseholds": 2836,
      "villageHead": "Mr. Daniel Sakala",
      "latitude": -11.1349,
      "longitude": 28.8078,
      "distanceToNearestHospital": 6.7,
      "distanceToNearestSchool": 8.0,
      "primaryEconomicActivity": "Services",
      "hasElectricity": true,
      "hasCleanWater": true
    },
    {
      "id": 17,
      "name": "Mpanshya 1",
      "chiefdom": "Chief Mwewa",
      "population": 14637,
      "numberOfHouseholds": 2052,
      "villageHead": "Mr. Richard Zimba",
      "latitude": -11.1001,
      "longitude": 28.7995,
      "distanceToNearestHospital": 16.2,
      "distanceToNearestSchool": 11.3,
      "primaryEconomicActivity": "Fishing",
      "hasElectricity": false,
      "hasCleanWater": true
    },
    {
      "id": 18,
      "name": "Mutumbi 1",
      "chiefdom": "Chief Mwewa",
      "population": 10120,
      "numberOfHouseholds": 763,
      "villageHead": "Mr. Anthony Mulenga",
      "latitude": -11.1712,
      "longitude": 28.896,
      "distanceToNearestHospital": 10.1,
      "distanceToNearestSchool": 9.0,
      "primaryEconomicActivity": "Trading",
      "hasElectricity": false,
      "hasCleanWater": false
    },
    {
      "id": 19,
      "name": "Kanakantapa 1",
      "chiefdom": "Chief Mwewa",
      "population": 8568,
      "numberOfHouseholds": 1394,
      "villageHead": "Mrs. Helen Kalaba",
      "latitude": -11.2546,
      "longitude": 28.9302,
      "distanceToNearestHospital": 7.1,
      "distanceToNearestSchool": 4.5,
      "primaryEconomicActivity": "Farming",
      "hasElectricity": false,
      "hasCleanWater": true
    },
    {
      "id": 20,
      "name": "Mwembezhi 1",
      "chiefdom": "Chief Mwewa",
      "population": 12339,
      "numberOfHouseholds": 1042,
      "villageHead": "Mrs. Florence Mwanza",
      "latitude": -11.1469,
      "longitude": 28.8223,
      "distanceToNearestHospital": 19.3,
      "distanceToNearestSchool": 4.8,
      "primaryEconomicActivity": "Fishing",
      "hasElectricity": true,
      "hasCleanWater": true
    },
    {
      "id": 21,
      "name": "Shimabala 1",
      "chiefdom": "Chief Mwewa",
      "population": 5198,
      "numberOfHouseholds": 2569,
      "villageHead": "Mrs. Catherine Kasonde",
      "latitude": -11.2525,
      "longitude": 28.9309,
      "distanceToNearestHospital": 21.7,
      "distanceToNearestSchool": 2.9,
      "primaryEconomicActivity": "Fishing",
      "hasElectricity": true,
      "hasCleanWater": true
    },
    {
      "id": 22,
      "name": "Chisamba 1",
      "chiefdom": "Chief Mwewa",
      "population": 2065,
      "numberOfHouseholds": 246,
      "villageHead": "Mr. Vincent Hachipuka",
      "latitude": -11.1172,
      "longitude": 28.8854,
      "distanceToNearestHospital": 6.1,
      "distanceToNearestSchool": 4.5,
      "primaryEconomicActivity": "Mining",
      "hasElectricity": true,
      "hasCleanWater": true
    },
    {
      "id": 23,
      "name": "Katoba 1",
      "chiefdom": "Chief Mwewa",
      "population": 7949,
      "numberOfHouseholds": 2814,
      "villageHead": "Mr. Anthony Mulenga",
      "latitude": -11.2298,
      "longitude": 28.967,
      "distanceToNearestHospital": 10.4,
      "distanceToNearestSchool": 8.8,
      "primaryEconomicActivity": "Mining",
      "hasElectricity": true,
      "hasCleanWater": false
    },
    {
      "id": 24,
      "name": "Kaunga 1",
      "chiefdom": "Chief Mwewa",
      "population": 14978,
      "numberOfHouseholds": 1322,
      "villageHead": "Mrs. Beatrice Nkhoma",
      "latitude": -11.2149,
      "longitude": 28.8603,
      "distanceToNearestHospital": 17.6,
      "distanceToNearestSchool": 9.3,
      "primaryEconomicActivity": "Farming",
      "hasElectricity": true,
      "hasCleanWater": true
    },
    {
      "id": 25,
      "name": "Chipapa 1",
      "chiefdom": "Chief Mwewa",
      "population": 2056,
      "numberOfHouseholds": 2713,
      "villageHead": "Mr. William Chisenga",
      "latitude": -11.1042,
      "longitude": 28.9612,
      "distanceToNearestHospital": 2.2,
      "distanceToNearestSchool": 9.5,
      "primaryEconomicActivity": "Trading",
      "hasElectricity": true,
      "hasCleanWater": true
    },
    {
      "id": 26,
      "name": "Nakatindi 1",
      "chiefdom": "Chief Mwewa",
      "population": 12343,
      "numberOfHouseholds": 2759,
      "villageHead": "Mr. Robert Ngoma",
      "latitude": -11.2852,
      "longitude": 28.8707,
      "distanceToNearestHospital": 20.1,
      "distanceToNearestSchool": 4.8,
      "primaryEconomicActivity": "Farming",
      "hasElectricity": false,
      "hasCleanWater": false
    },
    {
      "id": 27,
      "name": "Mbabala 1",
      "chiefdom": "Chief Mwewa",
      "population": 14714,
      "numberOfHouseholds": 247,
      "villageHead": "Mr. Patrick Zulu",
      "latitude": -11.2916,
      "longitude": 28.8662,
      "distanceToNearestHospital": 21.2,
      "distanceToNearestSchool": 7.3,
      "primaryEconomicActivity": "Farming",
      "hasElectricity": true,
      "hasCleanWater": false
    },
    {
      "id": 28,
      "name": "Chalimbana 1",
      "chiefdom": "Chief Mwewa",
      "population": 3035,
      "numberOfHouseholds": 461,
      "villageHead": "Mrs. Linda Chiluba",
      "latitude": -11.2593,
      "longitude": 28.9509,
      "distanceToNearestHospital": 11.5,
      "distanceToNearestSchool": 10.4,
      "primaryEconomicActivity": "Fishing",
      "hasElectricity": false,
      "hasCleanWater": false
    },
    {
      "id": 29,
      "name": "Kapiri 1",
      "chiefdom": "Chief Mwewa",
      "population": 5725,
      "numberOfHouseholds": 2157,
      "villageHead": "Mr. Emmanuel Ngulube",
      "latitude": -11.2098,
      "longitude": 28.9108,
      "distanceToNearestHospital": 4.7,
      "distanceToNearestSchool": 4.2,
      "primaryEconomicActivity": "Mining",
      "hasElectricity": true,
      "hasCleanWater": false
    },
    {
      "id": 30,
      "name": "Lunsemfwa 1",
      "chiefdom": "Chief Mwewa",
      "population": 8067,
      "numberOfHouseholds": 2298,
      "villageHead": "Mr. William Chisenga",
      "latitude": -11.1042,
      "longitude": 28.9744,
      "distanceToNearestHospital": 8.5,
      "distanceToNearestSchool": 5.9,
      "primaryEconomicActivity": "Farming",
      "hasElectricity": true,
      "hasCleanWater": true
    },
    {
      "id": 31,
      "name": "Mumbwa 1",
      "chiefdom": "Chief Mwewa",
      "population": 8714,
      "numberOfHouseholds": 336,
      "villageHead": "Mr. Lawrence Kapasa",
      "latitude": -11.2796,
      "longitude": 28.8441,
      "distanceToNearestHospital": 24.0,
      "distanceToNearestSchool": 7.1,
      "primaryEconomicActivity": "Farming",
      "hasElectricity": true,
      "hasCleanWater": true
    },
    {
      "id": 32,
      "name": "Kasempa 1",
      "chiefdom": "Chief Mwewa",
      "population": 5551,
      "numberOfHouseholds": 488,
      "villageHead": "Mr. Andrew Sichone",
      "latitude": -11.1211,
      "longitude": 28.977,
      "distanceToNearestHospital": 12.0,
      "distanceToNearestSchool": 9.9,
      "primaryEconomicActivity": "Farming",
      "hasElectricity": false,
      "hasCleanWater": true
    },
    {
      "id": 33,
      "name": "Mufumbwe 1",
      "chiefdom": "Chief Mwewa",
      "population": 7999,
      "numberOfHouseholds": 2103,
      "villageHead": "Mrs. Faith Siame",
      "latitude": -11.2185,
      "longitude": 28.8521,
      "distanceToNearestHospital": 18.7,
      "distanceToNearestSchool": 7.8,
      "primaryEconomicActivity": "Mining",
      "hasElectricity": false,
      "hasCleanWater": true
    },
    {
      "id": 34,
      "name": "Kabwe 1",
      "chiefdom": "Chief Mwewa",
      "population": 8952,
      "numberOfHouseholds": 781,
      "villageHead": "Mr. Andrew Sichone",
      "latitude": -11.1612,
      "longitude": 28.8819,
      "distanceToNearestHospital": 3.5,
      "distanceToNearestSchool": 9.8,
      "primaryEconomicActivity": "Fishing",
      "hasElectricity": true,
      "hasCleanWater": true
    },
    {
      "id": 35,
      "name": "Chibombo 1",
      "chiefdom": "Chief Mwewa",
      "population": 5256,
      "numberOfHouseholds": 771,
      "villageHead": "Mrs. Beatrice Nkhoma",
      "latitude": -11.1996,
      "longitude": 28.961,
      "distanceToNearestHospital": 14.9,
      "distanceToNearestSchool": 4.8,
      "primaryEconomicActivity": "Fishing",
      "hasElectricity": true,
      "hasCleanWater": true
    },
    {
      "id": 36,
      "name": "Mkushi 1",
      "chiefdom": "Chief Mwewa",
      "population": 8392,
      "numberOfHouseholds": 829,
      "villageHead": "Mr. William Chisenga",
      "latitude": -11.104,
      "longitude": 28.9182,
      "distanceToNearestHospital": 14.7,
      "distanceToNearestSchool": 4.1,
      "primaryEconomicActivity": "Services",
      "hasElectricity": false,
      "hasCleanWater": true
    },
    {
      "id": 37,
      "name": "Serenje 1",
      "chiefdom": "Chief Mwewa",
      "population": 6697,
      "numberOfHouseholds": 2656,
      "villageHead": "Mrs. Joyce Banda",
      "latitude": -11.1843,
      "longitude": 28.7906,
      "distanceToNearestHospital": 17.5,
      "distanceToNearestSchool": 1.5,
      "primaryEconomicActivity": "Services",
      "hasElectricity": true,
      "hasCleanWater": true
    },
    {
      "id": 38,
      "name": "Mpika 1",
      "chiefdom": "Chief Mwewa",
      "population": 1759,
      "numberOfHouseholds": 2625,
      "villageHead": "Mrs. Christine Kunda",
      "latitude": -11.1412,
      "longitude": 28.8893,
      "distanceToNearestHospital": 10.5,
      "distanceToNearestSchool": 1.4,
      "primaryEconomicActivity": "Trading",
      "hasElectricity": false,
      "hasCleanWater": true
    },
    {
      "id": 39,
      "name": "Nakonde 1",
      "chiefdom": "Chief Mwewa",
      "population": 10438,
      "numberOfHouseholds": 2493,
      "villageHead": "Mr. George Nkonde",
      "latitude": -11.1135,
      "longitude": 28.8987,
      "distanceToNearestHospital": 12.6,
      "distanceToNearestSchool": 1.1,
      "primaryEconomicActivity": "Fishing",
      "hasElectricity": true,
      "hasCleanWater": true
    },
    {
      "id": 40,
      "name": "Isoka 1",
      "chiefdom": "Chief Mwewa",
      "population": 12781,
      "numberOfHouseholds": 661,
      "villageHead": "Mr. Steven Daka",
      "latitude": -11.2777,
      "longitude": 28.8871,
      "distanceToNearestHospital": 15.5,
      "distanceToNearestSchool": 8.1,
      "primaryEconomicActivity": "Fishing",
      "hasElectricity": false,
      "hasCleanWater": true
    },
    {
      "id": 41,
      "name": "Chinsali 1",
      "chiefdom": "Chief Mwewa",
      "population": 12577,
      "numberOfHouseholds": 992,
      "villageHead": "Mr. Peter Sikalonga",
      "latitude": -11.1601,
      "longitude": 28.9067,
      "distanceToNearestHospital": 18.8,
      "distanceToNearestSchool": 4.6,
      "primaryEconomicActivity": "Services",
      "hasElectricity": true,
      "hasCleanWater": true
    },
    {
      "id": 42,
      "name": "Kasama 1",
      "chiefdom": "Chief Mwewa",
      "population": 13942,
      "numberOfHouseholds": 2451,
      "villageHead": "Mr. George Nkonde",
      "latitude": -11.2785,
      "longitude": 28.899,
      "distanceToNearestHospital": 12.3,
      "distanceToNearestSchool": 3.7,
      "primaryEconomicActivity": "Fishing",
      "hasElectricity": false,
      "hasCleanWater": false
    },
    {
      "id": 43,
      "name": "Mbala 1",
      "chiefdom": "Chief Mwewa",
      "population": 13582,
      "numberOfHouseholds": 1275,
      "villageHead": "Mr. Anthony Mulenga",
      "latitude": -11.1267,
      "longitude": 28.8478,
      "distanceToNearestHospital": 19.2,
      "distanceToNearestSchool": 2.2,
      "primaryEconomicActivity": "Mining",
      "hasElectricity": true,
      "hasCleanWater": true
    },
    {
      "id": 44,
      "name": "Luwingu 1",
      "chiefdom": "Chief Mwewa",
      "population": 12684,
      "numberOfHouseholds": 212,
      "villageHead": "Mrs. Florence Mwanza",
      "latitude": -11.1935,
      "longitude": 28.8485,
      "distanceToNearestHospital": 12.9,
      "distanceToNearestSchool": 1.0,
      "primaryEconomicActivity": "Services",
      "hasElectricity": true,
      "hasCleanWater": true
    },
    {
      "id": 45,
      "name": "Mporokoso 1",
      "chiefdom": "Chief Mwewa",
      "population": 4236,
      "numberOfHouseholds": 1076,
      "villageHead": "Mr. Robert Ngoma",
      "latitude": -11.2905,
      "longitude": 28.9741,
      "distanceToNearestHospital": 13.5,
      "distanceToNearestSchool": 4.1,
      "primaryEconomicActivity": "Mining",
      "hasElectricity": true,
      "hasCleanWater": true
    },
    {
      "id": 46,
      "name": "Kawambwa 1",
      "chiefdom": "Chief Mwewa",
      "population": 8721,
      "numberOfHouseholds": 850,
      "villageHead": "Mrs. Rose Mwila",
      "latitude": -11.2951,
      "longitude": 28.8858,
      "distanceToNearestHospital": 4.3,
      "distanceToNearestSchool": 5.8,
      "primaryEconomicActivity": "Mining",
      "hasElectricity": true,
      "hasCleanWater": true
    },
    {
      "id": 47,
      "name": "Mansa 1",
      "chiefdom": "Chief Mwewa",
      "population": 9636,
      "numberOfHouseholds": 1950,
      "villageHead": "Mrs. Catherine Kasonde",
      "latitude": -11.2821,
      "longitude": 28.9131,
      "distanceToNearestHospital": 15.7,
      "distanceToNearestSchool": 11.5,
      "primaryEconomicActivity": "Services",
      "hasElectricity": true,
      "hasCleanWater": true
    },
    {
      "id": 48,
      "name": "Samfya 1",
      "chiefdom": "Chief Mwewa",
      "population": 9190,
      "numberOfHouseholds": 340,
      "villageHead": "Mr. David Mwale",
      "latitude": -11.1575,
      "longitude": 28.8978,
      "distanceToNearestHospital": 12.0,
      "distanceToNearestSchool": 5.0,
      "primaryEconomicActivity": "Mining",
      "hasElectricity": true,
      "hasCleanWater": true
    },
    {
      "id": 49,
      "name": "Nchelenge 1",
      "chiefdom": "Chief Mwewa",
      "population": 4592,
      "numberOfHouseholds": 2575,
      "villageHead": "Mrs. Sarah Mumba",
      "latitude": -11.142,
      "longitude": 28.9299,
      "distanceToNearestHospital": 18.7,
      "distanceToNearestSchool": 3.1,
      "primaryEconomicActivity": "Trading",
      "hasElectricity": true,
      "hasCleanWater": false
    },
    {
      "id": 50,
      "name": "Kaputa 1",
      "chiefdom": "Chief Mwewa",
      "population": 11273,
      "numberOfHouseholds": 416,
      "villageHead": "Mrs. Sarah Mumba",
      "latitude": -11.2251,
      "longitude": 28.8162,
      "distanceToNearestHospital": 2.7,
      "distanceToNearestSchool": 0.7,
      "primaryEconomicActivity": "Fishing",
      "hasElectricity": true,
      "hasCleanWater": false
    }
  ],
  "infrastructure": [
    {
      "id": 1,
      "chiefdom": "Chief Mwewa",
      "facilityName": "Mambwe Facility 1",
      "facilityType": "Clinic",
      "village": "Mpongwe",
      "capacity": 427,
      "currentUsage": 800,
      "status": "Needs Repair",
      "latitude": -11.129,
      "longitude": 28.9006,
      "lastMaintenance": "2025-10-31T15:00:30.716289"
    },
    {
      "id": 2,
      "chiefdom": "Chief Mwewa",
      "facilityName": "Mufumbwe Facility 2",
      "facilityType": "Hospital",
      "village": "Leopards Hill",
      "capacity": 671,
      "currentUsage": 486,
      "status": "Needs Repair",
      "latitude": -11.2685,
      "longitude": 28.8394,
      "lastMaintenance": "2025-07-22T15:00:30.716297"
    },
    {
      "id": 3,
      "chiefdom": "Chief Mwewa",
      "facilityName": "Kalomo Facility 3",
      "facilityType": "Secondary School",
      "village": "Mpongwe",
      "capacity": 86,
      "currentUsage": 430,
      "status": "Operational",
      "latitude": -11.1321,
      "longitude": 28.8838,
      "lastMaintenance": "2025-06-27T15:00:30.716304"
    },
    {
      "id": 4,
      "chiefdom": "Chief Mwewa",
      "facilityName": "Chama Facility 4",
      "facilityType": "Primary School",
      "village": "Munyumba",
      "capacity": 1302,
      "currentUsage": 928,
      "status": "Operational",
      "latitude": -11.2575,
      "longitude": 28.9039,
      "lastMaintenance": "2025-10-14T15:00:30.716311"
    },
    {
      "id": 5,
      "chiefdom": "Chief Mwewa",
      "facilityName": "Sinazongwe Facility 5",
      "facilityType": "Clinic",
      "village": "Mufulira",
      "capacity": 500,
      "currentUsage": 162,
      "status": "Needs Repair",
      "latitude": -11.1251,
      "longitude": 28.9298,
      "lastMaintenance": "2025-08-30T15:00:30.716318"
    },
    {
      "id": 6,
      "chiefdom": "Chief Mwewa",
      "facilityName": "Kabwe Facility 6",
      "facilityType": "Hospital",
      "village": "Kasempa",
      "capacity": 1087,
      "currentUsage": 1519,
      "status": "Under Construction",
      "latitude": -11.2909,
      "longitude": 28.8689,
      "lastMaintenance": "2025-05-21T15:00:30.716325"
    },
    {
      "id": 7,
      "chiefdom": "Chief Mwewa",
      "facilityName": "Chama Facility 7",
      "facilityType": "Hospital",
      "village": "Siavonga",
      "capacity": 850,
      "currentUsage": 1545,
      "status": "Operational",
      "latitude": -11.1531,
      "longitude": 28.7907,
      "lastMaintenance": "2025-11-24T15:00:30.716332"
    },
    {
      "id": 8,
      "chiefdom": "Chief Mwewa",
      "facilityName": "Palabana Facility 8",
      "facilityType": "Clinic",
      "village": "Lukulu",
      "capacity": 1473,
      "currentUsage": 229,
      "status": "Operational",
      "latitude": -11.248,
      "longitude": 28.9434,
      "lastMaintenance": "2025-05-02T15:00:30.716339"
    },
    {
      "id": 9,
      "chiefdom": "Chief Mwewa",
      "facilityName": "Chadiza Facility 9",
      "facilityType": "Primary School",
      "village": "Gwembe",
      "capacity": 1251,
      "currentUsage": 895,
      "status": "Needs Repair",
      "latitude": -11.128,
      "longitude": 28.9452,
      "lastMaintenance": "2026-01-14T15:00:30.716347"
    },
    {
      "id": 10,
      "chiefdom": "Chief Mwewa",
      "facilityName": "Chilanga Facility 10",
      "facilityType": "Clinic",
      "village": "Lilayi",
      "capacity": 577,
      "currentUsage": 222,
      "status": "Needs Repair",
      "latitude": -11.2191,
      "longitude": 28.8624,
      "lastMaintenance": "2025-05-08T15:00:30.716355"
    },
    {
      "id": 11,
      "chiefdom": "Chief Mwewa",
      "facilityName": "Chibombo Facility 11",
      "facilityType": "Secondary School",
      "village": "Mpika",
      "capacity": 1445,
      "currentUsage": 641,
      "status": "Operational",
      "latitude": -11.2569,
      "longitude": 28.8942,
      "lastMaintenance": "2025-01-20T15:00:30.716362"
    },
    {
      "id": 12,
      "chiefdom": "Chief Mwewa",
      "facilityName": "Sinazongwe Facility 12",
      "facilityType": "Primary School",
      "village": "Kaputa",
      "capacity": 236,
      "currentUsage": 420,
      "status": "Needs Repair",
      "latitude": -11.1538,
      "longitude": 28.8921,
      "lastMaintenance": "2025-02-23T15:00:30.716369"
    },
    {
      "id": 13,
      "chiefdom": "Chief Mwewa",
      "facilityName": "Mansa Facility 13",
      "facilityType": "Water Source",
      "village": "Pemba",
      "capacity": 702,
      "currentUsage": 629,
      "status": "Needs Repair",
      "latitude": -11.1941,
      "longitude": 28.931,
      "lastMaintenance": "2025-09-26T15:00:30.716376"
    },
    {
      "id": 14,
      "chiefdom": "Chief Mwewa",
      "facilityName": "Ngwerere Facility 14",
      "facilityType": "Hospital",
      "village": "Mporokoso",
      "capacity": 1284,
      "currentUsage": 587,
      "status": "Under Construction",
      "latitude": -11.2083,
      "longitude": 28.9232,
      "lastMaintenance": "2025-10-13T15:00:30.716383"
    },
    {
      "id": 15,
      "chiefdom": "Chief Mwewa",
      "facilityName": "Isoka Facility 15",
      "facilityType": "Water Source",
      "village": "Mufumbwe",
      "capacity": 555,
      "currentUsage": 1299,
      "status": "Under Construction",
      "latitude": -11.125,
      "longitude": 28.868,
      "lastMaintenance": "2025-05-06T15:00:30.716390"
    },
    {
      "id": 16,
      "chiefdom": "Chief Mwewa",
      "facilityName": "Vubwi Facility 16",
      "facilityType": "Hospital",
      "village": "Mbabala",
      "capacity": 524,
      "currentUsage": 217,
      "status": "Needs Repair",
      "latitude": -11.1448,
      "longitude": 28.8194,
      "lastMaintenance": "2025-03-11T15:00:30.716397"
    },
    {
      "id": 17,
      "chiefdom": "Chief Mwewa",
      "facilityName": "Chingola Facility 17",
      "facilityType": "Secondary School",
      "village": "Mutumbi",
      "capacity": 225,
      "currentUsage": 1382,
      "status": "Under Construction",
      "latitude": -11.1232,
      "longitude": 28.7954,
      "lastMaintenance": "2025-10-31T15:00:30.716404"
    },
    {
      "id": 18,
      "chiefdom": "Chief Mwewa",
      "facilityName": "Livingstone Facility 18",
      "facilityType": "Primary School",
      "village": "Mufulira",
      "capacity": 1178,
      "currentUsage": 490,
      "status": "Under Construction",
      "latitude": -11.1526,
      "longitude": 28.9362,
      "lastMaintenance": "2025-03-18T15:00:30.716411"
    },
    {
      "id": 19,
      "chiefdom": "Chief Mwewa",
      "facilityName": "Sesheke Facility 19",
      "facilityType": "Hospital",
      "village": "Ndola",
      "capacity": 1010,
      "currentUsage": 1221,
      "status": "Under Construction",
      "latitude": -11.1524,
      "longitude": 28.8968,
      "lastMaintenance": "2025-03-30T15:00:30.716425"
    },
    {
      "id": 20,
      "chiefdom": "Chief Mwewa",
      "facilityName": "Mutumbi Facility 20",
      "facilityType": "Water Source",
      "village": "Chama",
      "capacity": 676,
      "currentUsage": 605,
      "status": "Under Construction",
      "latitude": -11.1581,
      "longitude": 28.9812,
      "lastMaintenance": "2025-05-20T15:00:30.716432"
    },
    {
      "id": 21,
      "chiefdom": "Chief Mwewa",
      "facilityName": "Luwingu Facility 21",
      "facilityType": "Clinic",
      "village": "Palabana",
      "capacity": 1422,
      "currentUsage": 1447,
      "status": "Operational",
      "latitude": -11.1906,
      "longitude": 28.9607,
      "lastMaintenance": "2025-07-05T15:00:30.716439"
    },
    {
      "id": 22,
      "chiefdom": "Chief Mwewa",
      "facilityName": "Gwembe Facility 22",
      "facilityType": "Secondary School",
      "village": "Makeni",
      "capacity": 1195,
      "currentUsage": 786,
      "status": "Operational",
      "latitude": -11.1888,
      "longitude": 28.8837,
      "lastMaintenance": "2025-07-08T15:00:30.716446"
    },
    {
      "id": 23,
      "chiefdom": "Chief Mwewa",
      "facilityName": "Chalimbana Facility 23",
      "facilityType": "Primary School",
      "village": "Vubwi",
      "capacity": 581,
      "currentUsage": 1124,
      "status": "Needs Repair",
      "latitude": -11.2967,
      "longitude": 28.8591,
      "lastMaintenance": "2025-12-18T15:00:30.716453"
    },
    {
      "id": 24,
      "chiefdom": "Chief Mwewa",
      "facilityName": "Shangombo Facility 24",
      "facilityType": "Clinic",
      "village": "Meanwood",
      "capacity": 502,
      "currentUsage": 1344,
      "status": "Operational",
      "latitude": -11.2145,
      "longitude": 28.951,
      "lastMaintenance": "2025-12-03T15:00:30.716460"
    },
    {
      "id": 25,
      "chiefdom": "Chief Mwewa",
      "facilityName": "Makeni Facility 25",
      "facilityType": "Clinic",
      "village": "Kaunga",
      "capacity": 1175,
      "currentUsage": 94,
      "status": "Under Construction",
      "latitude": -11.2101,
      "longitude": 28.8105,
      "lastMaintenance": "2025-06-06T15:00:30.716467"
    },
    {
      "id": 26,
      "chiefdom": "Chief Mwewa",
      "facilityName": "Lilayi Facility 26",
      "facilityType": "Clinic",
      "village": "Kanakantapa",
      "capacity": 1149,
      "currentUsage": 1031,
      "status": "Operational",
      "latitude": -11.2084,
      "longitude": 28.8493,
      "lastMaintenance": "2025-08-26T15:00:30.716474"
    },
    {
      "id": 27,
      "chiefdom": "Chief Mwewa",
      "facilityName": "Chisamba Facility 27",
      "facilityType": "Water Source",
      "village": "Luanshya",
      "capacity": 1149,
      "currentUsage": 44,
      "status": "Under Construction",
      "latitude": -11.1494,
      "longitude": 28.881,
      "lastMaintenance": "2026-01-19T15:00:30.716481"
    },
    {
      "id": 28,
      "chiefdom": "Chief Mwewa",
      "facilityName": "Kaoma Facility 28",
      "facilityType": "Clinic",
      "village": "Chilanga",
      "capacity": 1442,
      "currentUsage": 553,
      "status": "Needs Repair",
      "latitude": -11.2755,
      "longitude": 28.962,
      "lastMaintenance": "2025-10-19T15:00:30.716487"
    },
    {
      "id": 29,
      "chiefdom": "Chief Mwewa",
      "facilityName": "Sinda Facility 29",
      "facilityType": "Primary School",
      "village": "Lilayi",
      "capacity": 713,
      "currentUsage": 1428,
      "status": "Operational",
      "latitude": -11.1094,
      "longitude": 28.9138,
      "lastMaintenance": "2025-05-04T15:00:30.716494"
    },
    {
      "id": 30,
      "chiefdom": "Chief Mwewa",
      "facilityName": "Chipapa Facility 30",
      "facilityType": "Hospital",
      "village": "Sinda",
      "capacity": 1063,
      "currentUsage": 1037,
      "status": "Needs Repair",
      "latitude": -11.1837,
      "longitude": 28.8565,
      "lastMaintenance": "2025-04-27T15:00:30.716501"
    },
    {
      "id": 31,
      "chiefdom": "Chief Mwewa",
      "facilityName": "Chisamba Facility 31",
      "facilityType": "Hospital",
      "village": "Kaoma",
      "capacity": 134,
      "currentUsage": 1372,
      "status": "Under Construction",
      "latitude": -11.2196,
      "longitude": 28.8591,
      "lastMaintenance": "2025-02-19T15:00:30.716508"
    },
    {
      "id": 32,
      "chiefdom": "Chief Mwewa",
      "facilityName": "Katoba Facility 32",
      "facilityType": "Secondary School",
      "village": "Kaputa",
      "capacity": 62,
      "currentUsage": 849,
      "status": "Operational",
      "latitude": -11.2965,
      "longitude": 28.8955,
      "lastMaintenance": "2025-03-08T15:00:30.716515"
    },
    {
      "id": 33,
      "chiefdom": "Chief Mwewa",
      "facilityName": "Mbala Facility 33",
      "facilityType": "Primary School",
      "village": "Makeni",
      "capacity": 1034,
      "currentUsage": 954,
      "status": "Operational",
      "latitude": -11.2505,
      "longitude": 28.9552,
      "lastMaintenance": "2025-02-08T15:00:30.716522"
    },
    {
      "id": 34,
      "chiefdom": "Chief Mwewa",
      "facilityName": "Livingstone Facility 34",
      "facilityType": "Water Source",
      "village": "Chongwe Central",
      "capacity": 828,
      "currentUsage": 1127,
      "status": "Needs Repair",
      "latitude": -11.1794,
      "longitude": 28.911,
      "lastMaintenance": "2025-06-02T15:00:30.716529"
    },
    {
      "id": 35,
      "chiefdom": "Chief Mwewa",
      "facilityName": "Choma Facility 35",
      "facilityType": "Hospital",
      "village": "Samfya",
      "capacity": 107,
      "currentUsage": 1324,
      "status": "Needs Repair",
      "latitude": -11.2243,
      "longitude": 28.9846,
      "lastMaintenance": "2025-04-18T15:00:30.716536"
    },
    {
      "id": 36,
      "chiefdom": "Chief Mwewa",
      "facilityName": "Ndola Facility 36",
      "facilityType": "Water Source",
      "village": "Luangwa",
      "capacity": 581,
      "currentUsage": 496,
      "status": "Operational",
      "latitude": -11.224,
      "longitude": 28.7955,
      "lastMaintenance": "2025-11-16T15:00:30.716543"
    },
    {
      "id": 37,
      "chiefdom": "Chief Mwewa",
      "facilityName": "Chalimbana Facility 37",
      "facilityType": "Hospital",
      "village": "Sinazongwe",
      "capacity": 375,
      "currentUsage": 1459,
      "status": "Under Construction",
      "latitude": -11.1056,
      "longitude": 28.8725,
      "lastMaintenance": "2025-09-06T15:00:30.716550"
    },
    {
      "id": 38,
      "chiefdom": "Chief Mwewa",
      "facilityName": "Mpika Facility 38",
      "facilityType": "Primary School",
      "village": "Makeni",
      "capacity": 1477,
      "currentUsage": 1131,
      "status": "Under Construction",
      "latitude": -11.2004,
      "longitude": 28.8437,
      "lastMaintenance": "2025-12-18T15:00:30.716557"
    },
    {
      "id": 39,
      "chiefdom": "Chief Mwewa",
      "facilityName": "Sikanze Facility 39",
      "facilityType": "Primary School",
      "village": "Chinsali",
      "capacity": 802,
      "currentUsage": 1416,
      "status": "Needs Repair",
      "latitude": -11.2751,
      "longitude": 28.8176,
      "lastMaintenance": "2025-06-10T15:00:30.716564"
    },
    {
      "id": 40,
      "chiefdom": "Chief Mwewa",
      "facilityName": "Luangwa Facility 40",
      "facilityType": "Clinic",
      "village": "Kasempa",
      "capacity": 787,
      "currentUsage": 470,
      "status": "Needs Repair",
      "latitude": -11.2359,
      "longitude": 28.9836,
      "lastMaintenance": "2025-10-15T15:00:30.716570"
    },
    {
      "id": 41,
      "chiefdom": "Chief Mwewa",
      "facilityName": "Solwezi Facility 41",
      "facilityType": "Primary School",
      "village": "Mongu",
      "capacity": 1340,
      "currentUsage": 1016,
      "status": "Operational",
      "latitude": -11.2385,
      "longitude": 28.9839,
      "lastMaintenance": "2025-03-18T15:00:30.716577"
    },
    {
      "id": 42,
      "chiefdom": "Chief Mwewa",
      "facilityName": "Chililabombwe Facility 42",
      "facilityType": "Hospital",
      "village": "Kitwe",
      "capacity": 185,
      "currentUsage": 930,
      "status": "Needs Repair",
      "latitude": -11.2714,
      "longitude": 28.8469,
      "lastMaintenance": "2025-02-01T15:00:30.716584"
    },
    {
      "id": 43,
      "chiefdom": "Chief Mwewa",
      "facilityName": "Mporokoso Facility 43",
      "facilityType": "Hospital",
      "village": "Makeni",
      "capacity": 1213,
      "currentUsage": 360,
      "status": "Under Construction",
      "latitude": -11.1589,
      "longitude": 28.8581,
      "lastMaintenance": "2025-09-26T15:00:30.716591"
    },
    {
      "id": 44,
      "chiefdom": "Chief Mwewa",
      "facilityName": "Choma Facility 44",
      "facilityType": "Clinic",
      "village": "Chalala",
      "capacity": 821,
      "currentUsage": 634,
      "status": "Needs Repair",
      "latitude": -11.1963,
      "longitude": 28.9872,
      "lastMaintenance": "2025-10-21T15:00:30.716598"
    },
    {
      "id": 45,
      "chiefdom": "Chief Mwewa",
      "facilityName": "Shangombo Facility 45",
      "facilityType": "Clinic",
      "village": "Mufumbwe",
      "capacity": 935,
      "currentUsage": 163,
      "status": "Needs Repair",
      "latitude": -11.1747,
      "longitude": 28.8832,
      "lastMaintenance": "2025-06-26T15:00:30.716605"
    },
    {
      "id": 46,
      "chiefdom": "Chief Mwewa",
      "facilityName": "Munyumba Facility 46",
      "facilityType": "Clinic",
      "village": "Kasempa",
      "capacity": 655,
      "currentUsage": 454,
      "status": "Under Construction",
      "latitude": -11.2992,
      "longitude": 28.8967,
      "lastMaintenance": "2025-01-26T15:00:30.716612"
    },
    {
      "id": 47,
      "chiefdom": "Chief Mwewa",
      "facilityName": "Chama Facility 47",
      "facilityType": "Clinic",
      "village": "Chililabombwe",
      "capacity": 109,
      "currentUsage": 796,
      "status": "Under Construction",
      "latitude": -11.2079,
      "longitude": 28.8029,
      "lastMaintenance": "2025-01-29T15:00:30.716619"
    },
    {
      "id": 48,
      "chiefdom": "Chief Mwewa",
      "facilityName": "Kabwe Facility 48",
      "facilityType": "Clinic",
      "village": "Chongwe Central",
      "capacity": 731,
      "currentUsage": 1034,
      "status": "Under Construction",
      "latitude": -11.1114,
      "longitude": 28.9699,
      "lastMaintenance": "2025-01-27T15:00:30.716625"
    },
    {
      "id": 49,
      "chiefdom": "Chief Mwewa",
      "facilityName": "Zambezi Facility 49",
      "facilityType": "Secondary School",
      "village": "Kaoma",
      "capacity": 273,
      "currentUsage": 1226,
      "status": "Operational",
      "latitude": -11.118,
      "longitude": 28.9503,
      "lastMaintenance": "2025-11-27T15:00:30.716632"
    },
    {
      "id": 50,
      "chiefdom": "Chief Mwewa",
      "facilityName": "Leopards Hill Facility 50",
      "facilityType": "Primary School",
      "village": "Kalingalinga",
      "capacity": 575,
      "currentUsage": 814,
      "status": "Needs Repair",
      "latitude": -11.282,
      "longitude": 28.9147,
      "lastMaintenance": "2025-02-21T15:00:30.716639"
    }
  ]
}