{
  "roads": [
    {
      "id": 1,
      "chiefdom": "Chief Chipepo",
      "roadName": "Sikanze - Mufumbwe Road",
      "roadType": "Earth",
      "lengthKm": 44.9,
      "condition": "Fair",
      "trafficVolume": "High",
      "lastMaintenance": "2024-06-14T15:00:30.573140",
      "connectedVillages": [
        "Palabana",
        "Mpanshya",
        "Kapiri"
      ],
      "latitude": -15.3912,
      "longitude": 28.7327
    },
    {
      "id": 2,
      "chiefdom": "Chief Chipepo",
      "roadName": "Shangombo - Lilayi Road",
      "roadType": "Gravel",
      "lengthKm": 22.2,
      "condition": "Good",
      "trafficVolume": "High",
      "lastMaintenance": "2025-06-08T15:00:30.573156",
      "connectedVillages": [
        "Senanga",
        "Mufumbwe",
        "Nakatindi",
        "Lilayi",
        "Chongwe Central"
      ],
      "latitude": -15.2308,
      "longitude": 28.6333
    },
    {
      "id": 3,
      "chiefdom": "Chief Chipepo",
      "roadName": "Mwinilunga - Meanwood Road",
      "roadType": "Tarred",
      "lengthKm": 22.2,
      "condition": "Critical",
      "trafficVolume": "Low",
      "lastMaintenance": "2024-03-15T15:00:30.573168",
      "connectedVillages": [
        "Mongu",
        "Shangombo",
        "Mufumbwe"
      ],
      "latitude": -15.2427,
      "longitude": 28.7899
    },
    {
      "id": 4,
      "chiefdom": "Chief Chipepo",
      "roadName": "Kalomo - Chipata Road",
      "roadType": "Paved",
      "lengthKm": 22.5,
      "condition": "Good",
      "trafficVolume": "High",
      "lastMaintenance": "2024-10-12T15:00:30.573177",
      "connectedVillages": [
        "Chongwe Central",
        "Choma",
        "Chalala"
      ],
      "latitude": -15.3552,
      "longitude": 28.7579
    },
    {
      "id": 5,
      "chiefdom": "Chief Chipepo",
      "roadName": "Vubwi - Serenje Road",
      "roadType": "Tarred",
      "lengthKm": 48.7,
      "condition": "Poor",
      "trafficVolume": "High",
      "lastMaintenance": "2025-03-26T15:00:30.573186",
      "connectedVillages": [
        "Mkushi",
        "Mufumbwe",
        "Kanakantapa",
        "Luangwa",
        "Chalala"
      ],
      "latitude": -15.2904,
      "longitude": 28.7013
    },
    {
      "id": 6,
      "chiefdom": "Chief Chipepo",
      "roadName": "Pemba - Kalomo Road",
      "roadType": "Paved",
      "lengthKm": 27.3,
      "condition": "Good",
      "trafficVolume": "Low",
      "lastMaintenance": "2024-02-22T15:00:30.573197",
      "connectedVillages": [
        "Kabwe",
        "Monze",
        "Mpika",
        "Kalomo",
        "Mbala"
      ],
      "latitude": -15.3352,
      "longitude": 28.6474
    },
    {
      "id": 7,
      "chiefdom": "Chief Chipepo",
      "roadName": "Mongu - Mufumbwe Road",
      "roadType": "Tarred",
      "lengthKm": 43.2,
      "condition": "Critical",
      "trafficVolume": "Low",
      "lastMaintenance": "2025-12-01T15:00:30.573206",
      "connectedVillages": [
        "Pemba",
        "Chipapa",
        "Luwingu",
        "Siavonga"
      ],
      "latitude": -15.4144,
      "longitude": 28.6075
    },
    {
      "id": 8,
      "chiefdom": "Chief Chipepo",
      "roadName": "Mambwe - Gwembe Road",
      "roadType": "Paved",
      "lengthKm": 34.1,
      "condition": "Fair",
      "trafficVolume": "High",
      "lastMaintenance": "2025-02-21T15:00:30.573217",
      "connectedVillages": [
        "Samfya",
        "Lunsemfwa",
        "Mpika",
        "Leopards Hill"
      ],
      "latitude": -15.4196,
      "longitude": 28.7718
    },
    {
      "id": 9,
      "chiefdom": "Chief Chipepo",
      "roadName": "Mongu - Kabwe Road",
      "roadType": "Tarred",
      "lengthKm": 41.1,
      "condition": "Poor",
      "trafficVolume": "Low",
      "lastMaintenance": "2024-02-05T15:00:30.573226",
      "connectedVillages": [
        "Mpika",
        "Samfya",
        "Chilanga",
        "Luanshya"
      ],
      "latitude": -15.2359,
      "longitude": 28.6248
    },
    {
      "id": 10,
      "chiefdom": "Chief Chipepo",
      "roadName": "Chama - Livingstone Road",
      "roadType": "Tarred",
      "lengthKm": 47.9,
      "condition": "Good",
      "trafficVolume": "Medium",
      "lastMaintenance": "2025-09-27T15:00:30.573235",
      "connectedVillages": [
        "Sinda",
        "Mporokoso",
        "Mpongwe",
        "Kabwe",
        "Kasempa"
      ],
      "latitude": -15.3234,
      "longitude": 28.7773
    },
    {
      "id": 11,
      "chiefdom": "Chief Chipepo",
      "roadName": "Kalulushi - Nakonde Road",
      "roadType": "Paved",
      "lengthKm": 20.4,
      "condition": "Good",
      "trafficVolume": "High",
      "lastMaintenance": "2024-12-23T15:00:30.573244",
      "connectedVillages": [
        "Leopards Hill",
        "Vubwi",
        "Kitwe"
      ],
      "latitude": -15.2452,
      "longitude": 28.7063
    },
    {
      "id": 12,
      "chiefdom": "Chief Chipepo",
      "roadName": "Kaoma - Kabompo Road",
      "roadType": "Tarred",
      "lengthKm": 6.9,
      "condition": "Poor",
      "trafficVolume": "High",
      "lastMaintenance": "2024-03-05T15:00:30.573253",
      "connectedVillages": [
        "Palabana",
        "Mbabala",
        "Meanwood",
        "Zambezi",
        "Siavonga"
      ],
      "latitude": -15.256,
      "longitude": 28.6664
    },
    {
      "id": 13,
      "chiefdom": "Chief Chipepo",
      "roadName": "Mongu - Kalomo Road",
      "roadType": "Earth",
      "lengthKm": 34.2,
      "condition": "Poor",
      "trafficVolume": "Medium",
      "lastMaintenance": "2024-10-17T15:00:30.573262",
      "connectedVillages": [
        "Shimabala",
        "Kalabo",
        "Kitwe",
        "Kabwe"
      ],
      "latitude": -15.372,
      "longitude": 28.7345
    },
    {
      "id": 14,
      "chiefdom": "Chief Chipepo",
      "roadName": "Katete - Serenje Road",
      "roadType": "Gravel",
      "lengthKm": 11.7,
      "condition": "Poor",
      "trafficVolume": "High",
      "lastMaintenance": "2025-09-23T15:00:30.573272",
      "connectedVillages": [
        "Mkushi",
        "Meanwood",
        "Serenje",
        "Chalala"
      ],
      "latitude": -15.3312,
      "longitude": 28.7407
    },
    {
      "id": 15,
      "chiefdom": "Chief Chipepo",
      "roadName": "Kasama - Senanga Road",
      "roadType": "Earth",
      "lengthKm": 12.5,
      "condition": "Critical",
      "trafficVolume": "High",
      "lastMaintenance": "2025-07-26T15:00:30.573281",
      "connectedVillages": [
        "Chibombo",
        "Choma",
        "Mbala",
        "Katete"
      ],
      "latitude": -15.3461,
      "longitude": 28.6397
    },
    {
      "id": 16,
      "chiefdom": "Chief Chipepo",
      "roadName": "Kapiri - Kaoma Road",
      "roadType": "Earth",
      "lengthKm": 41.4,
      "condition": "Fair",
      "trafficVolume": "Low",
      "lastMaintenance": "2025-08-03T15:00:30.573291",
      "connectedVillages": [
        "Siavonga",
        "Senanga",
        "Lilayi",
        "Makeni"
      ],
      "latitude": -15.2409,
      "longitude": 28.6967
    },
    {
      "id": 17,
      "chiefdom": "Chief Chipepo",
      "roadName": "Shimabala - Mpanshya Road",
      "roadType": "Tarred",
      "lengthKm": 20.7,
      "condition": "Poor",
      "trafficVolume": "Low",
      "lastMaintenance": "2024-12-17T15:00:30.573300",
      "connectedVillages": [
        "Chama",
        "Chingola",
        "Chilanga",
        "Mutumbi",
        "Lukulu"
      ],
      "latitude": -15.2552,
      "longitude": 28.6199
    },
    {
      "id": 18,
      "chiefdom": "Chief Chipepo",
      "roadName": "Mporokoso - Chilanga Road",
      "roadType": "Tarred",
      "lengthKm": 7.6,
      "condition": "Fair",
      "trafficVolume": "Low",
      "lastMaintenance": "2024-07-25T15:00:30.573310",
      "connectedVillages": [
        "Kabwe",
        "Chinsali",
        "Sikanze"
      ],
      "latitude": -15.3665,
      "longitude": 28.7031
    },
    {
      "id": 19,
      "chiefdom": "Chief Chipepo",
      "roadName": "Nyimba - Mbala Road",
      "roadType": "Gravel",
      "lengthKm": 44.2,
      "condition": "Fair",
      "trafficVolume": "High",
      "lastMaintenance": "2025-05-28T15:00:30.573319",
      "connectedVillages": [
        "Mufumbwe",
        "Sesheke",
        "Mpanshya",
        "Kasempa",
        "Mazabuka"
      ],
      "latitude": -15.3852,
      "longitude": 28.6931
    },
    {
      "id": 20,
      "chiefdom": "Chief Chipepo",
      "roadName": "Mumbwa - Luangwa Road",
      "roadType": "Earth",
      "lengthKm": 24.4,
      "condition": "Critical",
      "trafficVolume": "Medium",
      "lastMaintenance": "2024-07-11T15:00:30.573328",
      "connectedVillages": [
        "Chibombo",
        "Sesheke",
        "Kalingalinga"
      ],
      "latitude": -15.2926,
      "longitude": 28.765
    },
    {
      "id": 21,
      "chiefdom": "Chief Chipepo",
      "roadName": "Nyimba - Nakonde Road",
      "roadType": "Paved",
      "lengthKm": 6.0,
      "condition": "Good",
      "trafficVolume": "High",
      "lastMaintenance": "2025-09-26T15:00:30.573337",
      "connectedVillages": [
        "Mporokoso",
        "Serenje",
        "Kafue Riverside",
        "Livingstone",
        "Mpanshya"
      ],
      "latitude": -15.4036,
      "longitude": 28.7388
    },
    {
      "id": 22,
      "chiefdom": "Chief Chipepo",
      "roadName": "Chongwe Central - Luanshya Road",
      "roadType": "Gravel",
      "lengthKm": 10.4,
      "condition": "Good",
      "trafficVolume": "Low",
      "lastMaintenance": "2025-02-25T15:00:30.573346",
      "connectedVillages": [
        "Solwezi",
        "Sesheke",
        "Katete",
        "Chainda"
      ],
      "latitude": -15.3848,
      "longitude": 28.7933
    },
    {
      "id": 23,
      "chiefdom": "Chief Chipepo",
      "roadName": "Nyimba - Mwinilunga Road",
      "roadType": "Gravel",
      "lengthKm": 6.8,
      "condition": "Good",
      "trafficVolume": "Low",
      "lastMaintenance": "2024-06-16T15:00:30.573355",
      "connectedVillages": [
        "Kawambwa",
        "Kaputa",
        "Choma",
        "Petauke"
      ],
      "latitude": -15.2957,
      "longitude": 28.6377
    },
    {
      "id": 24,
      "chiefdom": "Chief Chipepo",
      "roadName": "Kasempa - Nakatindi Road",
      "roadType": "Earth",
      "lengthKm": 45.8,
      "condition": "Critical",
      "trafficVolume": "Medium",
      "lastMaintenance": "2024-08-24T15:00:30.573364",
      "connectedVillages": [
        "Zambezi",
        "Kalingalinga"
      ],
      "latitude": -15.4285,
      "longitude": 28.6008
    },
    {
      "id": 25,
      "chiefdom": "Chief Chipepo",
      "roadName": "Mbabala - Gwembe Road",
      "roadType": "Gravel",
      "lengthKm": 32.7,
      "condition": "Good",
      "trafficVolume": "High",
      "lastMaintenance": "2024-09-05T15:00:30.573373",
      "connectedVillages": [
        "Kasama",
        "Nyimba",
        "Lilayi",
        "Chalimbana",
        "Mpongwe"
      ],
      "latitude": -15.3358,
      "longitude": 28.6544
    },
    {
      "id": 26,
      "chiefdom": "Chief Chipepo",
      "roadName": "Siavonga - Kasama Road",
      "roadType": "Gravel",
      "lengthKm": 44.4,
      "condition": "Good",
      "trafficVolume": "Low",
      "lastMaintenance": "2024-10-09T15:00:30.573383",
      "connectedVillages": [
        "Chilanga",
        "Solwezi"
      ],
      "latitude": -15.2409,
      "longitude": 28.6594
    },
    {
      "id": 27,
      "chiefdom": "Chief Chipepo",
      "roadName": "Solwezi - Kalabo Road",
      "roadType": "Paved",
      "lengthKm": 19.0,
      "condition": "Good",
      "trafficVolume": "Low",
      "lastMaintenance": "2025-06-12T15:00:30.573392",
      "connectedVillages": [
        "Sinda",
        "Kabompo"
      ],
      "latitude": -15.3255,
      "longitude": 28.6329
    },
    {
      "id": 28,
      "chiefdom": "Chief Chipepo",
      "roadName": "Gwembe - Mufumbwe Road",
      "roadType": "Tarred",
      "lengthKm": 13.5,
      "condition": "Good",
      "trafficVolume": "High",
      "lastMaintenance": "2024-02-13T15:00:30.573400",
      "connectedVillages": [
        "Ngwerere",
        "Mporokoso",
        "Petauke",
        "Mutumbi"
      ],
      "latitude": -15.2504,
      "longitude": 28.625
    },
    {
      "id": 29,
      "chiefdom": "Chief Chipepo",
      "roadName": "Mufulira - Chalala Road",
      "roadType": "Earth",
      "lengthKm": 20.3,
      "condition": "Good",
      "trafficVolume": "High",
      "lastMaintenance": "2025-06-29T15:00:30.573409",
      "connectedVillages": [
        "Luangwa",
        "Chadiza",
        "Leopards Hill"
      ],
      "latitude": -15.3621,
      "longitude": 28.6321
    },
    {
      "id": 30,
      "chiefdom": "Chief Chipepo",
      "roadName": "Sinazongwe - Mwembezhi Road",
      "roadType": "Paved",
      "lengthKm": 17.5,
      "condition": "Poor",
      "trafficVolume": "Medium",
      "lastMaintenance": "2025-02-04T15:00:30.573425",
      "connectedVillages": [
        "Ndola",
        "Pemba",
        "Sinda",
        "Mkushi"
      ],
      "latitude": -15.311,
      "longitude": 28.7015
    },
    {
      "id": 31,
      "chiefdom": "Chief Chipepo",
      "roadName": "Chingola - Nyimba Road",
      "roadType": "Earth",
      "lengthKm": 49.8,
      "condition": "Critical",
      "trafficVolume": "Medium",
      "lastMaintenance": "2024-02-26T15:00:30.573434",
      "connectedVillages": [
        "Sinazongwe",
        "Lilayi",
        "Solwezi",
        "Luanshya",
        "Chalimbana"
      ],
      "latitude": -15.3157,
      "longitude": 28.6466
    },
    {
      "id": 32,
      "chiefdom": "Chief Chipepo",
      "roadName": "Kaputa - Kabompo Road",
      "roadType": "Tarred",
      "lengthKm": 41.3,
      "condition": "Poor",
      "trafficVolume": "Low",
      "lastMaintenance": "2024-04-25T15:00:30.573444",
      "connectedVillages": [
        "Mpika",
        "Lunsemfwa",
        "Mwembezhi",
        "Shangombo"
      ],
      "latitude": -15.3347,
      "longitude": 28.7613
    },
    {
      "id": 33,
      "chiefdom": "Chief Chipepo",
      "roadName": "Mwembezhi - Ngwerere Road",
      "roadType": "Earth",
      "lengthKm": 31.3,
      "condition": "Poor",
      "trafficVolume": "Medium",
      "lastMaintenance": "2025-10-06T15:00:30.573453",
      "connectedVillages": [
        "Kanakantapa",
        "Chilanga",
        "Petauke",
        "Kitwe",
        "Luangwa"
      ],
      "latitude": -15.3717,
      "longitude": 28.6843
    },
    {
      "id": 34,
      "chiefdom": "Chief Chipepo",
      "roadName": "Mpika - Vubwi Road",
      "roadType": "Gravel",
      "lengthKm": 33.5,
      "condition": "Critical",
      "trafficVolume": "High",
      "lastMaintenance": "2024-03-29T15:00:30.573463",
      "connectedVillages": [
        "Senanga",
        "Vubwi"
      ],
      "latitude": -15.2499,
      "longitude": 28.6008
    },
    {
      "id": 35,
      "chiefdom": "Chief Chipepo",
      "roadName": "Kawambwa - Mwinilunga Road",
      "roadType": "Gravel",
      "lengthKm": 35.5,
      "condition": "Fair",
      "trafficVolume": "Medium",
      "lastMaintenance": "2025-01-22T15:00:30.573471",
      "connectedVillages": [
        "Petauke",
        "Mumbwa",
        "Sinazongwe"
      ],
      "latitude": -15.3162,
      "longitude": 28.6749
    },
    {
      "id": 36,
      "chiefdom": "Chief Chipepo",
      "roadName": "Chililabombwe - Kalulushi Road",
      "roadType": "Paved",
      "lengthKm": 41.1,
      "condition": "Good",
      "trafficVolume": "High",
      "lastMaintenance": "2025-08-10T15:00:30.573481",
      "connectedVillages": [
        "Lunsemfwa",
        "Mwembezhi",
        "Lilayi"
      ],
      "latitude": -15.27,
      "longitude": 28.6693
    },
    {
      "id": 37,
      "chiefdom": "Chief Chipepo",
      "roadName": "Palabana - Shimabala Road",
      "roadType": "Paved",
      "lengthKm": 22.3,
      "condition": "Good",
      "trafficVolume": "High",
      "lastMaintenance": "2025-06-08T15:00:30.573490",
      "connectedVillages": [
        "Lunsemfwa",
        "Nchelenge"
      ],
      "latitude": -15.2627,
      "longitude": 28.7379
    },
    {
      "id": 38,
      "chiefdom": "Chief Chipepo",
      "roadName": "Kanakantapa - Chainda Road",
      "roadType": "Gravel",
      "lengthKm": 36.0,
      "condition": "Poor",
      "trafficVolume": "High",
      "lastMaintenance": "2025-03-03T15:00:30.573498",
      "connectedVillages": [
        "Luangwa",
        "Ndola",
        "Kasempa"
      ],
      "latitude": -15.2897,
      "longitude": 28.6005
    },
    {
      "id": 39,
      "chiefdom": "Chief Chipepo",
      "roadName": "Nakonde - Chongwe Central Road",
      "roadType": "Paved",
      "lengthKm": 23.0,
      "condition": "Good",
      "trafficVolume": "Low",
      "lastMaintenance": "2024-03-16T15:00:30.573507",
      "connectedVillages": [
        "Kitwe",
        "Samfya",
        "Mporokoso",
        "Chadiza",
        "Monze"
      ],
      "latitude": -15.3038,
      "longitude": 28.6888
    },
    {
      "id": 40,
      "chiefdom": "Chief Chipepo",
      "roadName": "Kalomo - Shimabala Road",
      "roadType": "Earth",
      "lengthKm": 15.3,
      "condition": "Good",
      "trafficVolume": "High",
      "lastMaintenance": "2024-06-28T15:00:30.573516",
      "connectedVillages": [
        "Petauke",
        "Mbabala",
        "Nakonde",
        "Siavonga",
        "Mpika"
      ],
      "latitude": -15.3907,
      "longitude": 28.6565
    },
    {
      "id": 41,
      "chiefdom": "Chief Chipepo",
      "roadName": "Lundazi - Katete Road",
      "roadType": "Tarred",
      "lengthKm": 19.8,
      "condition": "Good",
      "trafficVolume": "High",
      "lastMaintenance": "2025-05-11T15:00:30.573525",
      "connectedVillages": [
        "Mansa",
        "Petauke"
      ],
      "latitude": -15.3977,
      "longitude": 28.7295
    },
    {
      "id": 42,
      "chiefdom": "Chief Chipepo",
      "roadName": "Ngwerere - Shangombo Road",
      "roadType": "Tarred",
      "lengthKm": 22.6,
      "condition": "Poor",
      "trafficVolume": "Low",
      "lastMaintenance": "2025-10-20T15:00:30.573533",
      "connectedVillages": [
        "Munyumba",
        "Kapiri",
        "Kasama"
      ],
      "latitude": -15.4121,
      "longitude": 28.6391
    },
    {
      "id": 43,
      "chiefdom": "Chief Chipepo",
      "roadName": "Kalulushi - Kapiri Road",
      "roadType": "Paved",
      "lengthKm": 15.2,
      "condition": "Critical",
      "trafficVolume": "Medium",
      "lastMaintenance": "2024-07-20T15:00:30.573542",
      "connectedVillages": [
        "Mufumbwe",
        "Chadiza",
        "Leopards Hill",
        "Pemba",
        "Mazabuka"
      ],
      "latitude": -15.3164,
      "longitude": 28.7357
    },
    {
      "id": 44,
      "chiefdom": "Chief Chipepo",
      "roadName": "Mporokoso - Chililabombwe Road",
      "roadType": "Gravel",
      "lengthKm": 13.5,
      "condition": "Poor",
      "trafficVolume": "High",
      "lastMaintenance": "2024-10-29T15:00:30.573551",
      "connectedVillages": [
        "Kalulushi",
        "Luwingu"
      ],
      "latitude": -15.3114,
      "longitude": 28.7447
    },
    {
      "id": 45,
      "chiefdom": "Chief Chipepo",
      "roadName": "Nakatindi - Chalimbana Road",
      "roadType": "Tarred",
      "lengthKm": 27.1,
      "condition": "Fair",
      "trafficVolume": "High",
      "lastMaintenance": "2024-03-06T15:00:30.573559",
      "connectedVillages": [
        "Livingstone",
        "Gwembe",
        "Kaunga"
      ],
      "latitude": -15.2808,
      "longitude": 28.6525
    },
    {
      "id": 46,
      "chiefdom": "Chief Chipepo",
      "roadName": "Kawambwa - Nakatindi Road",
      "roadType": "Paved",
      "lengthKm": 44.1,
      "condition": "Poor",
      "trafficVolume": "Low",
      "lastMaintenance": "2024-02-01T15:00:30.573569",
      "connectedVillages": [
        "Mazabuka",
        "Pemba",
        "Mbabala",
        "Chilanga",
        "Mansa"
      ],
      "latitude": -15.3753,
      "longitude": 28.7847
    },
    {
      "id": 47,
      "chiefdom": "Chief Chipepo",
      "roadName": "Serenje - Kasempa Road",
      "roadType": "Tarred",
      "lengthKm": 21.3,
      "condition": "Fair",
      "trafficVolume": "High",
      "lastMaintenance": "2024-03-13T15:00:30.573578",
      "connectedVillages": [
        "Meanwood",
        "Mkushi",
        "Mwinilunga",
        "Chisamba"
      ],
      "latitude": -15.2569,
      "longitude": 28.7972
    },
    {
      "id": 48,
      "chiefdom": "Chief Chipepo",
      "roadName": "Mufulira - Ndola Road",
      "roadType": "Gravel",
      "lengthKm": 44.2,
      "condition": "Critical",
      "trafficVolume": "Medium",
      "lastMaintenance": "2025-06-24T15:00:30.573587",
      "connectedVillages": [
        "Munyumba",
        "Senanga",
        "Mwinilunga",
        "Gwembe",
        "Chilanga"
      ],
      "latitude": -15.3196,
      "longitude": 28.6806
    },
    {
      "id": 49,
      "chiefdom": "Chief Chipepo",
      "roadName": "Kitwe - Vubwi Road",
      "roadType": "Gravel",
      "lengthKm": 37.2,
      "condition": "Critical",
      "trafficVolume": "Medium",
      "lastMaintenance": "2024-01-22T15:00:30.573596",
      "connectedVillages": [
        "Mufumbwe",
        "Chongwe Central",
        "Palabana",
        "Luwingu",
        "Senanga"
      ],
      "latitude": -15.395,
      "longitude": 28.7464
    },
    {
      "id": 50,
      "chiefdom": "Chief Chipepo",
      "roadName": "Chadiza - Chama Road",
      "roadType": "Gravel",
      "lengthKm": 48.1,
      "condition": "Good",
      "trafficVolume": "Low",
      "lastMaintenance": "2025-03-22T15:00:30.573607",
      "connectedVillages": [
        "Lilayi",
        "Mkushi"
      ],
      "latitude": -15.2882,
      "longitude": 28.6862
    }
  ],
  "communicationTowers": [
    {
      "id": 1,
      "chiefdom": "Chief Chipepo",
      "towerName": "Mongu Tower 1",
      "operator": "Airtel",
      "towerType": "3G",
      "coverageRadius": 10.9,
      "populationCovered": 13238,
      "status": "Operational",
      "latitude": -15.2438,
      "longitude": 28.6556,
      "installationDate": "2024-02-25T15:00:30.573619"
    },
    {
      "id": 2,
      "chiefdom": "Chief Chipepo",
      "towerName": "Munyumba Tower 2",
      "operator": "MTN",
      "towerType": "2G",
      "coverageRadius": 12.0,
      "populationCovered": 4215,
      "status": "Maintenance",
      "latitude": -15.2326,
      "longitude": 28.7891,
      "installationDate": "2024-08-15T15:00:30.573627"
    },
    {
      "id": 3,
      "chiefdom": "Chief Chipepo",
      "towerName": "Pemba Tower 3",
      "operator": "Airtel",
      "towerType": "2G",
      "coverageRadius": 8.1,
      "populationCovered": 8346,
      "status": "Maintenance",
      "latitude": -15.3144,
      "longitude": 28.6019,
      "installationDate": "2025-01-11T15:00:30.573634"
    },
    {
      "id": 4,
      "chiefdom": "Chief Chipepo",
      "towerName": "Chainda Tower 4",
      "operator": "Zamtel",
      "towerType": "3G",
      "coverageRadius": 6.5,
      "populationCovered": 8485,
      "status": "Maintenance",
      "latitude": -15.3246,
      "longitude": 28.7782,
      "installationDate": "2023-02-03T15:00:30.573642"
    },
    {
      "id": 5,
      "chiefdom": "Chief Chipepo",
      "towerName": "Kaoma Tower 5",
      "operator": "Zamtel",
      "towerType": "3G",
      "coverageRadius": 19.2,
      "populationCovered": 8697,
      "status": "Operational",
      "latitude": -15.3553,
      "longitude": 28.6505,
      "installationDate": "2023-06-18T15:00:30.573649"
    },
    {
      "id": 6,
      "chiefdom": "Chief Chipepo",
      "towerName": "Kalomo Tower 6",
      "operator": "MTN",
      "towerType": "3G",
      "coverageRadius": 8.3,
      "populationCovered": 10822,
      "status": "Planned",
      "latitude": -15.4162,
      "longitude": 28.6014,
      "installationDate": "2023-10-02T15:00:30.573658"
    },
    {
      "id": 7,
      "chiefdom": "Chief Chipepo",
      "towerName": "Mbala Tower 7",
      "operator": "Airtel",
      "towerType": "4G",
      "coverageRadius": 12.2,
      "populationCovered": 23056,
      "status": "Maintenance",
      "latitude": -15.2957,
      "longitude": 28.6245,
      "installationDate": "2024-11-29T15:00:30.573665"
    },
    {
      "id": 8,
      "chiefdom": "Chief Chipepo",
      "towerName": "Chama Tower 8",
      "operator": "MTN",
      "towerType": "2G",
      "coverageRadius": 7.6,
      "populationCovered": 6520,
      "status": "Maintenance",
      "latitude": -15.2634,
      "longitude": 28.7723,
      "installationDate": "2023-06-04T15:00:30.573673"
    },
    {
      "id": 9,
      "chiefdom": "Chief Chipepo",
      "towerName": "Senanga Tower 9",
      "operator": "Airtel",
      "towerType": "4G",
      "coverageRadius": 5.3,
      "populationCovered": 5192,
      "status": "Operational",
      "latitude": -15.3951,
      "longitude": 28.7533,
      "installationDate": "2023-01-27T15:00:30.573680"
    },
    {
      "id": 10,
      "chiefdom": "Chief Chipepo",
      "towerName": "Chisamba Tower 10",
      "operator": "Airtel",
      "towerType": "3G",
      "coverageRadius": 15.9,
      "populationCovered": 5711,
      "status": "Planned",
      "latitude": -15.3824,
      "longitude": 28.7758,
      "installationDate": "2022-01-23T15:00:30.573687"
    },
    {
      "id": 11,
      "chiefdom": "Chief Chipepo",
      "towerName": "Serenje Tower 11",
      "operator": "MTN",
      "towerType": "3G",
      "coverageRadius": 15.2,
      "populationCovered": 10574,
      "status": "Operational",
      "latitude": -15.3197,
      "longitude": 28.7632,
      "installationDate": "2022-08-04T15:00:30.573694"
    },
    {
      "id": 12,
      "chiefdom": "Chief Chipepo",
      "towerName": "Zambezi Tower 12",
      "operator": "Zamtel",
      "towerType": "2G",
      "coverageRadius": 11.4,
      "populationCovered": 24688,
      "status": "Maintenance",
      "latitude": -15.2727,
      "longitude": 28.715,
      "installationDate": "2022-11-04T15:00:30.573701"
    },
    {
      "id": 13,
      "chiefdom": "Chief Chipepo",
      "towerName": "Solwezi Tower 13",
      "operator": "MTN",
      "towerType": "4G",
      "coverageRadius": 8.2,
      "populationCovered": 8149,
      "status": "Maintenance",
      "latitude": -15.2803,
      "longitude": 28.6121,
      "installationDate": "2023-02-05T15:00:30.573707"
    },
    {
      "id": 14,
      "chiefdom": "Chief Chipepo",
      "towerName": "Ndola Tower 14",
      "operator": "MTN",
      "towerType": "4G",
      "coverageRadius": 14.7,
      "populationCovered": 14085,
      "status": "Operational",
      "latitude": -15.3062,
      "longitude": 28.6824,
      "installationDate": "2024-08-14T15:00:30.573714"
    },
    {
      "id": 15,
      "chiefdom": "Chief Chipepo",
      "towerName": "Mwembezhi Tower 15",
      "operator": "Airtel",
      "towerType": "4G",
      "coverageRadius": 11.7,
      "populationCovered": 22909,
      "status": "Operational",
      "latitude": -15.2806,
      "longitude": 28.7342,
      "installationDate": "2021-08-25T15:00:30.573721"
    },
    {
      "id": 16,
      "chiefdom": "Chief Chipepo",
      "towerName": "Ndola Tower 16",
      "operator": "MTN",
      "towerType": "3G",
      "coverageRadius": 16.0,
      "populationCovered": 10839,
      "status": "Planned",
      "latitude": -15.4007,
      "longitude": 28.652,
      "installationDate": "2021-02-19T15:00:30.573729"
    },
    {
      "id": 17,
      "chiefdom": "Chief Chipepo",
      "towerName": "Mongu Tower 17",
      "operator": "Airtel",
      "towerType": "2G",
      "coverageRadius": 8.9,
      "populationCovered": 16177,
      "status": "Maintenance",
      "latitude": -15.2819,
      "longitude": 28.7108,
      "installationDate": "2024-04-25T15:00:30.573736"
    },
    {
      "id": 18,
      "chiefdom": "Chief Chipepo",
      "towerName": "Mkushi Tower 18",
      "operator": "Zamtel",
      "towerType": "2G",
      "coverageRadius": 7.1,
      "populationCovered": 16064,
      "status": "Operational",
      "latitude": -15.3314,
      "longitude": 28.6046,
      "installationDate": "2023-02-01T15:00:30.573743"
    },
    {
      "id": 19,
      "chiefdom": "Chief Chipepo",
      "towerName": "Mumbwa Tower 19",
      "operator": "Zamtel",
      "towerType": "3G",
      "coverageRadius": 10.2,
      "populationCovered": 4748,
      "status": "Operational",
      "latitude": -15.2859,
      "longitude": 28.6342,
      "installationDate": "2023-04-23T15:00:30.573750"
    },
    {
      "id": 20,
      "chiefdom": "Chief Chipepo",
      "towerName": "Chibombo Tower 20",
      "operator": "Airtel",
      "towerType": "2G",
      "coverageRadius": 9.6,
      "populationCovered": 8581,
      "status": "Planned",
      "latitude": -15.4095,
      "longitude": 28.6476,
      "installationDate": "2024-09-20T15:00:30.573757"
    },
    {
      "id": 21,
      "chiefdom": "Chief Chipepo",
      "towerName": "Kasempa Tower 21",
      "operator": "Zamtel",
      "towerType": "2G",
      "coverageRadius": 14.6,
      "populationCovered": 19128,
      "status": "Maintenance",
      "latitude": -15.3785,
      "longitude": 28.7444,
      "installationDate": "2024-07-25T15:00:30.573764"
    },
    {
      "id": 22,
      "chiefdom": "Chief Chipepo",
      "towerName": "Chililabombwe Tower 22",
      "operator": "MTN",
      "towerType": "3G",
      "coverageRadius": 16.3,
      "populationCovered": 7090,
      "status": "Operational",
      "latitude": -15.3656,
      "longitude": 28.6206,
      "installationDate": "2021-12-13T15:00:30.573770"
    },
    {
      "id": 23,
      "chiefdom": "Chief Chipepo",
      "towerName": "Kalulushi Tower 23",
      "operator": "MTN",
      "towerType": "2G",
      "coverageRadius": 19.1,
      "populationCovered": 6109,
      "status": "Operational",
      "latitude": -15.2362,
      "longitude": 28.7489,
      "installationDate": "2025-07-20T15:00:30.573777"
    },
    {
      "id": 24,
      "chiefdom": "Chief Chipepo",
      "towerName": "Kabwe Tower 24",
      "operator": "MTN",
      "towerType": "4G",
      "coverageRadius": 8.2,
      "populationCovered": 15277,
      "status": "Maintenance",
      "latitude": -15.3504,
      "longitude": 28.6815,
      "installationDate": "2021-12-29T15:00:30.573784"
    },
    {
      "id": 25,
      "chiefdom": "Chief Chipepo",
      "towerName": "Palabana Tower 25",
      "operator": "Zamtel",
      "towerType": "3G",
      "coverageRadius": 11.9,
      "populationCovered": 23847,
      "status": "Operational",
      "latitude": -15.295,
      "longitude": 28.694,
      "installationDate": "2025-03-08T15:00:30.573791"
    },
    {
      "id": 26,
      "chiefdom": "Chief Chipepo",
      "towerName": "Kalulushi Tower 26",
      "operator": "Zamtel",
      "towerType": "3G",
      "coverageRadius": 6.8,
      "populationCovered": 12345,
      "status": "Operational",
      "latitude": -15.3684,
      "longitude": 28.7969,
      "installationDate": "2023-07-10T15:00:30.573799"
    },
    {
      "id": 27,
      "chiefdom": "Chief Chipepo",
      "towerName": "Katoba Tower 27",
      "operator": "Zamtel",
      "towerType": "4G",
      "coverageRadius": 18.0,
      "populationCovered": 24873,
      "status": "Planned",
      "latitude": -15.2756,
      "longitude": 28.7618,
      "installationDate": "2024-07-01T15:00:30.573805"
    },
    {
      "id": 28,
      "chiefdom": "Chief Chipepo",
      "towerName": "Palabana Tower 28",
      "operator": "Zamtel",
      "towerType": "3G",
      "coverageRadius": 10.4,
      "populationCovered": 6850,
      "status": "Maintenance",
      "latitude": -15.2763,
      "longitude": 28.7914,
      "installationDate": "2021-04-29T15:00:30.573812"
    },
    {
      "id": 29,
      "chiefdom": "Chief Chipepo",
      "towerName": "Mwinilunga Tower 29",
      "operator": "Airtel",
      "towerType": "3G",
      "coverageRadius": 14.3,
      "populationCovered": 24417,
      "status": "Planned",
      "latitude": -15.3722,
      "longitude": 28.6307,
      "installationDate": "2025-08-22T15:00:30.573819"
    },
    {
      "id": 30,
      "chiefdom": "Chief Chipepo",
      "towerName": "Nakatindi Tower 30",
      "operator": "MTN",
      "towerType": "3G",
      "coverageRadius": 18.9,
      "populationCovered": 12081,
      "status": "Operational",
      "latitude": -15.273,
      "longitude": 28.6433,
      "installationDate": "2023-06-08T15:00:30.573826"
    },
    {
      "id": 31,
      "chiefdom": "Chief Chipepo",
      "towerName": "Makeni Tower 31",
      "operator": "Zamtel",
      "towerType": "4G",
      "coverageRadius": 11.0,
      "populationCovered": 22871,
      "status": "Maintenance",
      "latitude": -15.3973,
      "longitude": 28.6318,
      "installationDate": "2025-12-05T15:00:30.573832"
    },
    {
      "id": 32,
      "chiefdom": "Chief Chipepo",
      "towerName": "Kanakantapa Tower 32",
      "operator": "Airtel",
      "towerType": "3G",
      "coverageRadius": 9.6,
      "populationCovered": 6883,
      "status": "Operational",
      "latitude": -15.3004,
      "longitude": 28.6844,
      "installationDate": "2021-12-23T15:00:30.573843"
    },
    {
      "id": 33,
      "chiefdom": "Chief Chipepo",
      "towerName": "Chinsali Tower 33",
      "operator": "MTN",
      "towerType": "2G",
      "coverageRadius": 19.1,
      "populationCovered": 4084,
      "status": "Planned",
      "latitude": -15.2518,
      "longitude": 28.6707,
      "installationDate": "2023-12-31T15:00:30.573849"
    },
    {
      "id": 34,
      "chiefdom": "Chief Chipepo",
      "towerName": "Lundazi Tower 34",
      "operator": "MTN",
      "towerType": "2G",
      "coverageRadius": 10.4,
      "populationCovered": 4811,
      "status": "Operational",
      "latitude": -15.2976,
      "longitude": 28.7082,
      "installationDate": "2025-04-09T15:00:30.573856"
    },
    {
      "id": 35,
      "chiefdom": "Chief Chipepo",
      "towerName": "Siavonga Tower 35",
      "operator": "Zamtel",
      "towerType": "2G",
      "coverageRadius": 8.8,
      "populationCovered": 4218,
      "status": "Planned",
      "latitude": -15.3226,
      "longitude": 28.6196,
      "installationDate": "2024-01-23T15:00:30.573863"
    },
    {
      "id": 36,
      "chiefdom": "Chief Chipepo",
      "towerName": "Ndola Tower 36",
      "operator": "MTN",
      "towerType": "4G",
      "coverageRadius": 15.4,
      "populationCovered": 13832,
      "status": "Operational",
      "latitude": -15.3183,
      "longitude": 28.6071,
      "installationDate": "2022-04-07T15:00:30.573871"
    },
    {
      "id": 37,
      "chiefdom": "Chief Chipepo",
      "towerName": "Munyumba Tower 37",
      "operator": "MTN",
      "towerType": "4G",
      "coverageRadius": 10.3,
      "populationCovered": 10404,
      "status": "Operational",
      "latitude": -15.3545,
      "longitude": 28.7485,
      "installationDate": "2025-01-02T15:00:30.573878"
    },
    {
      "id": 38,
      "chiefdom": "Chief Chipepo",
      "towerName": "Mwembezhi Tower 38",
      "operator": "Airtel",
      "towerType": "4G",
      "coverageRadius": 13.5,
      "populationCovered": 10727,
      "status": "Maintenance",
      "latitude": -15.3048,
      "longitude": 28.6786,
      "installationDate": "2022-11-29T15:00:30.573885"
    },
    {
      "id": 39,
      "chiefdom": "Chief Chipepo",
      "towerName": "Luanshya Tower 39",
      "operator": "Zamtel",
      "towerType": "2G",
      "coverageRadius": 14.9,
      "populationCovered": 10886,
      "status": "Maintenance",
      "latitude": -15.3244,
      "longitude": 28.7372,
      "installationDate": "2024-01-23T15:00:30.573892"
    },
    {
      "id": 40,
      "chiefdom": "Chief Chipepo",
      "towerName": "Sesheke Tower 40",
      "operator": "Airtel",
      "towerType": "4G",
      "coverageRadius": 17.4,
      "populationCovered": 13273,
      "status": "Operational",
      "latitude": -15.3598,
      "longitude": 28.7232,
      "installationDate": "2022-04-04T15:00:30.573900"
    },
    {
      "id": 41,
      "chiefdom": "Chief Chipepo",
      "towerName": "Nchelenge Tower 41",
      "operator": "MTN",
      "towerType": "4G",
      "coverageRadius": 14.5,
      "populationCovered": 13333,
      "status": "Planned",
      "latitude": -15.3816,
      "longitude": 28.7275,
      "installationDate": "2022-07-08T15:00:30.573907"
    },
    {
      "id": 42,
      "chiefdom": "Chief Chipepo",
      "towerName": "Mwembezhi Tower 42",
      "operator": "Airtel",
      "towerType": "4G",
      "coverageRadius": 14.6,
      "populationCovered": 23649,
      "status": "Operational",
      "latitude": -15.2695,
      "longitude": 28.7505,
      "installationDate": "2025-01-18T15:00:30.573915"
    },
    {
      "id": 43,
      "chiefdom": "Chief Chipepo",
      "towerName": "Katoba Tower 43",
      "operator": "Zamtel",
      "towerType": "3G",
      "coverageRadius": 14.8,
      "populationCovered": 8620,
      "status": "Planned",
      "latitude": -15.239,
      "longitude": 28.7222,
      "installationDate": "2025-12-03T15:00:30.573922"
    },
    {
      "id": 44,
      "chiefdom": "Chief Chipepo",
      "towerName": "Luanshya Tower 44",
      "operator": "Airtel",
      "towerType": "3G",
      "coverageRadius": 10.5,
      "populationCovered": 19660,
      "status": "Maintenance",
      "latitude": -15.2471,
      "longitude": 28.676,
      "installationDate": "2023-11-30T15:00:30.573929"
    },
    {
      "id": 45,
      "chiefdom": "Chief Chipepo",
      "towerName": "Monze Tower 45",
      "operator": "Airtel",
      "towerType": "2G",
      "coverageRadius": 9.9,
      "populationCovered": 22487,
      "status": "Maintenance",
      "latitude": -15.3925,
      "longitude": 28.6639,
      "installationDate": "2023-09-10T15:00:30.573936"
    },
    {
      "id": 46,
      "chiefdom": "Chief Chipepo",
      "towerName": "Nakonde Tower 46",
      "operator": "MTN",
      "towerType": "4G",
      "coverageRadius": 5.3,
      "populationCovered": 9645,
      "status": "Planned",
      "latitude": -15.3945,
      "longitude": 28.6769,
      "installationDate": "2022-03-12T15:00:30.573944"
    },
    {
      "id": 47,
      "chiefdom": "Chief Chipepo",
      "towerName": "Kaoma Tower 47",
      "operator": "Zamtel",
      "towerType": "3G",
      "coverageRadius": 8.8,
      "populationCovered": 22733,
      "status": "Maintenance",
      "latitude": -15.2585,
      "longitude": 28.673,
      "installationDate": "2024-08-14T15:00:30.573951"
    },
    {
      "id": 48,
      "chiefdom": "Chief Chipepo",
      "towerName": "Gwembe Tower 48",
      "operator": "MTN",
      "towerType": "4G",
      "coverageRadius": 6.1,
      "populationCovered": 18454,
      "status": "Operational",
      "latitude": -15.3154,
      "longitude": 28.6121,
      "installationDate": "2024-02-28T15:00:30.573958"
    },
    {
      "id": 49,
      "chiefdom": "Chief Chipepo",
      "towerName": "Kasama Tower 49",
      "operator": "MTN",
      "towerType": "3G",
      "coverageRadius": 16.7,
      "populationCovered": 4021,
      "status": "Planned",
      "latitude": -15.3452,
      "longitude": 28.7295,
      "installationDate": "2024-12-08T15:00:30.573965"
    },
    {
      "id": 50,
      "chiefdom": "Chief Chipepo",
      "towerName": "Kitwe Tower 50",
      "operator": "MTN",
      "towerType": "4G",
      "coverageRadius": 19.1,
      "populationCovered": 5453,
      "status": "Maintenance",
      "latitude": -15.3026,
      "longitude": 28.6839,
      "installationDate": "2025-09-06T15:00:30.573971"
    }
  ],
  "connectivityAreas": [
    {
      "id": 1,
      "chiefdom": "Chief Chipepo",
      "areaName": "Kaputa Connectivity 1",
      "population": 5627,
      "mobileSignalQuality": "Good",
      "internetAvailability": "Available",
      "roadAccess": "Good",
      "electricityAccess": true,
      "latitude": -15.2725,
      "longitude": 28.6762
    },
    {
      "id": 2,
      "chiefdom": "Chief Chipepo",
      "areaName": "Chadiza Connectivity 2",
      "population": 9796,
      "mobileSignalQuality": "Poor",
      "internetAvailability": "Available",
      "roadAccess": "Poor",
      "electricityAccess": true,
      "latitude": -15.4191,
      "longitude": 28.7381
    },
    {
      "id": 3,
      "chiefdom": "Chief Chipepo",
      "areaName": "Luanshya Connectivity 3",
      "population": 9592,
      "mobileSignalQuality": "Fair",
      "internetAvailability": "None",
      "roadAccess": "Fair",
      "electricityAccess": true,
      "latitude": -15.3385,
      "longitude": 28.7676
    },
    {
      "id": 4,
      "chiefdom": "Chief Chipepo",
      "areaName": "Mongu Connectivity 4",
      "population": 5891,
      "mobileSignalQuality": "None",
      "internetAvailability": "Limited",
      "roadAccess": "Good",
      "electricityAccess": true,
      "latitude": -15.2603,
      "longitude": 28.7637
    },
    {
      "id": 5,
      "chiefdom": "Chief Chipepo",
      "areaName": "Kanakantapa Connectivity 5",
      "population": 11902,
      "mobileSignalQuality": "Fair",
      "internetAvailability": "Available",
      "roadAccess": "Poor",
      "electricityAccess": true,
      "latitude": -15.2423,
      "longitude": 28.6381
    },
    {
      "id": 6,
      "chiefdom": "Chief Chipepo",
      "areaName": "Kanakantapa Connectivity 6",
      "population": 4963,
      "mobileSignalQuality": "Excellent",
      "internetAvailability": "Available",
      "roadAccess": "Good",
      "electricityAccess": true,
      "latitude": -15.2671,
      "longitude": 28.6233
    },
    {
      "id": 7,
      "chiefdom": "Chief Chipepo",
      "areaName": "Mkushi Connectivity 7",
      "population": 7985,
      "mobileSignalQuality": "None",
      "internetAvailability": "None",
      "roadAccess": "Good",
      "electricityAccess": true,
      "latitude": -15.2973,
      "longitude": 28.6341
    },
    {
      "id": 8,
      "chiefdom": "Chief Chipepo",
      "areaName": "Kaunga Connectivity 8",
      "population": 7699,
      "mobileSignalQuality": "Good",
      "internetAvailability": "Limited",
      "roadAccess": "Fair",
      "electricityAccess": true,
      "latitude": -15.3772,
      "longitude": 28.7301
    },
    {
      "id": 9,
      "chiefdom": "Chief Chipepo",
      "areaName": "Kitwe Connectivity 9",
      "population": 10486,
      "mobileSignalQuality": "Excellent",
      "internetAvailability": "None",
      "roadAccess": "Poor",
      "electricityAccess": false,
      "latitude": -15.3543,
      "longitude": 28.632
    },
    {
      "id": 10,
      "chiefdom": "Chief Chipepo",
      "areaName": "Nchelenge Connectivity 10",
      "population": 13856,
      "mobileSignalQuality": "None",
      "internetAvailability": "Available",
      "roadAccess": "Fair",
      "electricityAccess": false,
      "latitude": -15.4132,
      "longitude": 28.6533
    },
    {
      "id": 11,
      "chiefdom": "Chief Chipepo",
      "areaName": "Chibombo Connectivity 11",
      "population": 8848,
      "mobileSignalQuality": "Poor",
      "internetAvailability": "Limited",
      "roadAccess": "Poor",
      "electricityAccess": true,
      "latitude": -15.285,
      "longitude": 28.6742
    },
    {
      "id": 12,
      "chiefdom": "Chief Chipepo",
      "areaName": "Zambezi Connectivity 12",
      "population": 8348,
      "mobileSignalQuality": "None",
      "internetAvailability": "None",
      "roadAccess": "Fair",
      "electricityAccess": false,
      "latitude": -15.324,
      "longitude": 28.6043
    },
    {
      "id": 13,
      "chiefdom": "Chief Chipepo",
      "areaName": "Makeni Connectivity 13",
      "population": 5317,
      "mobileSignalQuality": "Good",
      "internetAvailability": "Available",
      "roadAccess": "Poor",
      "electricityAccess": true,
      "latitude": -15.2496,
      "longitude": 28.6444
    },
    {
      "id": 14,
      "chiefdom": "Chief Chipepo",
      "areaName": "Ngwerere Connectivity 14",
      "population": 3223,
      "mobileSignalQuality": "None",
      "internetAvailability": "None",
      "roadAccess": "Good",
      "electricityAccess": true,
      "latitude": -15.3834,
      "longitude": 28.6261
    },
    {
      "id": 15,
      "chiefdom": "Chief Chipepo",
      "areaName": "Munyumba Connectivity 15",
      "population": 3338,
      "mobileSignalQuality": "Good",
      "internetAvailability": "Limited",
      "roadAccess": "Fair",
      "electricityAccess": true,
      "latitude": -15.2436,
      "longitude": 28.7713
    },
    {
      "id": 16,
      "chiefdom": "Chief Chipepo",
      "areaName": "Petauke Connectivity 16",
      "population": 7675,
      "mobileSignalQuality": "Fair",
      "internetAvailability": "Available",
      "roadAccess": "Fair",
      "electricityAccess": true,
      "latitude": -15.2981,
      "longitude": 28.6541
    },
    {
      "id": 17,
      "chiefdom": "Chief Chipepo",
      "areaName": "Vubwi Connectivity 17",
      "population": 11433,
      "mobileSignalQuality": "Poor",
      "internetAvailability": "None",
      "roadAccess": "Poor",
      "electricityAccess": true,
      "latitude": -15.2746,
      "longitude": 28.7659
    },
    {
      "id": 18,
      "chiefdom": "Chief Chipepo",
      "areaName": "Mongu Connectivity 18",
      "population": 7177,
      "mobileSignalQuality": "Excellent",
      "internetAvailability": "None",
      "roadAccess": "Good",
      "electricityAccess": true,
      "latitude": -15.4213,
      "longitude": 28.625
    },
    {
      "id": 19,
      "chiefdom": "Chief Chipepo",
      "areaName": "Munyumba Connectivity 19",
      "population": 9742,
      "mobileSignalQuality": "Poor",
      "internetAvailability": "None",
      "roadAccess": "Good",
      "electricityAccess": true,
      "latitude": -15.2692,
      "longitude": 28.6978
    },
    {
      "id": 20,
      "chiefdom": "Chief Chipepo",
      "areaName": "Mazabuka Connectivity 20",
      "population": 4516,
      "mobileSignalQuality": "Good",
      "internetAvailability": "Limited",
      "roadAccess": "Fair",
      "electricityAccess": true,
      "latitude": -15.3935,
      "longitude": 28.7299
    },
    {
      "id": 21,
      "chiefdom": "Chief Chipepo",
      "areaName": "Lunsemfwa Connectivity 21",
      "population": 11604,
      "mobileSignalQuality": "Poor",
      "internetAvailability": "None",
      "roadAccess": "Good",
      "electricityAccess": true,
      "latitude": -15.3232,
      "longitude": 28.6948
    },
    {
      "id": 22,
      "chiefdom": "Chief Chipepo",
      "areaName": "Shimabala Connectivity 22",
      "population": 9185,
      "mobileSignalQuality": "Excellent",
      "internetAvailability": "None",
      "roadAccess": "Good",
      "electricityAccess": true,
      "latitude": -15.2587,
      "longitude": 28.7341
    },
    {
      "id": 23,
      "chiefdom": "Chief Chipepo",
      "areaName": "Chibombo Connectivity 23",
      "population": 10415,
      "mobileSignalQuality": "None",
      "internetAvailability": "Limited",
      "roadAccess": "Poor",
      "electricityAccess": true,
      "latitude": -15.231,
      "longitude": 28.7967
    },
    {
      "id": 24,
      "chiefdom": "Chief Chipepo",
      "areaName": "Mporokoso Connectivity 24",
      "population": 2655,
      "mobileSignalQuality": "None",
      "internetAvailability": "None",
      "roadAccess": "Fair",
      "electricityAccess": true,
      "latitude": -15.3995,
      "longitude": 28.6153
    },
    {
      "id": 25,
      "chiefdom": "Chief Chipepo",
      "areaName": "Nakatindi Connectivity 25",
      "population": 12620,
      "mobileSignalQuality": "Good",
      "internetAvailability": "Available",
      "roadAccess": "Good",
      "electricityAccess": false,
      "latitude": -15.3964,
      "longitude": 28.6577
    },
    {
      "id": 26,
      "chiefdom": "Chief Chipepo",
      "areaName": "Lundazi Connectivity 26",
      "population": 13126,
      "mobileSignalQuality": "Excellent",
      "internetAvailability": "Limited",
      "roadAccess": "Poor",
      "electricityAccess": true,
      "latitude": -15.323,
      "longitude": 28.6152
    },
    {
      "id": 27,
      "chiefdom": "Chief Chipepo",
      "areaName": "Chipata Connectivity 27",
      "population": 2070,
      "mobileSignalQuality": "Poor",
      "internetAvailability": "Limited",
      "roadAccess": "Poor",
      "electricityAccess": true,
      "latitude": -15.3173,
      "longitude": 28.6058
    },
    {
      "id": 28,
      "chiefdom": "Chief Chipepo",
      "areaName": "Mkushi Connectivity 28",
      "population": 7051,
      "mobileSignalQuality": "Good",
      "internetAvailability": "Available",
      "roadAccess": "Poor",
      "electricityAccess": true,
      "latitude": -15.3038,
      "longitude": 28.7244
    },
    {
      "id": 29,
      "chiefdom": "Chief Chipepo",
      "areaName": "Mwembezhi Connectivity 29",
      "population": 7448,
      "mobileSignalQuality": "Fair",
      "internetAvailability": "None",
      "roadAccess": "Good",
      "electricityAccess": false,
      "latitude": -15.3332,
      "longitude": 28.641
    },
    {
      "id": 30,
      "chiefdom": "Chief Chipepo",
      "areaName": "Ndola Connectivity 30",
      "population": 11050,
      "mobileSignalQuality": "Good",
      "internetAvailability": "Limited",
      "roadAccess": "Poor",
      "electricityAccess": true,
      "latitude": -15.3343,
      "longitude": 28.7226
    },
    {
      "id": 31,
      "chiefdom": "Chief Chipepo",
      "areaName": "Mpongwe Connectivity 31",
      "population": 11124,
      "mobileSignalQuality": "Excellent",
      "internetAvailability": "Limited",
      "roadAccess": "Fair",
      "electricityAccess": true,
      "latitude": -15.3411,
      "longitude": 28.7711
    },
    {
      "id": 32,
      "chiefdom": "Chief Chipepo",
      "areaName": "Nyimba Connectivity 32",
      "population": 12385,
      "mobileSignalQuality": "Excellent",
      "internetAvailability": "Available",
      "roadAccess": "Poor",
      "electricityAccess": false,
      "latitude": -15.2866,
      "longitude": 28.7234
    },
    {
      "id": 33,
      "chiefdom": "Chief Chipepo",
      "areaName": "Kapiri Connectivity 33",
      "population": 6316,
      "mobileSignalQuality": "None",
      "internetAvailability": "Limited",
      "roadAccess": "Fair",
      "electricityAccess": false,
      "latitude": -15.2968,
      "longitude": 28.6966
    },
    {
      "id": 34,
      "chiefdom": "Chief Chipepo",
      "areaName": "Pemba Connectivity 34",
      "population": 6986,
      "mobileSignalQuality": "None",
      "internetAvailability": "Limited",
      "roadAccess": "Fair",
      "electricityAccess": true,
      "latitude": -15.3349,
      "longitude": 28.7882
    },
    {
      "id": 35,
      "chiefdom": "Chief Chipepo",
      "areaName": "Siavonga Connectivity 35",
      "population": 5460,
      "mobileSignalQuality": "Good",
      "internetAvailability": "Available",
      "roadAccess": "Poor",
      "electricityAccess": true,
      "latitude": -15.2429,
      "longitude": 28.7095
    },
    {
      "id": 36,
      "chiefdom": "Chief Chipepo",
      "areaName": "Sikanze Connectivity 36",
      "population": 6590,
      "mobileSignalQuality": "Fair",
      "internetAvailability": "Available",
      "roadAccess": "Good",
      "electricityAccess": false,
      "latitude": -15.3441,
      "longitude": 28.6473
    },
    {
      "id": 37,
      "chiefdom": "Chief Chipepo",
      "areaName": "Luangwa Connectivity 37",
      "population": 8107,
      "mobileSignalQuality": "Poor",
      "internetAvailability": "None",
      "roadAccess": "Good",
      "electricityAccess": true,
      "latitude": -15.2775,
      "longitude": 28.6749
    },
    {
      "id": 38,
      "chiefdom": "Chief Chipepo",
      "areaName": "Shimabala Connectivity 38",
      "population": 11264,
      "mobileSignalQuality": "Poor",
      "internetAvailability": "Available",
      "roadAccess": "Poor",
      "electricityAccess": true,
      "latitude": -15.2607,
      "longitude": 28.7999
    },
    {
      "id": 39,
      "chiefdom": "Chief Chipepo",
      "areaName": "Makeni Connectivity 39",
      "population": 10792,
      "mobileSignalQuality": "None",
      "internetAvailability": "Limited",
      "roadAccess": "Good",
      "electricityAccess": false,
      "latitude": -15.2511,
      "longitude": 28.7536
    },
    {
      "id": 40,
      "chiefdom": "Chief Chipepo",
      "areaName": "Siavonga Connectivity 40",
      "population": 12802,
      "mobileSignalQuality": "Poor",
      "internetAvailability": "None",
      "roadAccess": "Good",
      "electricityAccess": true,
      "latitude": -15.3172,
      "longitude": 28.6536
    },
    {
      "id": 41,
      "chiefdom": "Chief Chipepo",
      "areaName": "Lilayi Connectivity 41",
      "population": 3637,
      "mobileSignalQuality": "Good",
      "internetAvailability": "None",
      "roadAccess": "Fair",
      "electricityAccess": false,
      "latitude": -15.3443,
      "longitude": 28.6317
    },
    {
      "id": 42,
      "chiefdom": "Chief Chipepo",
      "areaName": "Chipapa Connectivity 42",
      "population": 4070,
      "mobileSignalQuality": "Excellent",
      "internetAvailability": "None",
      "roadAccess": "Good",
      "electricityAccess": true,
      "latitude": -15.3788,
      "longitude": 28.6421
    },
    {
      "id": 43,
      "chiefdom": "Chief Chipepo",
      "areaName": "Sinda Connectivity 43",
      "population": 14622,
      "mobileSignalQuality": "None",
      "internetAvailability": "Available",
      "roadAccess": "Good",
      "electricityAccess": true,
      "latitude": -15.4241,
      "longitude": 28.6289
    },
    {
      "id": 44,
      "chiefdom": "Chief Chipepo",
      "areaName": "Mbala Connectivity 44",
      "population": 10492,
      "mobileSignalQuality": "Fair",
      "internetAvailability": "Limited",
      "roadAccess": "Fair",
      "electricityAccess": true,
      "latitude": -15.4172,
      "longitude": 28.6937
    },
    {
      "id": 45,
      "chiefdom": "Chief Chipepo",
      "areaName": "Katoba Connectivity 45",
      "population": 8690,
      "mobileSignalQuality": "None",
      "internetAvailability": "None",
      "roadAccess": "Good",
      "electricityAccess": true,
      "latitude": -15.3402,
      "longitude": 28.7657
    },
    {
      "id": 46,
      "chiefdom": "Chief Chipepo",
      "areaName": "Mkushi Connectivity 46",
      "population": 14755,
      "mobileSignalQuality": "Poor",
      "internetAvailability": "Available",
      "roadAccess": "Poor",
      "electricityAccess": true,
      "latitude": -15.3986,
      "longitude": 28.7708
    },
    {
      "id": 47,
      "chiefdom": "Chief Chipepo",
      "areaName": "Chainda Connectivity 47",
      "population": 14649,
      "mobileSignalQuality": "Excellent",
      "internetAvailability": "Available",
      "roadAccess": "Fair",
      "electricityAccess": false,
      "latitude": -15.332,
      "longitude": 28.6034
    },
    {
      "id": 48,
      "chiefdom": "Chief Chipepo",
      "areaName": "Mwinilunga Connectivity 48",
      "population": 7081,
      "mobileSignalQuality": "Excellent",
      "internetAvailability": "None",
      "roadAccess": "Poor",
      "electricityAccess": true,
      "latitude": -15.3275,
      "longitude": 28.7334
    },
    {
      "id": 49,
      "chiefdom": "Chief Chipepo",
      "areaName": "Samfya Connectivity 49",
      "population": 7300,
      "mobileSignalQuality": "Good",
      "internetAvailability": "None",
      "roadAccess": "Fair",
      "electricityAccess": false,
      "latitude": -15.2491,
      "longitude": 28.6832
    },
    {
      "id": 50,
      "chiefdom": "Chief Chipepo",
      "areaName": "Choma Connectivity 50",
      "population": 4811,
      "mobileSignalQuality": "Excellent",
      "internetAvailability": "Available",
      "roadAccess": "Poor",
      "electricityAccess": false,
      "latitude": -15.3246,
      "longitude": 28.6772
    }
  ],
  "bridges": [
    {
      "id": 1,
      "chiefdom": "Chief Chipepo",
      "bridgeName": "Mporokoso Bridge 1",
      "bridgeType": "Concrete",
      "lengthMeters": 217,
      "condition": "Fair",
      "waterBody": "Creek",
      "trafficCapacity": "Heavy",
      "lastInspection": "2025-07-05T15:00:30.574140",
      "latitude": -15.246,
      "longitude": 28.7366
    },
    {
      "id": 2,
      "chiefdom": "Chief Chipepo",
      "bridgeName": "Luwingu Bridge 2",
      "bridgeType": "Suspension",
      "lengthMeters": 40,
      "condition": "Fair",
      "waterBody": "Stream",
      "trafficCapacity": "Heavy",
      "lastInspection": "2025-04-12T15:00:30.574148",
      "latitude": -15.3792,
      "longitude": 28.6336
    },
    {
      "id": 3,
      "chiefdom": "Chief Chipepo",
      "bridgeName": "Chibombo Bridge 3",
      "bridgeType": "Wooden",
      "lengthMeters": 55,
      "condition": "Fair",
      "waterBody": "River",
      "trafficCapacity": "Medium",
      "lastInspection": "2025-08-15T15:00:30.574154",
      "latitude": -15.3704,
      "longitude": 28.7035
    },
    {
      "id": 4,
      "chiefdom": "Chief Chipepo",
      "bridgeName": "Mbala Bridge 4",
      "bridgeType": "Concrete",
      "lengthMeters": 77,
      "condition": "Critical",
      "waterBody": "River",
      "trafficCapacity": "Light",
      "lastInspection": "2026-01-03T15:00:30.574161",
      "latitude": -15.4088,
      "longitude": 28.7677
    },
    {
      "id": 5,
      "chiefdom": "Chief Chipepo",
      "bridgeName": "Mwembezhi Bridge 5",
      "bridgeType": "Wooden",
      "lengthMeters": 300,
      "condition": "Poor",
      "waterBody": "Creek",
      "trafficCapacity": "Light",
      "lastInspection": "2025-05-02T15:00:30.574168",
      "latitude": -15.2442,
      "longitude": 28.7832
    },
    {
      "id": 6,
      "chiefdom": "Chief Chipepo",
      "bridgeName": "Leopards Hill Bridge 6",
      "bridgeType": "Concrete",
      "lengthMeters": 232,
      "condition": "Good",
      "waterBody": "River",
      "trafficCapacity": "Heavy",
      "lastInspection": "2025-12-02T15:00:30.574176",
      "latitude": -15.4032,
      "longitude": 28.7402
    },
    {
      "id": 7,
      "chiefdom": "Chief Chipepo",
      "bridgeName": "Mpanshya Bridge 7",
      "bridgeType": "Wooden",
      "lengthMeters": 283,
      "condition": "Critical",
      "waterBody": "River",
      "trafficCapacity": "Light",
      "lastInspection": "2025-08-30T15:00:30.574183",
      "latitude": -15.2609,
      "longitude": 28.661
    },
    {
      "id": 8,
      "chiefdom": "Chief Chipepo",
      "bridgeName": "Mufumbwe Bridge 8",
      "bridgeType": "Wooden",
      "lengthMeters": 278,
      "condition": "Critical",
      "waterBody": "Stream",
      "trafficCapacity": "Heavy",
      "lastInspection": "2025-07-14T15:00:30.574190",
      "latitude": -15.3544,
      "longitude": 28.7655
    },
    {
      "id": 9,
      "chiefdom": "Chief Chipepo",
      "bridgeName": "Mkushi Bridge 9",
      "bridgeType": "Steel",
      "lengthMeters": 147,
      "condition": "Fair",
      "waterBody": "Creek",
      "trafficCapacity": "Heavy",
      "lastInspection": "2026-01-13T15:00:30.574196",
      "latitude": -15.4265,
      "longitude": 28.6106
    },
    {
      "id": 10,
      "chiefdom": "Chief Chipepo",
      "bridgeName": "Kalingalinga Bridge 10",
      "bridgeType": "Wooden",
      "lengthMeters": 175,
      "condition": "Good",
      "waterBody": "Stream",
      "trafficCapacity": "Medium",
      "lastInspection": "2025-10-30T15:00:30.574203",
      "latitude": -15.2952,
      "longitude": 28.7686
    }
  ]
}