{
  "populationDemographics": {
    "id": 1,
    "chiefdom": "Chief Chipepo",
    "district": "Chongwe",
    "province": "Lusaka",
    "totalPopulation": 83552,
    "numberOfVillages": 25,
    "numberOfHouseholds": 16847,
    "malePopulation": 26986,
    "femalePopulation": 27161,
    "youthPopulation": 22164,
    "elderlyPopulation": 5287,
    "populationDensity": 49.7,
    "censusDate": "2025-08-01T15:00:30.570145"
  },
  "villages": [
    {
      "id": 1,
      "name": "Chongwe Central 1",
      "chiefdom": "Chief Chipepo",
      "population": 14834,
      "numberOfHouseholds": 456,
      "villageHead": "Mr. Lawrence Kapasa",
      "latitude": -15.2438,
      "longitude": 28.7525,
      "distanceToNearestHospital": 21.3,
      "distanceToNearestSchool": 3.4,
      "primaryEconomicActivity": "Farming",
      "hasElectricity": true,
      "hasCleanWater": true
    },
    {
      "id": 2,
      "name": "Kafue Riverside 1",
      "chiefdom": "Chief Chipepo",
      "population": 10279,
      "numberOfHouseholds": 1790,
      "villageHead": "Mrs. Sarah Mumba",
      "latitude": -15.4103,
      "longitude": 28.6151,
      "distanceToNearestHospital": 7.2,
      "distanceToNearestSchool": 7.1,
      "primaryEconomicActivity": "Fishing",
      "hasElectricity": false,
      "hasCleanWater": false
    },
    {
      "id": 3,
      "name": "Munyumba 1",
      "chiefdom": "Chief Chipepo",
      "population": 13954,
      "numberOfHouseholds": 1983,
      "villageHead": "Mrs. Linda Chiluba",
      "latitude": -15.3989,
      "longitude": 28.6538,
      "distanceToNearestHospital": 8.1,
      "distanceToNearestSchool": 2.2,
      "primaryEconomicActivity": "Farming",
      "hasElectricity": false,
      "hasCleanWater": true
    },
    {
      "id": 4,
      "name": "Kalingalinga 1",
      "chiefdom": "Chief Chipepo",
      "population": 11833,
      "numberOfHouseholds": 1700,
      "villageHead": "Mr. Joseph Lungu",
      "latitude": -15.4072,
      "longitude": 28.6699,
      "distanceToNearestHospital": 20.8,
      "distanceToNearestSchool": 8.1,
      "primaryEconomicActivity": "Trading",
      "hasElectricity": false,
      "hasCleanWater": false
    },
    {
      "id": 5,
      "name": "Chilanga 1",
      "chiefdom": "Chief Chipepo",
      "population": 1655,
      "numberOfHouseholds": 2655,
      "villageHead": "Mr. Vincent Hachipuka",
      "latitude": -15.4139,
      "longitude": 28.6683,
      "distanceToNearestHospital": 19.8,
      "distanceToNearestSchool": 5.2,
      "primaryEconomicActivity": "Services",
      "hasElectricity": true,
      "hasCleanWater": true
    },
    {
      "id": 6,
      "name": "Makeni 1",
      "chiefdom": "Chief Chipepo",
      "population": 12410,
      "numberOfHouseholds": 1282,
      "villageHead": "Mrs. Rose Mwila",
      "latitude": -15.2953,
      "longitude": 28.6994,
      "distanceToNearestHospital": 22.5,
      "distanceToNearestSchool": 8.3,
      "primaryEconomicActivity": "Mining",
      "hasElectricity": true,
      "hasCleanWater": true
    },
    {
      "id": 7,
      "name": "Ngwerere 1",
      "chiefdom": "Chief Chipepo",
      "population": 6347,
      "numberOfHouseholds": 434,
      "villageHead": "Mr. David Mwale",
      "latitude": -15.3717,
      "longitude": 28.7768,
      "distanceToNearestHospital": 23.1,
      "distanceToNearestSchool": 3.3,
      "primaryEconomicActivity": "Services",
      "hasElectricity": true,
      "hasCleanWater": true
    },
    {
      "id": 8,
      "name": "Lilayi 1",
      "chiefdom": "Chief Chipepo",
      "population": 8075,
      "numberOfHouseholds": 2962,
      "villageHead": "Mr. Patrick Zulu",
      "latitude": -15.3807,
      "longitude": 28.7393,
      "distanceToNearestHospital": 20.4,
      "distanceToNearestSchool": 11.3,
      "primaryEconomicActivity": "Mining",
      "hasElectricity": true,
      "hasCleanWater": true
    },
    {
      "id": 9,
      "name": "Palabana 1",
      "chiefdom": "Chief Chipepo",
      "population": 6249,
      "numberOfHouseholds": 2183,
      "villageHead": "Mrs. Catherine Kasonde",
      "latitude": -15.3054,
      "longitude": 28.7489,
      "distanceToNearestHospital": 11.3,
      "distanceToNearestSchool": 8.7,
      "primaryEconomicActivity": "Fishing",
      "hasElectricity": true,
      "hasCleanWater": false
    },
    {
      "id": 10,
      "name": "Chainda 1",
      "chiefdom": "Chief Chipepo",
      "population": 9006,
      "numberOfHouseholds": 2519,
      "villageHead": "Mr. Lawrence Kapasa",
      "latitude": -15.2634,
      "longitude": 28.7561,
      "distanceToNearestHospital": 23.4,
      "distanceToNearestSchool": 7.1,
      "primaryEconomicActivity": "Trading",
      "hasElectricity": false,
      "hasCleanWater": false
    },
    {
      "id": 11,
      "name": "Meanwood 1",
      "chiefdom": "Chief Chipepo",
      "population": 7482,
      "numberOfHouseholds": 2713,
      "villageHead": "Mr. William Chisenga",
      "latitude": -15.238,
      "longitude": 28.6573,
      "distanceToNearestHospital": 18.5,
      "distanceToNearestSchool": 11.9,
      "primaryEconomicActivity": "Mining",
      "hasElectricity": false,
      "hasCleanWater": true
    },
    {
      "id": 12,
      "name": "Leopards Hill 1",
      "chiefdom": "Chief Chipepo",
      "population": 1314,
      "numberOfHouseholds": 1175,
      "villageHead": "Mr. Vincent Hachipuka",
      "latitude": -15.2477,
      "longitude": 28.6831,
      "distanceToNearestHospital": 23.0,
      "distanceToNearestSchool": 11.8,
      "primaryEconomicActivity": "Fishing",
      "hasElectricity": true,
      "hasCleanWater": false
    },
    {
      "id": 13,
      "name": "Chalala 1",
      "chiefdom": "Chief Chipepo",
      "population": 12306,
      "numberOfHouseholds": 1381,
      "villageHead": "Mr. Vincent Hachipuka",
      "latitude": -15.3711,
      "longitude": 28.7653,
      "distanceToNearestHospital": 6.3,
      "distanceToNearestSchool": 2.5,
      "primaryEconomicActivity": "Trading",
      "hasElectricity": true,
      "hasCleanWater": true
    },
    {
      "id": 14,
      "name": "Sikanze 1",
      "chiefdom": "Chief Chipepo",
      "population": 11562,
      "numberOfHouseholds": 1152,
      "villageHead": "Mrs. Margaret Musonda",
      "latitude": -15.4107,
      "longitude": 28.7272,
      "distanceToNearestHospital": 15.2,
      "distanceToNearestSchool": 6.4,
      "primaryEconomicActivity": "Mining",
      "hasElectricity": true,
      "hasCleanWater": false
    },
    {
      "id": 15,
      "name": "Nyimba 1",
      "chiefdom": "Chief Chipepo",
      "population": 11511,
      "numberOfHouseholds": 1758,
      "villageHead": "Mr. Emmanuel Ngulube",
      "latitude": -15.3192,
      "longitude": 28.66,
      "distanceToNearestHospital": 23.2,
      "distanceToNearestSchool": 4.0,
      "primaryEconomicActivity": "Mining",
      "hasElectricity": false,
      "hasCleanWater": true
    },
    {
      "id": 16,
      "name": "Luangwa 1",
      "chiefdom": "Chief Chipepo",
      "population": 14123,
      "numberOfHouseholds": 1840,
      "villageHead": "Mr. Vincent Hachipuka",
      "latitude": -15.2723,
      "longitude": 28.6882,
      "distanceToNearestHospital": 21.6,
      "distanceToNearestSchool": 5.5,
      "primaryEconomicActivity": "Trading",
      "hasElectricity": true,
      "hasCleanWater": true
    },
    {
      "id": 17,
      "name": "Mpanshya 1",
      "chiefdom": "Chief Chipepo",
      "population": 2448,
      "numberOfHouseholds": 2385,
      "villageHead": "Mr. Charles Bwalya",
      "latitude": -15.3332,
      "longitude": 28.7176,
      "distanceToNearestHospital": 23.9,
      "distanceToNearestSchool": 9.5,
      "primaryEconomicActivity": "Services",
      "hasElectricity": true,
      "hasCleanWater": true
    },
    {
      "id": 18,
      "name": "Mutumbi 1",
      "chiefdom": "Chief Chipepo",
      "population": 1441,
      "numberOfHouseholds": 593,
      "villageHead": "Mr. David Mwale",
      "latitude": -15.3189,
      "longitude": 28.7565,
      "distanceToNearestHospital": 11.6,
      "distanceToNearestSchool": 0.5,
      "primaryEconomicActivity": "Farming",
      "hasElectricity": false,
      "hasCleanWater": true
    },
    {
      "id": 19,
      "name": "Kanakantapa 1",
      "chiefdom": "Chief Chipepo",
      "population": 4337,
      "numberOfHouseholds": 893,
      "villageHead": "Mrs. Agnes Mbewe",
      "latitude": -15.2602,
      "longitude": 28.7389,
      "distanceToNearestHospital": 8.4,
      "distanceToNearestSchool": 2.0,
      "primaryEconomicActivity": "Services",
      "hasElectricity": true,
      "hasCleanWater": true
    },
    {
      "id": 20,
      "name": "Mwembezhi 1",
      "chiefdom": "Chief Chipepo",
      "population": 10620,
      "numberOfHouseholds": 1873,
      "villageHead": "Mr. Charles Bwalya",
      "latitude": -15.327,
      "longitude": 28.6518,
      "distanceToNearestHospital": 21.8,
      "distanceToNearestSchool": 10.7,
      "primaryEconomicActivity": "Farming",
      "hasElectricity": false,
      "hasCleanWater": false
    },
    {
      "id": 21,
      "name": "Shimabala 1",
      "chiefdom": "Chief Chipepo",
      "population": 5074,
      "numberOfHouseholds": 1453,
      "villageHead": "Mr. Joseph Lungu",
      "latitude": -15.4114,
      "longitude": 28.7743,
      "distanceToNearestHospital": 13.1,
      "distanceToNearestSchool": 4.9,
      "primaryEconomicActivity": "Services",
      "hasElectricity": true,
      "hasCleanWater": true
    },
    {
      "id": 22,
      "name": "Chisamba 1",
      "chiefdom": "Chief Chipepo",
      "population": 8344,
      "numberOfHouseholds": 2025,
      "villageHead": "Mrs. Mary Phiri",
      "latitude": -15.3715,
      "longitude": 28.7036,
      "distanceToNearestHospital": 14.1,
      "distanceToNearestSchool": 9.9,
      "primaryEconomicActivity": "Mining",
      "hasElectricity": true,
      "hasCleanWater": true
    },
    {
      "id": 23,
      "name": "Katoba 1",
      "chiefdom": "Chief Chipepo",
      "population": 5201,
      "numberOfHouseholds": 1135,
      "villageHead": "Mrs. Rose Mwila",
      "latitude": -15.2621,
      "longitude": 28.7121,
      "distanceToNearestHospital": 23.7,
      "distanceToNearestSchool": 5.4,
      "primaryEconomicActivity": "Services",
      "hasElectricity": true,
      "hasCleanWater": true
    },
    {
      "id": 24,
      "name": "Kaunga 1",
      "chiefdom": "Chief Chipepo",
      "population": 14600,
      "numberOfHouseholds": 2321,
      "villageHead": "Mrs. Patricia Chilufya",
      "latitude": -15.314,
      "longitude": 28.701,
      "distanceToNearestHospital": 16.1,
      "distanceToNearestSchool": 8.5,
      "primaryEconomicActivity": "Fishing",
      "hasElectricity": false,
      "hasCleanWater": false
    },
    {
      "id": 25,
      "name": "Chipapa 1",
      "chiefdom": "Chief Chipepo",
      "population": 4688,
      "numberOfHouseholds": 2977,
      "villageHead": "Mr. Anthony Mulenga",
      "latitude": -15.3685,
      "longitude": 28.7396,
      "distanceToNearestHospital": 22.1,
      "distanceToNearestSchool": 2.8,
      "primaryEconomicActivity": "Mining",
      "hasElectricity": false,
      "hasCleanWater": false
    },
    {
      "id": 26,
      "name": "Nakatindi 1",
      "chiefdom": "Chief Chipepo",
      "population": 10457,
      "numberOfHouseholds": 929,
      "villageHead": "Mrs. Agnes Mbewe",
      "latitude": -15.3752,
      "longitude": 28.605,
      "distanceToNearestHospital": 24.8,
      "distanceToNearestSchool": 11.8,
      "primaryEconomicActivity": "Trading",
      "hasElectricity": true,
      "hasCleanWater": false
    },
    {
      "id": 27,
      "name": "Mbabala 1",
      "chiefdom": "Chief Chipepo",
      "population": 6661,
      "numberOfHouseholds": 1287,
      "villageHead": "Mr. Patrick Zulu",
      "latitude": -15.2746,
      "longitude": 28.6687,
      "distanceToNearestHospital": 18.7,
      "distanceToNearestSchool": 7.5,
      "primaryEconomicActivity": "Farming",
      "hasElectricity": false,
      "hasCleanWater": true
    },
    {
      "id": 28,
      "name": "Chalimbana 1",
      "chiefdom": "Chief Chipepo",
      "population": 7567,
      "numberOfHouseholds": 1177,
      "villageHead": "Mrs. Faith Siame",
      "latitude": -15.3595,
      "longitude": 28.7306,
      "distanceToNearestHospital": 17.7,
      "distanceToNearestSchool": 4.8,
      "primaryEconomicActivity": "Trading",
      "hasElectricity": false,
      "hasCleanWater": true
    },
    {
      "id": 29,
      "name": "Kapiri 1",
      "chiefdom": "Chief Chipepo",
      "population": 13328,
      "numberOfHouseholds": 1961,
      "villageHead": "Mr. Andrew Sichone",
      "latitude": -15.255,
      "longitude": 28.6762,
      "distanceToNearestHospital": 24.3,
      "distanceToNearestSchool": 1.5,
      "primaryEconomicActivity": "Trading",
      "hasElectricity": false,
      "hasCleanWater": true
    },
    {
      "id": 30,
      "name": "Lunsemfwa 1",
      "chiefdom": "Chief Chipepo",
      "population": 5455,
      "numberOfHouseholds": 745,
      "villageHead": "Mr. Joseph Lungu",
      "latitude": -15.2455,
      "longitude": 28.6986,
      "distanceToNearestHospital": 12.5,
      "distanceToNearestSchool": 8.9,
      "primaryEconomicActivity": "Fishing",
      "hasElectricity": false,
      "hasCleanWater": true
    },
    {
      "id": 31,
      "name": "Mumbwa 1",
      "chiefdom": "Chief Chipepo",
      "population": 5166,
      "numberOfHouseholds": 771,
      "villageHead": "Mrs. Helen Kalaba",
      "latitude": -15.3358,
      "longitude": 28.6846,
      "distanceToNearestHospital": 4.2,
      "distanceToNearestSchool": 4.7,
      "primaryEconomicActivity": "Mining",
      "hasElectricity": true,
      "hasCleanWater": false
    },
    {
      "id": 32,
      "name": "Kasempa 1",
      "chiefdom": "Chief Chipepo",
      "population": 1486,
      "numberOfHouseholds": 2084,
      "villageHead": "Mr. Patrick Zulu",
      "latitude": -15.2364,
      "longitude": 28.6101,
      "distanceToNearestHospital": 13.2,
      "distanceToNearestSchool": 7.9,
      "primaryEconomicActivity": "Trading",
      "hasElectricity": true,
      "hasCleanWater": false
    },
    {
      "id": 33,
      "name": "Mufumbwe 1",
      "chiefdom": "Chief Chipepo",
      "population": 5316,
      "numberOfHouseholds": 384,
      "villageHead": "Mr. David Mwale",
      "latitude": -15.3008,
      "longitude": 28.7668,
      "distanceToNearestHospital": 18.4,
      "distanceToNearestSchool": 3.7,
      "primaryEconomicActivity": "Services",
      "hasElectricity": false,
      "hasCleanWater": true
    },
    {
      "id": 34,
      "name": "Kabwe 1",
      "chiefdom": "Chief Chipepo",
      "population": 14724,
      "numberOfHouseholds": 2247,
      "villageHead": "Mr. Daniel Sakala",
      "latitude": -15.2739,
      "longitude": 28.7748,
      "distanceToNearestHospital": 13.2,
      "distanceToNearestSchool": 9.0,
      "primaryEconomicActivity": "Farming",
      "hasElectricity": false,
      "hasCleanWater": false
    },
    {
      "id": 35,
      "name": "Chibombo 1",
      "chiefdom": "Chief Chipepo",
      "population": 6338,
      "numberOfHouseholds": 1858,
      "villageHead": "Mr. Daniel Sakala",
      "latitude": -15.3795,
      "longitude": 28.7448,
      "distanceToNearestHospital": 24.7,
      "distanceToNearestSchool": 8.3,
      "primaryEconomicActivity": "Farming",
      "hasElectricity": true,
      "hasCleanWater": false
    },
    {
      "id": 36,
      "name": "Mkushi 1",
      "chiefdom": "Chief Chipepo",
      "population": 2351,
      "numberOfHouseholds": 820,
      "villageHead": "Mrs. Florence Mwanza",
      "latitude": -15.3195,
      "longitude": 28.6993,
      "distanceToNearestHospital": 22.2,
      "distanceToNearestSchool": 11.3,
      "primaryEconomicActivity": "Fishing",
      "hasElectricity": false,
      "hasCleanWater": true
    },
    {
      "id": 37,
      "name": "Serenje 1",
      "chiefdom": "Chief Chipepo",
      "population": 8580,
      "numberOfHouseholds": 771,
      "villageHead": "Mrs. Grace Tembo",
      "latitude": -15.3914,
      "longitude": 28.7571,
      "distanceToNearestHospital": 5.1,
      "distanceToNearestSchool": 1.5,
      "primaryEconomicActivity": "Fishing",
      "hasElectricity": false,
      "hasCleanWater": true
    },
    {
      "id": 38,
      "name": "Mpika 1",
      "chiefdom": "Chief Chipepo",
      "population": 4144,
      "numberOfHouseholds": 1533,
      "villageHead": "Mr. William Chisenga",
      "latitude": -15.3024,
      "longitude": 28.6589,
      "distanceToNearestHospital": 15.3,
      "distanceToNearestSchool": 10.0,
      "primaryEconomicActivity": "Services",
      "hasElectricity": true,
      "hasCleanWater": false
    },
    {
      "id": 39,
      "name": "Nakonde 1",
      "chiefdom": "Chief Chipepo",
      "population": 5172,
      "numberOfHouseholds": 1590,
      "villageHead": "Mr. David Mwale",
      "latitude": -15.4179,
      "longitude": 28.7845,
      "distanceToNearestHospital": 23.2,
      "distanceToNearestSchool": 1.8,
      "primaryEconomicActivity": "Farming",
      "hasElectricity": false,
      "hasCleanWater": true
    },
    {
      "id": 40,
      "name": "Isoka 1",
      "chiefdom": "Chief Chipepo",
      "population": 2073,
      "numberOfHouseholds": 1018,
      "villageHead": "Mrs. Linda Chiluba",
      "latitude": -15.4117,
      "longitude": 28.7612,
      "distanceToNearestHospital": 5.9,
      "distanceToNearestSchool": 5.2,
      "primaryEconomicActivity": "Fishing",
      "hasElectricity": true,
      "hasCleanWater": true
    },
    {
      "id": 41,
      "name": "Chinsali 1",
      "chiefdom": "Chief Chipepo",
      "population": 14083,
      "numberOfHouseholds": 1794,
      "villageHead": "Mrs. Rose Mwila",
      "latitude": -15.2508,
      "longitude": 28.6649,
      "distanceToNearestHospital": 22.6,
      "distanceToNearestSchool": 11.6,
      "primaryEconomicActivity": "Trading",
      "hasElectricity": false,
      "hasCleanWater": true
    },
    {
      "id": 42,
      "name": "Kasama 1",
      "chiefdom": "Chief Chipepo",
      "population": 878,
      "numberOfHouseholds": 428,
      "villageHead": "Mrs. Dorothy Hamoonga",
      "latitude": -15.4208,
      "longitude": 28.7623,
      "distanceToNearestHospital": 12.3,
      "distanceToNearestSchool": 5.7,
      "primaryEconomicActivity": "Farming",
      "hasElectricity": false,
      "hasCleanWater": false
    },
    {
      "id": 43,
      "name": "Mbala 1",
      "chiefdom": "Chief Chipepo",
      "population": 3157,
      "numberOfHouseholds": 548,
      "villageHead": "Mrs. Florence Mwanza",
      "latitude": -15.2751,
      "longitude": 28.6342,
      "distanceToNearestHospital": 12.8,
      "distanceToNearestSchool": 1.3,
      "primaryEconomicActivity": "Trading",
      "hasElectricity": true,
      "hasCleanWater": false
    },
    {
      "id": 44,
      "name": "Luwingu 1",
      "chiefdom": "Chief Chipepo",
      "population": 3388,
      "numberOfHouseholds": 1766,
      "villageHead": "Mr. Michael Nyirenda",
      "latitude": -15.2689,
      "longitude": 28.7509,
      "distanceToNearestHospital": 16.7,
      "distanceToNearestSchool": 11.7,
      "primaryEconomicActivity": "Trading",
      "hasElectricity": true,
      "hasCleanWater": true
    },
    {
      "id": 45,
      "name": "Mporokoso 1",
      "chiefdom": "Chief Chipepo",
      "population": 14432,
      "numberOfHouseholds": 2402,
      "villageHead": "Mr. Francis Chipanga",
      "latitude": -15.4265,
      "longitude": 28.6208,
      "distanceToNearestHospital": 19.9,
      "distanceToNearestSchool": 8.7,
      "primaryEconomicActivity": "Trading",
      "hasElectricity": true,
      "hasCleanWater": true
    },
    {
      "id": 46,
      "name": "Kawambwa 1",
      "chiefdom": "Chief Chipepo",
      "population": 9655,
      "numberOfHouseholds": 2675,
      "villageHead": "Mrs. Christine Kunda",
      "latitude": -15.3298,
      "longitude": 28.7932,
      "distanceToNearestHospital": 10.5,
      "distanceToNearestSchool": 6.1,
      "primaryEconomicActivity": "Trading",
      "hasElectricity": false,
      "hasCleanWater": true
    },
    {
      "id": 47,
      "name": "Mansa 1",
      "chiefdom": "Chief Chipepo",
      "population": 4709,
      "numberOfHouseholds": 1027,
      "villageHead": "Mrs. Christine Kunda",
      "latitude": -15.2788,
      "longitude": 28.7479,
      "distanceToNearestHospital": 15.5,
      "distanceToNearestSchool": 6.3,
      "primaryEconomicActivity": "Fishing",
      "hasElectricity": true,
      "hasCleanWater": false
    },
    {
      "id": 48,
      "name": "Samfya 1",
      "chiefdom": "Chief Chipepo",
      "population": 7416,
      "numberOfHouseholds": 675,
      "villageHead": "Mrs. Rose Mwila",
      "latitude": -15.3043,
      "longitude": 28.7612,
      "distanceToNearestHospital": 7.5,
      "distanceToNearestSchool": 4.5,
      "primaryEconomicActivity": "Services",
      "hasElectricity": true,
      "hasCleanWater": true
    },
    {
      "id": 49,
      "name": "Nchelenge 1",
      "chiefdom": "Chief Chipepo",
      "population": 12448,
      "numberOfHouseholds": 2798,
      "villageHead": "Mr. Simon Lubinda",
      "latitude": -15.3191,
      "longitude": 28.7799,
      "distanceToNearestHospital": 15.2,
      "distanceToNearestSchool": 4.6,
      "primaryEconomicActivity": "Services",
      "hasElectricity": false,
      "hasCleanWater": false
    },
    {
      "id": 50,
      "name": "Kaputa 1",
      "chiefdom": "Chief Chipepo",
      "population": 7016,
      "numberOfHouseholds": 708,
      "villageHead": "Mr. Francis Chipanga",
      "latitude": -15.256,
      "longitude": 28.7443,
      "distanceToNearestHospital": 2.0,
      "distanceToNearestSchool": 4.6,
      "primaryEconomicActivity": "Farming",
      "hasElectricity": false,
      "hasCleanWater": true
    }
  ],
  "infrastructure": [
    {
      "id": 1,
      "chiefdom": "Chief Chipepo",
      "facilityName": "Nakatindi Facility 1",
      "facilityType": "Hospital",
      "village": "Mumbwa",
      "capacity": 505,
      "currentUsage": 1224,
      "status": "Under Construction",
      "latitude": -15.4268,
      "longitude": 28.6041,
      "lastMaintenance": "2025-11-08T15:00:30.570356"
    },
    {
      "id": 2,
      "chiefdom": "Chief Chipepo",
      "facilityName": "Pemba Facility 2",
      "facilityType": "Clinic",
      "village": "Chipata",
      "capacity": 1034,
      "currentUsage": 78,
      "status": "Under Construction",
      "latitude": -15.2683,
      "longitude": 28.6904,
      "lastMaintenance": "2025-10-31T15:00:30.570364"
    },
    {
      "id": 3,
      "chiefdom": "Chief Chipepo",
      "facilityName": "Chinsali Facility 3",
      "facilityType": "Primary School",
      "village": "Mambwe",
      "capacity": 358,
      "currentUsage": 1216,
      "status": "Operational",
      "latitude": -15.2755,
      "longitude": 28.6448,
      "lastMaintenance": "2025-06-01T15:00:30.570373"
    },
    {
      "id": 4,
      "chiefdom": "Chief Chipepo",
      "facilityName": "Luangwa Facility 4",
      "facilityType": "Water Source",
      "village": "Chililabombwe",
      "capacity": 1463,
      "currentUsage": 712,
      "status": "Operational",
      "latitude": -15.4086,
      "longitude": 28.7842,
      "lastMaintenance": "2025-08-18T15:00:30.570380"
    },
    {
      "id": 5,
      "chiefdom": "Chief Chipepo",
      "facilityName": "Chililabombwe Facility 5",
      "facilityType": "Secondary School",
      "village": "Palabana",
      "capacity": 487,
      "currentUsage": 387,
      "status": "Needs Repair",
      "latitude": -15.4049,
      "longitude": 28.6261,
      "lastMaintenance": "2025-10-18T15:00:30.570387"
    },
    {
      "id": 6,
      "chiefdom": "Chief Chipepo",
      "facilityName": "Mpika Facility 6",
      "facilityType": "Clinic",
      "village": "Mpongwe",
      "capacity": 898,
      "currentUsage": 417,
      "status": "Under Construction",
      "latitude": -15.346,
      "longitude": 28.6747,
      "lastMaintenance": "2025-11-05T15:00:30.570395"
    },
    {
      "id": 7,
      "chiefdom": "Chief Chipepo",
      "facilityName": "Isoka Facility 7",
      "facilityType": "Primary School",
      "village": "Kafue Riverside",
      "capacity": 1277,
      "currentUsage": 940,
      "status": "Under Construction",
      "latitude": -15.2537,
      "longitude": 28.6748,
      "lastMaintenance": "2025-04-17T15:00:30.570402"
    },
    {
      "id": 8,
      "chiefdom": "Chief Chipepo",
      "facilityName": "Ngwerere Facility 8",
      "facilityType": "Water Source",
      "village": "Kasama",
      "capacity": 324,
      "currentUsage": 233,
      "status": "Under Construction",
      "latitude": -15.3286,
      "longitude": 28.6643,
      "lastMaintenance": "2025-04-14T15:00:30.570411"
    },
    {
      "id": 9,
      "chiefdom": "Chief Chipepo",
      "facilityName": "Lukulu Facility 9",
      "facilityType": "Secondary School",
      "village": "Kaoma",
      "capacity": 666,
      "currentUsage": 189,
      "status": "Needs Repair",
      "latitude": -15.3302,
      "longitude": 28.6753,
      "lastMaintenance": "2025-09-07T15:00:30.570427"
    },
    {
      "id": 10,
      "chiefdom": "Chief Chipepo",
      "facilityName": "Vubwi Facility 10",
      "facilityType": "Hospital",
      "village": "Lilayi",
      "capacity": 62,
      "currentUsage": 648,
      "status": "Under Construction",
      "latitude": -15.3796,
      "longitude": 28.7035,
      "lastMaintenance": "2025-04-01T15:00:30.570434"
    },
    {
      "id": 11,
      "chiefdom": "Chief Chipepo",
      "facilityName": "Lunsemfwa Facility 11",
      "facilityType": "Primary School",
      "village": "Kalulushi",
      "capacity": 291,
      "currentUsage": 1212,
      "status": "Operational",
      "latitude": -15.4258,
      "longitude": 28.6623,
      "lastMaintenance": "2025-03-30T15:00:30.570441"
    },
    {
      "id": 12,
      "chiefdom": "Chief Chipepo",
      "facilityName": "Livingstone Facility 12",
      "facilityType": "Clinic",
      "village": "Katete",
      "capacity": 887,
      "currentUsage": 336,
      "status": "Under Construction",
      "latitude": -15.2977,
      "longitude": 28.6932,
      "lastMaintenance": "2025-12-14T15:00:30.570448"
    },
    {
      "id": 13,
      "chiefdom": "Chief Chipepo",
      "facilityName": "Shangombo Facility 13",
      "facilityType": "Water Source",
      "village": "Kawambwa",
      "capacity": 1160,
      "currentUsage": 1421,
      "status": "Needs Repair",
      "latitude": -15.3184,
      "longitude": 28.7933,
      "lastMaintenance": "2025-12-02T15:00:30.570455"
    },
    {
      "id": 14,
      "chiefdom": "Chief Chipepo",
      "facilityName": "Mpongwe Facility 14",
      "facilityType": "Clinic",
      "village": "Monze",
      "capacity": 811,
      "currentUsage": 685,
      "status": "Operational",
      "latitude": -15.3756,
      "longitude": 28.7945,
      "lastMaintenance": "2026-01-10T15:00:30.570462"
    },
    {
      "id": 15,
      "chiefdom": "Chief Chipepo",
      "facilityName": "Sinazongwe Facility 15",
      "facilityType": "Clinic",
      "village": "Mbabala",
      "capacity": 758,
      "currentUsage": 1236,
      "status": "Operational",
      "latitude": -15.2448,
      "longitude": 28.6799,
      "lastMaintenance": "2025-07-15T15:00:30.570469"
    },
    {
      "id": 16,
      "chiefdom": "Chief Chipepo",
      "facilityName": "Mkushi Facility 16",
      "facilityType": "Hospital",
      "village": "Leopards Hill",
      "capacity": 707,
      "currentUsage": 736,
      "status": "Under Construction",
      "latitude": -15.3434,
      "longitude": 28.79,
      "lastMaintenance": "2025-11-12T15:00:30.570478"
    },
    {
      "id": 17,
      "chiefdom": "Chief Chipepo",
      "facilityName": "Petauke Facility 17",
      "facilityType": "Primary School",
      "village": "Serenje",
      "capacity": 539,
      "currentUsage": 350,
      "status": "Under Construction",
      "latitude": -15.3008,
      "longitude": 28.7636,
      "lastMaintenance": "2025-04-06T15:00:30.570484"
    },
    {
      "id": 18,
      "chiefdom": "Chief Chipepo",
      "facilityName": "Mbala Facility 18",
      "facilityType": "Clinic",
      "village": "Makeni",
      "capacity": 230,
      "currentUsage": 270,
      "status": "Operational",
      "latitude": -15.3275,
      "longitude": 28.691,
      "lastMaintenance": "2025-03-10T15:00:30.570491"
    },
    {
      "id": 19,
      "chiefdom": "Chief Chipepo",
      "facilityName": "Kalabo Facility 19",
      "facilityType": "Clinic",
      "village": "Kafue Riverside",
      "capacity": 262,
      "currentUsage": 861,
      "status": "Under Construction",
      "latitude": -15.398,
      "longitude": 28.6579,
      "lastMaintenance": "2025-02-28T15:00:30.570498"
    },
    {
      "id": 20,
      "chiefdom": "Chief Chipepo",
      "facilityName": "Kalulushi Facility 20",
      "facilityType": "Water Source",
      "village": "Katete",
      "capacity": 1089,
      "currentUsage": 557,
      "status": "Operational",
      "latitude": -15.3322,
      "longitude": 28.752,
      "lastMaintenance": "2025-02-12T15:00:30.570505"
    },
    {
      "id": 21,
      "chiefdom": "Chief Chipepo",
      "facilityName": "Lukulu Facility 21",
      "facilityType": "Water Source",
      "village": "Sinazongwe",
      "capacity": 151,
      "currentUsage": 888,
      "status": "Operational",
      "latitude": -15.351,
      "longitude": 28.7938,
      "lastMaintenance": "2025-08-09T15:00:30.570512"
    },
    {
      "id": 22,
      "chiefdom": "Chief Chipepo",
      "facilityName": "Munyumba Facility 22",
      "facilityType": "Primary School",
      "village": "Kalulushi",
      "capacity": 1424,
      "currentUsage": 1313,
      "status": "Under Construction",
      "latitude": -15.313,
      "longitude": 28.6899,
      "lastMaintenance": "2025-01-20T15:00:30.570556"
    },
    {
      "id": 23,
      "chiefdom": "Chief Chipepo",
      "facilityName": "Sikanze Facility 23",
      "facilityType": "Hospital",
      "village": "Kawambwa",
      "capacity": 128,
      "currentUsage": 812,
      "status": "Under Construction",
      "latitude": -15.2519,
      "longitude": 28.6884,
      "lastMaintenance": "2025-12-04T15:00:30.570564"
    },
    {
      "id": 24,
      "chiefdom": "Chief Chipepo",
      "facilityName": "Chingola Facility 24",
      "facilityType": "Clinic",
      "village": "Mbabala",
      "capacity": 960,
      "currentUsage": 413,
      "status": "Needs Repair",
      "latitude": -15.4202,
      "longitude": 28.7566,
      "lastMaintenance": "2025-12-14T15:00:30.570571"
    },
    {
      "id": 25,
      "chiefdom": "Chief Chipepo",
      "facilityName": "Livingstone Facility 25",
      "facilityType": "Water Source",
      "village": "Mambwe",
      "capacity": 64,
      "currentUsage": 170,
      "status": "Under Construction",
      "latitude": -15.3053,
      "longitude": 28.6219,
      "lastMaintenance": "2025-05-09T15:00:30.570578"
    },
    {
      "id": 26,
      "chiefdom": "Chief Chipepo",
      "facilityName": "Mpongwe Facility 26",
      "facilityType": "Hospital",
      "village": "Mufulira",
      "capacity": 603,
      "currentUsage": 1352,
      "status": "Operational",
      "latitude": -15.3549,
      "longitude": 28.611,
      "lastMaintenance": "2025-04-05T15:00:30.570586"
    },
    {
      "id": 27,
      "chiefdom": "Chief Chipepo",
      "facilityName": "Solwezi Facility 27",
      "facilityType": "Clinic",
      "village": "Chama",
      "capacity": 741,
      "currentUsage": 197,
      "status": "Under Construction",
      "latitude": -15.4202,
      "longitude": 28.766,
      "lastMaintenance": "2025-03-06T15:00:30.570593"
    },
    {
      "id": 28,
      "chiefdom": "Chief Chipepo",
      "facilityName": "Mkushi Facility 28",
      "facilityType": "Clinic",
      "village": "Kasempa",
      "capacity": 1437,
      "currentUsage": 180,
      "status": "Under Construction",
      "latitude": -15.2678,
      "longitude": 28.7138,
      "lastMaintenance": "2025-07-02T15:00:30.570600"
    },
    {
      "id": 29,
      "chiefdom": "Chief Chipepo",
      "facilityName": "Munyumba Facility 29",
      "facilityType": "Water Source",
      "village": "Chibombo",
      "capacity": 614,
      "currentUsage": 1351,
      "status": "Operational",
      "latitude": -15.2344,
      "longitude": 28.6085,
      "lastMaintenance": "2025-03-03T15:00:30.570607"
    },
    {
      "id": 30,
      "chiefdom": "Chief Chipepo",
      "facilityName": "Mufumbwe Facility 30",
      "facilityType": "Secondary School",
      "village": "Livingstone",
      "capacity": 411,
      "currentUsage": 558,
      "status": "Operational",
      "latitude": -15.2539,
      "longitude": 28.6901,
      "lastMaintenance": "2025-03-21T15:00:30.570614"
    },
    {
      "id": 31,
      "chiefdom": "Chief Chipepo",
      "facilityName": "Vubwi Facility 31",
      "facilityType": "Hospital",
      "village": "Chongwe Central",
      "capacity": 527,
      "currentUsage": 1025,
      "status": "Needs Repair",
      "latitude": -15.3667,
      "longitude": 28.6749,
      "lastMaintenance": "2025-06-25T15:00:30.570621"
    },
    {
      "id": 32,
      "chiefdom": "Chief Chipepo",
      "facilityName": "Kabompo Facility 32",
      "facilityType": "Clinic",
      "village": "Senanga",
      "capacity": 514,
      "currentUsage": 1150,
      "status": "Under Construction",
      "latitude": -15.3086,
      "longitude": 28.7945,
      "lastMaintenance": "2025-06-14T15:00:30.570627"
    },
    {
      "id": 33,
      "chiefdom": "Chief Chipepo",
      "facilityName": "Lunsemfwa Facility 33",
      "facilityType": "Water Source",
      "village": "Chalala",
      "capacity": 635,
      "currentUsage": 1132,
      "status": "Needs Repair",
      "latitude": -15.2696,
      "longitude": 28.6329,
      "lastMaintenance": "2025-05-12T15:00:30.570634"
    },
    {
      "id": 34,
      "chiefdom": "Chief Chipepo",
      "facilityName": "Katete Facility 34",
      "facilityType": "Secondary School",
      "village": "Kabwe",
      "capacity": 243,
      "currentUsage": 1190,
      "status": "Under Construction",
      "latitude": -15.3032,
      "longitude": 28.6039,
      "lastMaintenance": "2025-08-27T15:00:30.570641"
    },
    {
      "id": 35,
      "chiefdom": "Chief Chipepo",
      "facilityName": "Choma Facility 35",
      "facilityType": "Secondary School",
      "village": "Vubwi",
      "capacity": 415,
      "currentUsage": 731,
      "status": "Needs Repair",
      "latitude": -15.3708,
      "longitude": 28.6573,
      "lastMaintenance": "2025-04-03T15:00:30.570648"
    },
    {
      "id": 36,
      "chiefdom": "Chief Chipepo",
      "facilityName": "Katete Facility 36",
      "facilityType": "Secondary School",
      "village": "Mufumbwe",
      "capacity": 550,
      "currentUsage": 176,
      "status": "Needs Repair",
      "latitude": -15.2967,
      "longitude": 28.7177,
      "lastMaintenance": "2025-01-29T15:00:30.570656"
    },
    {
      "id": 37,
      "chiefdom": "Chief Chipepo",
      "facilityName": "Nakatindi Facility 37",
      "facilityType": "Water Source",
      "village": "Mufumbwe",
      "capacity": 465,
      "currentUsage": 1503,
      "status": "Needs Repair",
      "latitude": -15.3804,
      "longitude": 28.6178,
      "lastMaintenance": "2025-10-11T15:00:30.570663"
    },
    {
      "id": 38,
      "chiefdom": "Chief Chipepo",
      "facilityName": "Mporokoso Facility 38",
      "facilityType": "Primary School",
      "village": "Katete",
      "capacity": 727,
      "currentUsage": 1184,
      "status": "Needs Repair",
      "latitude": -15.319,
      "longitude": 28.7653,
      "lastMaintenance": "2025-12-07T15:00:30.570670"
    },
    {
      "id": 39,
      "chiefdom": "Chief Chipepo",
      "facilityName": "Chipata Facility 39",
      "facilityType": "Secondary School",
      "village": "Samfya",
      "capacity": 1422,
      "currentUsage": 468,
      "status": "Under Construction",
      "latitude": -15.2652,
      "longitude": 28.7448,
      "lastMaintenance": "2025-05-21T15:00:30.570677"
    },
    {
      "id": 40,
      "chiefdom": "Chief Chipepo",
      "facilityName": "Mambwe Facility 40",
      "facilityType": "Hospital",
      "village": "Sinazongwe",
      "capacity": 1472,
      "currentUsage": 1498,
      "status": "Operational",
      "latitude": -15.3997,
      "longitude": 28.6954,
      "lastMaintenance": "2025-06-28T15:00:30.570683"
    },
    {
      "id": 41,
      "chiefdom": "Chief Chipepo",
      "facilityName": "Kalulushi Facility 41",
      "facilityType": "Primary School",
      "village": "Kasempa",
      "capacity": 955,
      "currentUsage": 1036,
      "status": "Needs Repair",
      "latitude": -15.3718,
      "longitude": 28.7533,
      "lastMaintenance": "2025-08-05T15:00:30.570692"
    },
    {
      "id": 42,
      "chiefdom": "Chief Chipepo",
      "facilityName": "Vubwi Facility 42",
      "facilityType": "Clinic",
      "village": "Kawambwa",
      "capacity": 1156,
      "currentUsage": 1297,
      "status": "Under Construction",
      "latitude": -15.3751,
      "longitude": 28.6143,
      "lastMaintenance": "2025-10-06T15:00:30.570698"
    },
    {
      "id": 43,
      "chiefdom": "Chief Chipepo",
      "facilityName": "Kapiri Facility 43",
      "facilityType": "Secondary School",
      "village": "Isoka",
      "capacity": 572,
      "currentUsage": 445,
      "status": "Needs Repair",
      "latitude": -15.3545,
      "longitude": 28.752,
      "lastMaintenance": "2025-09-10T15:00:30.570705"
    },
    {
      "id": 44,
      "chiefdom": "Chief Chipepo",
      "facilityName": "Mumbwa Facility 44",
      "facilityType": "Clinic",
      "village": "Mpongwe",
      "capacity": 215,
      "currentUsage": 897,
      "status": "Under Construction",
      "latitude": -15.3946,
      "longitude": 28.6011,
      "lastMaintenance": "2025-07-08T15:00:30.570713"
    },
    {
      "id": 45,
      "chiefdom": "Chief Chipepo",
      "facilityName": "Chama Facility 45",
      "facilityType": "Primary School",
      "village": "Chililabombwe",
      "capacity": 231,
      "currentUsage": 828,
      "status": "Under Construction",
      "latitude": -15.3249,
      "longitude": 28.7607,
      "lastMaintenance": "2025-09-11T15:00:30.570720"
    },
    {
      "id": 46,
      "chiefdom": "Chief Chipepo",
      "facilityName": "Kasempa Facility 46",
      "facilityType": "Water Source",
      "village": "Monze",
      "capacity": 369,
      "currentUsage": 890,
      "status": "Operational",
      "latitude": -15.42,
      "longitude": 28.6858,
      "lastMaintenance": "2025-08-08T15:00:30.570728"
    },
    {
      "id": 47,
      "chiefdom": "Chief Chipepo",
      "facilityName": "Sikanze Facility 47",
      "facilityType": "Water Source",
      "village": "Lilayi",
      "capacity": 1236,
      "currentUsage": 438,
      "status": "Under Construction",
      "latitude": -15.4248,
      "longitude": 28.6598,
      "lastMaintenance": "2025-09-24T15:00:30.570735"
    },
    {
      "id": 48,
      "chiefdom": "Chief Chipepo",
      "facilityName": "Ndola Facility 48",
      "facilityType": "Hospital",
      "village": "Kasempa",
      "capacity": 650,
      "currentUsage": 1521,
      "status": "Under Construction",
      "latitude": -15.3832,
      "longitude": 28.6828,
      "lastMaintenance": "2026-01-09T15:00:30.570742"
    },
    {
      "id": 49,
      "chiefdom": "Chief Chipepo",
      "facilityName": "Shangombo Facility 49",
      "facilityType": "Water Source",
      "village": "Katete",
      "capacity": 127,
      "currentUsage": 745,
      "status": "Operational",
      "latitude": -15.3639,
      "longitude": 28.7838,
      "lastMaintenance": "2025-04-07T15:00:30.570749"
    },
    {
      "id": 50,
      "chiefdom": "Chief Chipepo",
      "facilityName": "Monze Facility 50",
      "facilityType": "Water Source",
      "village": "Solwezi",
      "capacity": 1330,
      "currentUsage": 823,
      "status": "Needs Repair",
      "latitude": -15.3751,
      "longitude": 28.6779,
      "lastMaintenance": "2025-08-02T15:00:30.570756"
    }
  ]
}