{
  "populationDemographics": {
    "id": 1,
    "chiefdom": "Chief Inyambo Yeta",
    "district": "Mongu",
    "province": "Western",
    "totalPopulation": 61822,
    "numberOfVillages": 27,
    "numberOfHouseholds": 12161,
    "malePopulation": 27711,
    "femalePopulation": 27255,
    "youthPopulation": 22055,
    "elderlyPopulation": 2822,
    "populationDensity": 51.8,
    "censusDate": "2025-08-11T15:00:30.891600"
  },
  "villages": [
    {
      "id": 1,
      "name": "Chongwe Central 1",
      "chiefdom": "Chief Inyambo Yeta",
      "population": 4871,
      "numberOfHouseholds": 1452,
      "villageHead": "Mrs. Patricia Chilufya",
      "latitude": -15.2107,
      "longitude": 23.1753,
      "distanceToNearestHospital": 20.0,
      "distanceToNearestSchool": 6.7,
      "primaryEconomicActivity": "Trading",
      "hasElectricity": true,
      "hasCleanWater": true
    },
    {
      "id": 2,
      "name": "Kafue Riverside 1",
      "chiefdom": "Chief Inyambo Yeta",
      "population": 2166,
      "numberOfHouseholds": 1897,
      "villageHead": "Mr. Simon Lubinda",
      "latitude": -15.283,
      "longitude": 23.1848,
      "distanceToNearestHospital": 7.2,
      "distanceToNearestSchool": 3.6,
      "primaryEconomicActivity": "Fishing",
      "hasElectricity": true,
      "hasCleanWater": true
    },
    {
      "id": 3,
      "name": "Munyumba 1",
      "chiefdom": "Chief Inyambo Yeta",
      "population": 6541,
      "numberOfHouseholds": 2955,
      "villageHead": "Mr. Charles Bwalya",
      "latitude": -15.1934,
      "longitude": 23.0573,
      "distanceToNearestHospital": 19.4,
      "distanceToNearestSchool": 8.9,
      "primaryEconomicActivity": "Mining",
      "hasElectricity": false,
      "hasCleanWater": true
    },
    {
      "id": 4,
      "name": "Kalingalinga 1",
      "chiefdom": "Chief Inyambo Yeta",
      "population": 14578,
      "numberOfHouseholds": 1473,
      "villageHead": "Mrs. Joyce Banda",
      "latitude": -15.2863,
      "longitude": 23.2375,
      "distanceToNearestHospital": 9.3,
      "distanceToNearestSchool": 2.4,
      "primaryEconomicActivity": "Fishing",
      "hasElectricity": false,
      "hasCleanWater": true
    },
    {
      "id": 5,
      "name": "Chilanga 1",
      "chiefdom": "Chief Inyambo Yeta",
      "population": 7653,
      "numberOfHouseholds": 1833,
      "villageHead": "Mrs. Agnes Mbewe",
      "latitude": -15.2951,
      "longitude": 23.1706,
      "distanceToNearestHospital": 3.9,
      "distanceToNearestSchool": 1.9,
      "primaryEconomicActivity": "Fishing",
      "hasElectricity": true,
      "hasCleanWater": true
    },
    {
      "id": 6,
      "name": "Makeni 1",
      "chiefdom": "Chief Inyambo Yeta",
      "population": 10176,
      "numberOfHouseholds": 948,
      "villageHead": "Mrs. Catherine Kasonde",
      "latitude": -15.2793,
      "longitude": 23.2298,
      "distanceToNearestHospital": 8.1,
      "distanceToNearestSchool": 4.9,
      "primaryEconomicActivity": "Mining",
      "hasElectricity": true,
      "hasCleanWater": true
    },
    {
      "id": 7,
      "name": "Ngwerere 1",
      "chiefdom": "Chief Inyambo Yeta",
      "population": 3471,
      "numberOfHouseholds": 925,
      "villageHead": "Mr. Francis Chipanga",
      "latitude": -15.1764,
      "longitude": 23.149,
      "distanceToNearestHospital": 20.1,
      "distanceToNearestSchool": 11.2,
      "primaryEconomicActivity": "Mining",
      "hasElectricity": true,
      "hasCleanWater": true
    },
    {
      "id": 8,
      "name": "Lilayi 1",
      "chiefdom": "Chief Inyambo Yeta",
      "population": 11154,
      "numberOfHouseholds": 824,
      "villageHead": "Mrs. Catherine Kasonde",
      "latitude": -15.227,
      "longitude": 23.09,
      "distanceToNearestHospital": 2.2,
      "distanceToNearestSchool": 1.8,
      "primaryEconomicActivity": "Services",
      "hasElectricity": true,
      "hasCleanWater": true
    },
    {
      "id": 9,
      "name": "Palabana 1",
      "chiefdom": "Chief Inyambo Yeta",
      "population": 5538,
      "numberOfHouseholds": 1341,
      "villageHead": "Mr. Vincent Hachipuka",
      "latitude": -15.1939,
      "longitude": 23.1151,
      "distanceToNearestHospital": 13.3,
      "distanceToNearestSchool": 1.0,
      "primaryEconomicActivity": "Services",
      "hasElectricity": true,
      "hasCleanWater": false
    },
    {
      "id": 10,
      "name": "Chainda 1",
      "chiefdom": "Chief Inyambo Yeta",
      "population": 11082,
      "numberOfHouseholds": 1108,
      "villageHead": "Mr. Steven Daka",
      "latitude": -15.1875,
      "longitude": 23.1796,
      "distanceToNearestHospital": 18.1,
      "distanceToNearestSchool": 5.1,
      "primaryEconomicActivity": "Trading",
      "hasElectricity": true,
      "hasCleanWater": false
    },
    {
      "id": 11,
      "name": "Meanwood 1",
      "chiefdom": "Chief Inyambo Yeta",
      "population": 12153,
      "numberOfHouseholds": 840,
      "villageHead": "Mr. Lawrence Kapasa",
      "latitude": -15.3451,
      "longitude": 23.1963,
      "distanceToNearestHospital": 13.6,
      "distanceToNearestSchool": 5.6,
      "primaryEconomicActivity": "Mining",
      "hasElectricity": true,
      "hasCleanWater": true
    },
    {
      "id": 12,
      "name": "Leopards Hill 1",
      "chiefdom": "Chief Inyambo Yeta",
      "population": 3840,
      "numberOfHouseholds": 495,
      "villageHead": "Mr. William Chisenga",
      "latitude": -15.167,
      "longitude": 23.0852,
      "distanceToNearestHospital": 12.1,
      "distanceToNearestSchool": 1.0,
      "primaryEconomicActivity": "Services",
      "hasElectricity": false,
      "hasCleanWater": true
    },
    {
      "id": 13,
      "name": "Chalala 1",
      "chiefdom": "Chief Inyambo Yeta",
      "population": 2904,
      "numberOfHouseholds": 1904,
      "villageHead": "Mrs. Rose Mwila",
      "latitude": -15.3012,
      "longitude": 23.0535,
      "distanceToNearestHospital": 10.2,
      "distanceToNearestSchool": 3.6,
      "primaryEconomicActivity": "Mining",
      "hasElectricity": true,
      "hasCleanWater": false
    },
    {
      "id": 14,
      "name": "Sikanze 1",
      "chiefdom": "Chief Inyambo Yeta",
      "population": 7774,
      "numberOfHouseholds": 2652,
      "villageHead": "Mr. Emmanuel Ngulube",
      "latitude": -15.314,
      "longitude": 23.1808,
      "distanceToNearestHospital": 3.9,
      "distanceToNearestSchool": 10.6,
      "primaryEconomicActivity": "Trading",
      "hasElectricity": true,
      "hasCleanWater": true
    },
    {
      "id": 15,
      "name": "Nyimba 1",
      "chiefdom": "Chief Inyambo Yeta",
      "population": 5943,
      "numberOfHouseholds": 679,
      "villageHead": "Mr. Daniel Sakala",
      "latitude": -15.332,
      "longitude": 23.1112,
      "distanceToNearestHospital": 24.1,
      "distanceToNearestSchool": 11.9,
      "primaryEconomicActivity": "Farming",
      "hasElectricity": true,
      "hasCleanWater": true
    },
    {
      "id": 16,
      "name": "Luangwa 1",
      "chiefdom": "Chief Inyambo Yeta",
      "population": 7140,
      "numberOfHouseholds": 2518,
      "villageHead": "Mr. Michael Nyirenda",
      "latitude": -15.2518,
      "longitude": 23.0849,
      "distanceToNearestHospital": 12.5,
      "distanceToNearestSchool": 2.0,
      "primaryEconomicActivity": "Fishing",
      "hasElectricity": true,
      "hasCleanWater": true
    },
    {
      "id": 17,
      "name": "Mpanshya 1",
      "chiefdom": "Chief Inyambo Yeta",
      "population": 4861,
      "numberOfHouseholds": 2529,
      "villageHead": "Mrs. Grace Tembo",
      "latitude": -15.3127,
      "longitude": 23.1694,
      "distanceToNearestHospital": 7.6,
      "distanceToNearestSchool": 9.7,
      "primaryEconomicActivity": "Mining",
      "hasElectricity": true,
      "hasCleanWater": true
    },
    {
      "id": 18,
      "name": "Mutumbi 1",
      "chiefdom": "Chief Inyambo Yeta",
      "population": 3501,
      "numberOfHouseholds": 296,
      "villageHead": "Mr. Andrew Sichone",
      "latitude": -15.1952,
      "longitude": 23.199,
      "distanceToNearestHospital": 9.1,
      "distanceToNearestSchool": 4.1,
      "primaryEconomicActivity": "Mining",
      "hasElectricity": true,
      "hasCleanWater": true
    },
    {
      "id": 19,
      "name": "Kanakantapa 1",
      "chiefdom": "Chief Inyambo Yeta",
      "population": 9541,
      "numberOfHouseholds": 1183,
      "villageHead": "Mr. Charles Bwalya",
      "latitude": -15.2909,
      "longitude": 23.1015,
      "distanceToNearestHospital": 16.8,
      "distanceToNearestSchool": 9.6,
      "primaryEconomicActivity": "Fishing",
      "hasElectricity": true,
      "hasCleanWater": false
    },
    {
      "id": 20,
      "name": "Mwembezhi 1",
      "chiefdom": "Chief Inyambo Yeta",
      "population": 3192,
      "numberOfHouseholds": 1558,
      "villageHead": "Mrs. Grace Tembo",
      "latitude": -15.1851,
      "longitude": 23.1248,
      "distanceToNearestHospital": 13.9,
      "distanceToNearestSchool": 4.4,
      "primaryEconomicActivity": "Services",
      "hasElectricity": true,
      "hasCleanWater": true
    },
    {
      "id": 21,
      "name": "Shimabala 1",
      "chiefdom": "Chief Inyambo Yeta",
      "population": 3327,
      "numberOfHouseholds": 704,
      "villageHead": "Mrs. Ruth Moyo",
      "latitude": -15.2489,
      "longitude": 23.0555,
      "distanceToNearestHospital": 10.0,
      "distanceToNearestSchool": 10.2,
      "primaryEconomicActivity": "Services",
      "hasElectricity": true,
      "hasCleanWater": true
    },
    {
      "id": 22,
      "name": "Chisamba 1",
      "chiefdom": "Chief Inyambo Yeta",
      "population": 7326,
      "numberOfHouseholds": 941,
      "villageHead": "Mrs. Sarah Mumba",
      "latitude": -15.2626,
      "longitude": 23.1069,
      "distanceToNearestHospital": 19.6,
      "distanceToNearestSchool": 7.5,
      "primaryEconomicActivity": "Trading",
      "hasElectricity": true,
      "hasCleanWater": true
    },
    {
      "id": 23,
      "name": "Katoba 1",
      "chiefdom": "Chief Inyambo Yeta",
      "population": 5354,
      "numberOfHouseholds": 1110,
      "villageHead": "Mr. John Banda",
      "latitude": -15.3086,
      "longitude": 23.1739,
      "distanceToNearestHospital": 23.0,
      "distanceToNearestSchool": 9.4,
      "primaryEconomicActivity": "Mining",
      "hasElectricity": false,
      "hasCleanWater": true
    },
    {
      "id": 24,
      "name": "Kaunga 1",
      "chiefdom": "Chief Inyambo Yeta",
      "population": 11591,
      "numberOfHouseholds": 769,
      "villageHead": "Mr. Vincent Hachipuka",
      "latitude": -15.3013,
      "longitude": 23.0519,
      "distanceToNearestHospital": 6.2,
      "distanceToNearestSchool": 8.2,
      "primaryEconomicActivity": "Mining",
      "hasElectricity": true,
      "hasCleanWater": true
    },
    {
      "id": 25,
      "name": "Chipapa 1",
      "chiefdom": "Chief Inyambo Yeta",
      "population": 4533,
      "numberOfHouseholds": 2647,
      "villageHead": "Mr. William Chisenga",
      "latitude": -15.3459,
      "longitude": 23.1424,
      "distanceToNearestHospital": 4.1,
      "distanceToNearestSchool": 9.1,
      "primaryEconomicActivity": "Farming",
      "hasElectricity": false,
      "hasCleanWater": true
    },
    {
      "id": 26,
      "name": "Nakatindi 1",
      "chiefdom": "Chief Inyambo Yeta",
      "population": 12715,
      "numberOfHouseholds": 555,
      "villageHead": "Mrs. Beatrice Nkhoma",
      "latitude": -15.2059,
      "longitude": 23.1701,
      "distanceToNearestHospital": 4.2,
      "distanceToNearestSchool": 2.9,
      "primaryEconomicActivity": "Farming",
      "hasElectricity": true,
      "hasCleanWater": false
    },
    {
      "id": 27,
      "name": "Mbabala 1",
      "chiefdom": "Chief Inyambo Yeta",
      "population": 7854,
      "numberOfHouseholds": 1219,
      "villageHead": "Mrs. Catherine Kasonde",
      "latitude": -15.2254,
      "longitude": 23.0709,
      "distanceToNearestHospital": 22.4,
      "distanceToNearestSchool": 6.9,
      "primaryEconomicActivity": "Fishing",
      "hasElectricity": false,
      "hasCleanWater": true
    },
    {
      "id": 28,
      "name": "Chalimbana 1",
      "chiefdom": "Chief Inyambo Yeta",
      "population": 10992,
      "numberOfHouseholds": 713,
      "villageHead": "Mrs. Rose Mwila",
      "latitude": -15.3492,
      "longitude": 23.1967,
      "distanceToNearestHospital": 10.3,
      "distanceToNearestSchool": 5.9,
      "primaryEconomicActivity": "Services",
      "hasElectricity": true,
      "hasCleanWater": true
    },
    {
      "id": 29,
      "name": "Kapiri 1",
      "chiefdom": "Chief Inyambo Yeta",
      "population": 12457,
      "numberOfHouseholds": 2945,
      "villageHead": "Mrs. Beatrice Nkhoma",
      "latitude": -15.2727,
      "longitude": 23.0574,
      "distanceToNearestHospital": 4.4,
      "distanceToNearestSchool": 2.1,
      "primaryEconomicActivity": "Services",
      "hasElectricity": true,
      "hasCleanWater": true
    },
    {
      "id": 30,
      "name": "Lunsemfwa 1",
      "chiefdom": "Chief Inyambo Yeta",
      "population": 2913,
      "numberOfHouseholds": 2305,
      "villageHead": "Mrs. Sarah Mumba",
      "latitude": -15.2282,
      "longitude": 23.1553,
      "distanceToNearestHospital": 18.7,
      "distanceToNearestSchool": 6.6,
      "primaryEconomicActivity": "Fishing",
      "hasElectricity": true,
      "hasCleanWater": false
    },
    {
      "id": 31,
      "name": "Mumbwa 1",
      "chiefdom": "Chief Inyambo Yeta",
      "population": 7351,
      "numberOfHouseholds": 1692,
      "villageHead": "Mr. Francis Chipanga",
      "latitude": -15.1874,
      "longitude": 23.0594,
      "distanceToNearestHospital": 12.8,
      "distanceToNearestSchool": 9.8,
      "primaryEconomicActivity": "Trading",
      "hasElectricity": true,
      "hasCleanWater": false
    },
    {
      "id": 32,
      "name": "Kasempa 1",
      "chiefdom": "Chief Inyambo Yeta",
      "population": 3138,
      "numberOfHouseholds": 2614,
      "villageHead": "Mrs. Grace Tembo",
      "latitude": -15.2422,
      "longitude": 23.071,
      "distanceToNearestHospital": 6.5,
      "distanceToNearestSchool": 1.2,
      "primaryEconomicActivity": "Fishing",
      "hasElectricity": false,
      "hasCleanWater": true
    },
    {
      "id": 33,
      "name": "Mufumbwe 1",
      "chiefdom": "Chief Inyambo Yeta",
      "population": 1226,
      "numberOfHouseholds": 416,
      "villageHead": "Mrs. Elizabeth Mutale",
      "latitude": -15.36,
      "longitude": 23.0941,
      "distanceToNearestHospital": 2.5,
      "distanceToNearestSchool": 7.4,
      "primaryEconomicActivity": "Mining",
      "hasElectricity": true,
      "hasCleanWater": true
    },
    {
      "id": 34,
      "name": "Kabwe 1",
      "chiefdom": "Chief Inyambo Yeta",
      "population": 12313,
      "numberOfHouseholds": 1716,
      "villageHead": "Mrs. Elizabeth Mutale",
      "latitude": -15.1987,
      "longitude": 23.0977,
      "distanceToNearestHospital": 16.8,
      "distanceToNearestSchool": 8.5,
      "primaryEconomicActivity": "Services",
      "hasElectricity": true,
      "hasCleanWater": false
    },
    {
      "id": 35,
      "name": "Chibombo 1",
      "chiefdom": "Chief Inyambo Yeta",
      "population": 2143,
      "numberOfHouseholds": 251,
      "villageHead": "Mrs. Grace Tembo",
      "latitude": -15.2536,
      "longitude": 23.107,
      "distanceToNearestHospital": 4.8,
      "distanceToNearestSchool": 3.0,
      "primaryEconomicActivity": "Fishing",
      "hasElectricity": true,
      "hasCleanWater": true
    },
    {
      "id": 36,
      "name": "Mkushi 1",
      "chiefdom": "Chief Inyambo Yeta",
      "population": 9697,
      "numberOfHouseholds": 758,
      "villageHead": "Mrs. Agnes Mbewe",
      "latitude": -15.2822,
      "longitude": 23.0836,
      "distanceToNearestHospital": 4.1,
      "distanceToNearestSchool": 5.9,
      "primaryEconomicActivity": "Farming",
      "hasElectricity": true,
      "hasCleanWater": true
    },
    {
      "id": 37,
      "name": "Serenje 1",
      "chiefdom": "Chief Inyambo Yeta",
      "population": 3445,
      "numberOfHouseholds": 1300,
      "villageHead": "Mr. Patrick Zulu",
      "latitude": -15.2093,
      "longitude": 23.0506,
      "distanceToNearestHospital": 15.6,
      "distanceToNearestSchool": 1.0,
      "primaryEconomicActivity": "Trading",
      "hasElectricity": true,
      "hasCleanWater": true
    },
    {
      "id": 38,
      "name": "Mpika 1",
      "chiefdom": "Chief Inyambo Yeta",
      "population": 7765,
      "numberOfHouseholds": 192,
      "villageHead": "Mrs. Joyce Banda",
      "latitude": -15.2703,
      "longitude": 23.0657,
      "distanceToNearestHospital": 11.6,
      "distanceToNearestSchool": 8.3,
      "primaryEconomicActivity": "Mining",
      "hasElectricity": true,
      "hasCleanWater": true
    },
    {
      "id": 39,
      "name": "Nakonde 1",
      "chiefdom": "Chief Inyambo Yeta",
      "population": 13661,
      "numberOfHouseholds": 2006,
      "villageHead": "Mr. Joseph Lungu",
      "latitude": -15.2847,
      "longitude": 23.089,
      "distanceToNearestHospital": 17.7,
      "distanceToNearestSchool": 1.5,
      "primaryEconomicActivity": "Services",
      "hasElectricity": false,
      "hasCleanWater": false
    },
    {
      "id": 40,
      "name": "Isoka 1",
      "chiefdom": "Chief Inyambo Yeta",
      "population": 6953,
      "numberOfHouseholds": 1654,
      "villageHead": "Mrs. Alice Mwansa",
      "latitude": -15.2634,
      "longitude": 23.2018,
      "distanceToNearestHospital": 5.6,
      "distanceToNearestSchool": 2.4,
      "primaryEconomicActivity": "Farming",
      "hasElectricity": true,
      "hasCleanWater": true
    },
    {
      "id": 41,
      "name": "Chinsali 1",
      "chiefdom": "Chief Inyambo Yeta",
      "population": 10541,
      "numberOfHouseholds": 2564,
      "villageHead": "Mr. David Mwale",
      "latitude": -15.3294,
      "longitude": 23.1839,
      "distanceToNearestHospital": 14.4,
      "distanceToNearestSchool": 8.2,
      "primaryEconomicActivity": "Mining",
      "hasElectricity": false,
      "hasCleanWater": false
    },
    {
      "id": 42,
      "name": "Kasama 1",
      "chiefdom": "Chief Inyambo Yeta",
      "population": 12820,
      "numberOfHouseholds": 2528,
      "villageHead": "Mr. George Nkonde",
      "latitude": -15.3228,
      "longitude": 23.167,
      "distanceToNearestHospital": 17.9,
      "distanceToNearestSchool": 6.5,
      "primaryEconomicActivity": "Trading",
      "hasElectricity": true,
      "hasCleanWater": true
    },
    {
      "id": 43,
      "name": "Mbala 1",
      "chiefdom": "Chief Inyambo Yeta",
      "population": 12910,
      "numberOfHouseholds": 1735,
      "villageHead": "Mrs. Dorothy Hamoonga",
      "latitude": -15.2235,
      "longitude": 23.1048,
      "distanceToNearestHospital": 8.8,
      "distanceToNearestSchool": 9.0,
      "primaryEconomicActivity": "Services",
      "hasElectricity": true,
      "hasCleanWater": true
    },
    {
      "id": 44,
      "name": "Luwingu 1",
      "chiefdom": "Chief Inyambo Yeta",
      "population": 3563,
      "numberOfHouseholds": 1582,
      "villageHead": "Mr. Richard Zimba",
      "latitude": -15.1981,
      "longitude": 23.2156,
      "distanceToNearestHospital": 16.9,
      "distanceToNearestSchool": 8.9,
      "primaryEconomicActivity": "Farming",
      "hasElectricity": false,
      "hasCleanWater": false
    },
    {
      "id": 45,
      "name": "Mporokoso 1",
      "chiefdom": "Chief Inyambo Yeta",
      "population": 8847,
      "numberOfHouseholds": 2966,
      "villageHead": "Mr. Anthony Mulenga",
      "latitude": -15.3325,
      "longitude": 23.126,
      "distanceToNearestHospital": 4.4,
      "distanceToNearestSchool": 3.7,
      "primaryEconomicActivity": "Farming",
      "hasElectricity": false,
      "hasCleanWater": false
    },
    {
      "id": 46,
      "name": "Kawambwa 1",
      "chiefdom": "Chief Inyambo Yeta",
      "population": 8969,
      "numberOfHouseholds": 2402,
      "villageHead": "Mrs. Florence Mwanza",
      "latitude": -15.272,
      "longitude": 23.0674,
      "distanceToNearestHospital": 6.3,
      "distanceToNearestSchool": 6.1,
      "primaryEconomicActivity": "Trading",
      "hasElectricity": false,
      "hasCleanWater": true
    },
    {
      "id": 47,
      "name": "Mansa 1",
      "chiefdom": "Chief Inyambo Yeta",
      "population": 12384,
      "numberOfHouseholds": 171,
      "villageHead": "Mrs. Elizabeth Mutale",
      "latitude": -15.3556,
      "longitude": 23.1059,
      "distanceToNearestHospital": 16.7,
      "distanceToNearestSchool": 7.0,
      "primaryEconomicActivity": "Mining",
      "hasElectricity": false,
      "hasCleanWater": true
    },
    {
      "id": 48,
      "name": "Samfya 1",
      "chiefdom": "Chief Inyambo Yeta",
      "population": 4055,
      "numberOfHouseholds": 2776,
      "villageHead": "Mr. Charles Bwalya",
      "latitude": -15.2805,
      "longitude": 23.1502,
      "distanceToNearestHospital": 24.3,
      "distanceToNearestSchool": 11.6,
      "primaryEconomicActivity": "Fishing",
      "hasElectricity": false,
      "hasCleanWater": true
    },
    {
      "id": 49,
      "name": "Nchelenge 1",
      "chiefdom": "Chief Inyambo Yeta",
      "population": 11298,
      "numberOfHouseholds": 328,
      "villageHead": "Mrs. Sarah Mumba",
      "latitude": -15.1803,
      "longitude": 23.2231,
      "distanceToNearestHospital": 14.9,
      "distanceToNearestSchool": 0.8,
      "primaryEconomicActivity": "Trading",
      "hasElectricity": true,
      "hasCleanWater": false
    },
    {
      "id": 50,
      "name": "Kaputa 1",
      "chiefdom": "Chief Inyambo Yeta",
      "population": 5031,
      "numberOfHouseholds": 1459,
      "villageHead": "Mr. Steven Daka",
      "latitude": -15.2365,
      "longitude": 23.1623,
      "distanceToNearestHospital": 11.7,
      "distanceToNearestSchool": 11.2,
      "primaryEconomicActivity": "Trading",
      "hasElectricity": true,
      "hasCleanWater": true
    }
  ],
  "infrastructure": [
    {
      "id": 1,
      "chiefdom": "Chief Inyambo Yeta",
      "facilityName": "Mpika Facility 1",
      "facilityType": "Clinic",
      "village": "Mpanshya",
      "capacity": 876,
      "currentUsage": 1280,
      "status": "Operational",
      "latitude": -15.1686,
      "longitude": 23.0946,
      "lastMaintenance": "2025-04-30T15:00:30.891804"
    },
    {
      "id": 2,
      "chiefdom": "Chief Inyambo Yeta",
      "facilityName": "Kapiri Facility 2",
      "facilityType": "Water Source",
      "village": "Katete",
      "capacity": 494,
      "currentUsage": 98,
      "status": "Operational",
      "latitude": -15.2762,
      "longitude": 23.0529,
      "lastMaintenance": "2025-12-28T15:00:30.891812"
    },
    {
      "id": 3,
      "chiefdom": "Chief Inyambo Yeta",
      "facilityName": "Nchelenge Facility 3",
      "facilityType": "Clinic",
      "village": "Sinda",
      "capacity": 458,
      "currentUsage": 1257,
      "status": "Under Construction",
      "latitude": -15.2106,
      "longitude": 23.1017,
      "lastMaintenance": "2025-06-03T15:00:30.891819"
    },
    {
      "id": 4,
      "chiefdom": "Chief Inyambo Yeta",
      "facilityName": "Mbabala Facility 4",
      "facilityType": "Clinic",
      "village": "Chipata",
      "capacity": 762,
      "currentUsage": 414,
      "status": "Under Construction",
      "latitude": -15.2089,
      "longitude": 23.0895,
      "lastMaintenance": "2025-08-09T15:00:30.891826"
    },
    {
      "id": 5,
      "chiefdom": "Chief Inyambo Yeta",
      "facilityName": "Chipapa Facility 5",
      "facilityType": "Water Source",
      "village": "Munyumba",
      "capacity": 727,
      "currentUsage": 446,
      "status": "Operational",
      "latitude": -15.1848,
      "longitude": 23.1631,
      "lastMaintenance": "2025-07-16T15:00:30.891833"
    },
    {
      "id": 6,
      "chiefdom": "Chief Inyambo Yeta",
      "facilityName": "Shimabala Facility 6",
      "facilityType": "Clinic",
      "village": "Kasempa",
      "capacity": 1196,
      "currentUsage": 988,
      "status": "Needs Repair",
      "latitude": -15.2348,
      "longitude": 23.1696,
      "lastMaintenance": "2025-08-31T15:00:30.891840"
    },
    {
      "id": 7,
      "chiefdom": "Chief Inyambo Yeta",
      "facilityName": "Mbala Facility 7",
      "facilityType": "Secondary School",
      "village": "Luangwa",
      "capacity": 363,
      "currentUsage": 1072,
      "status": "Under Construction",
      "latitude": -15.3277,
      "longitude": 23.1,
      "lastMaintenance": "2025-11-20T15:00:30.891847"
    },
    {
      "id": 8,
      "chiefdom": "Chief Inyambo Yeta",
      "facilityName": "Kalingalinga Facility 8",
      "facilityType": "Primary School",
      "village": "Nakonde",
      "capacity": 1315,
      "currentUsage": 321,
      "status": "Needs Repair",
      "latitude": -15.2422,
      "longitude": 23.0678,
      "lastMaintenance": "2025-09-27T15:00:30.891854"
    },
    {
      "id": 9,
      "chiefdom": "Chief Inyambo Yeta",
      "facilityName": "Kaputa Facility 9",
      "facilityType": "Primary School",
      "village": "Ndola",
      "capacity": 748,
      "currentUsage": 952,
      "status": "Under Construction",
      "latitude": -15.2786,
      "longitude": 23.1958,
      "lastMaintenance": "2025-03-15T15:00:30.891861"
    },
    {
      "id": 10,
      "chiefdom": "Chief Inyambo Yeta",
      "facilityName": "Nakonde Facility 10",
      "facilityType": "Secondary School",
      "village": "Meanwood",
      "capacity": 1479,
      "currentUsage": 1521,
      "status": "Needs Repair",
      "latitude": -15.1654,
      "longitude": 23.1562,
      "lastMaintenance": "2025-06-11T15:00:30.891867"
    },
    {
      "id": 11,
      "chiefdom": "Chief Inyambo Yeta",
      "facilityName": "Munyumba Facility 11",
      "facilityType": "Water Source",
      "village": "Mwinilunga",
      "capacity": 1416,
      "currentUsage": 515,
      "status": "Under Construction",
      "latitude": -15.1871,
      "longitude": 23.1803,
      "lastMaintenance": "2025-02-04T15:00:30.891874"
    },
    {
      "id": 12,
      "chiefdom": "Chief Inyambo Yeta",
      "facilityName": "Mkushi Facility 12",
      "facilityType": "Water Source",
      "village": "Chalala",
      "capacity": 1281,
      "currentUsage": 765,
      "status": "Under Construction",
      "latitude": -15.353,
      "longitude": 23.1384,
      "lastMaintenance": "2025-02-09T15:00:30.891882"
    },
    {
      "id": 13,
      "chiefdom": "Chief Inyambo Yeta",
      "facilityName": "Mumbwa Facility 13",
      "facilityType": "Water Source",
      "village": "Chingola",
      "capacity": 593,
      "currentUsage": 161,
      "status": "Under Construction",
      "latitude": -15.2089,
      "longitude": 23.1317,
      "lastMaintenance": "2025-11-01T15:00:30.891889"
    },
    {
      "id": 14,
      "chiefdom": "Chief Inyambo Yeta",
      "facilityName": "Chibombo Facility 14",
      "facilityType": "Water Source",
      "village": "Zambezi",
      "capacity": 130,
      "currentUsage": 854,
      "status": "Operational",
      "latitude": -15.1759,
      "longitude": 23.1307,
      "lastMaintenance": "2025-08-23T15:00:30.891897"
    },
    {
      "id": 15,
      "chiefdom": "Chief Inyambo Yeta",
      "facilityName": "Mpika Facility 15",
      "facilityType": "Secondary School",
      "village": "Senanga",
      "capacity": 1182,
      "currentUsage": 407,
      "status": "Needs Repair",
      "latitude": -15.2173,
      "longitude": 23.1142,
      "lastMaintenance": "2025-07-16T15:00:30.891904"
    },
    {
      "id": 16,
      "chiefdom": "Chief Inyambo Yeta",
      "facilityName": "Chilanga Facility 16",
      "facilityType": "Water Source",
      "village": "Palabana",
      "capacity": 143,
      "currentUsage": 764,
      "status": "Operational",
      "latitude": -15.1953,
      "longitude": 23.1736,
      "lastMaintenance": "2025-11-07T15:00:30.891911"
    },
    {
      "id": 17,
      "chiefdom": "Chief Inyambo Yeta",
      "facilityName": "Katoba Facility 17",
      "facilityType": "Water Source",
      "village": "Shangombo",
      "capacity": 1222,
      "currentUsage": 1394,
      "status": "Operational",
      "latitude": -15.167,
      "longitude": 23.1415,
      "lastMaintenance": "2025-10-15T15:00:30.891918"
    },
    {
      "id": 18,
      "chiefdom": "Chief Inyambo Yeta",
      "facilityName": "Chisamba Facility 18",
      "facilityType": "Water Source",
      "village": "Chainda",
      "capacity": 584,
      "currentUsage": 1241,
      "status": "Operational",
      "latitude": -15.2464,
      "longitude": 23.1338,
      "lastMaintenance": "2025-12-03T15:00:30.891925"
    },
    {
      "id": 19,
      "chiefdom": "Chief Inyambo Yeta",
      "facilityName": "Chipata Facility 19",
      "facilityType": "Primary School",
      "village": "Kaputa",
      "capacity": 928,
      "currentUsage": 265,
      "status": "Operational",
      "latitude": -15.3443,
      "longitude": 23.151,
      "lastMaintenance": "2026-01-05T15:00:30.891932"
    },
    {
      "id": 20,
      "chiefdom": "Chief Inyambo Yeta",
      "facilityName": "Mambwe Facility 20",
      "facilityType": "Clinic",
      "village": "Nchelenge",
      "capacity": 1312,
      "currentUsage": 767,
      "status": "Under Construction",
      "latitude": -15.2669,
      "longitude": 23.0992,
      "lastMaintenance": "2025-04-14T15:00:30.891939"
    },
    {
      "id": 21,
      "chiefdom": "Chief Inyambo Yeta",
      "facilityName": "Mkushi Facility 21",
      "facilityType": "Water Source",
      "village": "Zambezi",
      "capacity": 1065,
      "currentUsage": 87,
      "status": "Operational",
      "latitude": -15.2268,
      "longitude": 23.0946,
      "lastMaintenance": "2025-12-30T15:00:30.891946"
    },
    {
      "id": 22,
      "chiefdom": "Chief Inyambo Yeta",
      "facilityName": "Makeni Facility 22",
      "facilityType": "Water Source",
      "village": "Kafue Riverside",
      "capacity": 1210,
      "currentUsage": 1229,
      "status": "Needs Repair",
      "latitude": -15.1785,
      "longitude": 23.1412,
      "lastMaintenance": "2025-05-31T15:00:30.891952"
    },
    {
      "id": 23,
      "chiefdom": "Chief Inyambo Yeta",
      "facilityName": "Serenje Facility 23",
      "facilityType": "Primary School",
      "village": "Lundazi",
      "capacity": 898,
      "currentUsage": 894,
      "status": "Under Construction",
      "latitude": -15.2945,
      "longitude": 23.143,
      "lastMaintenance": "2025-12-02T15:00:30.891959"
    },
    {
      "id": 24,
      "chiefdom": "Chief Inyambo Yeta",
      "facilityName": "Chibombo Facility 24",
      "facilityType": "Clinic",
      "village": "Mwembezhi",
      "capacity": 1459,
      "currentUsage": 1241,
      "status": "Operational",
      "latitude": -15.2052,
      "longitude": 23.1146,
      "lastMaintenance": "2025-09-01T15:00:30.891966"
    },
    {
      "id": 25,
      "chiefdom": "Chief Inyambo Yeta",
      "facilityName": "Serenje Facility 25",
      "facilityType": "Water Source",
      "village": "Mporokoso",
      "capacity": 1095,
      "currentUsage": 116,
      "status": "Operational",
      "latitude": -15.3308,
      "longitude": 23.1805,
      "lastMaintenance": "2026-01-07T15:00:30.891973"
    },
    {
      "id": 26,
      "chiefdom": "Chief Inyambo Yeta",
      "facilityName": "Chilanga Facility 26",
      "facilityType": "Primary School",
      "village": "Chisamba",
      "capacity": 738,
      "currentUsage": 125,
      "status": "Needs Repair",
      "latitude": -15.2217,
      "longitude": 23.2304,
      "lastMaintenance": "2025-04-20T15:00:30.891980"
    },
    {
      "id": 27,
      "chiefdom": "Chief Inyambo Yeta",
      "facilityName": "Pemba Facility 27",
      "facilityType": "Primary School",
      "village": "Chinsali",
      "capacity": 601,
      "currentUsage": 282,
      "status": "Needs Repair",
      "latitude": -15.3412,
      "longitude": 23.1364,
      "lastMaintenance": "2025-05-30T15:00:30.891987"
    },
    {
      "id": 28,
      "chiefdom": "Chief Inyambo Yeta",
      "facilityName": "Kabompo Facility 28",
      "facilityType": "Secondary School",
      "village": "Makeni",
      "capacity": 789,
      "currentUsage": 1052,
      "status": "Operational",
      "latitude": -15.2799,
      "longitude": 23.2352,
      "lastMaintenance": "2025-09-10T15:00:30.891994"
    },
    {
      "id": 29,
      "chiefdom": "Chief Inyambo Yeta",
      "facilityName": "Nyimba Facility 29",
      "facilityType": "Secondary School",
      "village": "Lundazi",
      "capacity": 504,
      "currentUsage": 1078,
      "status": "Needs Repair",
      "latitude": -15.3527,
      "longitude": 23.1414,
      "lastMaintenance": "2025-11-05T15:00:30.892000"
    },
    {
      "id": 30,
      "chiefdom": "Chief Inyambo Yeta",
      "facilityName": "Mutumbi Facility 30",
      "facilityType": "Secondary School",
      "village": "Chibombo",
      "capacity": 495,
      "currentUsage": 913,
      "status": "Under Construction",
      "latitude": -15.3547,
      "longitude": 23.1138,
      "lastMaintenance": "2025-03-06T15:00:30.892007"
    },
    {
      "id": 31,
      "chiefdom": "Chief Inyambo Yeta",
      "facilityName": "Ndola Facility 31",
      "facilityType": "Hospital",
      "village": "Chinsali",
      "capacity": 1373,
      "currentUsage": 126,
      "status": "Needs Repair",
      "latitude": -15.2855,
      "longitude": 23.2194,
      "lastMaintenance": "2025-10-12T15:00:30.892014"
    },
    {
      "id": 32,
      "chiefdom": "Chief Inyambo Yeta",
      "facilityName": "Chililabombwe Facility 32",
      "facilityType": "Water Source",
      "village": "Mumbwa",
      "capacity": 700,
      "currentUsage": 303,
      "status": "Operational",
      "latitude": -15.3368,
      "longitude": 23.2287,
      "lastMaintenance": "2025-12-03T15:00:30.892021"
    },
    {
      "id": 33,
      "chiefdom": "Chief Inyambo Yeta",
      "facilityName": "Nakonde Facility 33",
      "facilityType": "Clinic",
      "village": "Mpongwe",
      "capacity": 359,
      "currentUsage": 1002,
      "status": "Under Construction",
      "latitude": -15.3051,
      "longitude": 23.1588,
      "lastMaintenance": "2025-10-19T15:00:30.892028"
    },
    {
      "id": 34,
      "chiefdom": "Chief Inyambo Yeta",
      "facilityName": "Chilanga Facility 34",
      "facilityType": "Hospital",
      "village": "Chadiza",
      "capacity": 123,
      "currentUsage": 210,
      "status": "Operational",
      "latitude": -15.2303,
      "longitude": 23.2467,
      "lastMaintenance": "2025-09-04T15:00:30.892035"
    },
    {
      "id": 35,
      "chiefdom": "Chief Inyambo Yeta",
      "facilityName": "Chongwe Central Facility 35",
      "facilityType": "Secondary School",
      "village": "Kaunga",
      "capacity": 1428,
      "currentUsage": 599,
      "status": "Needs Repair",
      "latitude": -15.3147,
      "longitude": 23.1979,
      "lastMaintenance": "2025-12-29T15:00:30.892042"
    },
    {
      "id": 36,
      "chiefdom": "Chief Inyambo Yeta",
      "facilityName": "Gwembe Facility 36",
      "facilityType": "Water Source",
      "village": "Mkushi",
      "capacity": 1459,
      "currentUsage": 972,
      "status": "Needs Repair",
      "latitude": -15.3463,
      "longitude": 23.1888,
      "lastMaintenance": "2025-08-14T15:00:30.892049"
    },
    {
      "id": 37,
      "chiefdom": "Chief Inyambo Yeta",
      "facilityName": "Makeni Facility 37",
      "facilityType": "Water Source",
      "village": "Shangombo",
      "capacity": 289,
      "currentUsage": 1041,
      "status": "Needs Repair",
      "latitude": -15.2039,
      "longitude": 23.1751,
      "lastMaintenance": "2025-09-24T15:00:30.892056"
    },
    {
      "id": 38,
      "chiefdom": "Chief Inyambo Yeta",
      "facilityName": "Monze Facility 38",
      "facilityType": "Hospital",
      "village": "Chililabombwe",
      "capacity": 292,
      "currentUsage": 173,
      "status": "Under Construction",
      "latitude": -15.2281,
      "longitude": 23.0548,
      "lastMaintenance": "2026-01-11T15:00:30.892063"
    },
    {
      "id": 39,
      "chiefdom": "Chief Inyambo Yeta",
      "facilityName": "Solwezi Facility 39",
      "facilityType": "Hospital",
      "village": "Mwembezhi",
      "capacity": 834,
      "currentUsage": 746,
      "status": "Under Construction",
      "latitude": -15.3396,
      "longitude": 23.151,
      "lastMaintenance": "2025-02-20T15:00:30.892070"
    },
    {
      "id": 40,
      "chiefdom": "Chief Inyambo Yeta",
      "facilityName": "Lundazi Facility 40",
      "facilityType": "Primary School",
      "village": "Kaoma",
      "capacity": 1458,
      "currentUsage": 1600,
      "status": "Needs Repair",
      "latitude": -15.2549,
      "longitude": 23.1099,
      "lastMaintenance": "2025-09-21T15:00:30.892076"
    },
    {
      "id": 41,
      "chiefdom": "Chief Inyambo Yeta",
      "facilityName": "Kitwe Facility 41",
      "facilityType": "Secondary School",
      "village": "Zambezi",
      "capacity": 519,
      "currentUsage": 996,
      "status": "Under Construction",
      "latitude": -15.2093,
      "longitude": 23.173,
      "lastMaintenance": "2025-04-21T15:00:30.892083"
    },
    {
      "id": 42,
      "chiefdom": "Chief Inyambo Yeta",
      "facilityName": "Siavonga Facility 42",
      "facilityType": "Primary School",
      "village": "Mpika",
      "capacity": 1445,
      "currentUsage": 1203,
      "status": "Under Construction",
      "latitude": -15.3071,
      "longitude": 23.2147,
      "lastMaintenance": "2025-03-25T15:00:30.892091"
    },
    {
      "id": 43,
      "chiefdom": "Chief Inyambo Yeta",
      "facilityName": "Kasempa Facility 43",
      "facilityType": "Clinic",
      "village": "Kitwe",
      "capacity": 205,
      "currentUsage": 156,
      "status": "Under Construction",
      "latitude": -15.1686,
      "longitude": 23.074,
      "lastMaintenance": "2025-07-17T15:00:30.892097"
    },
    {
      "id": 44,
      "chiefdom": "Chief Inyambo Yeta",
      "facilityName": "Kabompo Facility 44",
      "facilityType": "Primary School",
      "village": "Samfya",
      "capacity": 542,
      "currentUsage": 888,
      "status": "Operational",
      "latitude": -15.3021,
      "longitude": 23.1083,
      "lastMaintenance": "2025-05-19T15:00:30.892104"
    },
    {
      "id": 45,
      "chiefdom": "Chief Inyambo Yeta",
      "facilityName": "Kapiri Facility 45",
      "facilityType": "Primary School",
      "village": "Meanwood",
      "capacity": 1104,
      "currentUsage": 1048,
      "status": "Operational",
      "latitude": -15.1816,
      "longitude": 23.2402,
      "lastMaintenance": "2025-07-12T15:00:30.892111"
    },
    {
      "id": 46,
      "chiefdom": "Chief Inyambo Yeta",
      "facilityName": "Mpanshya Facility 46",
      "facilityType": "Water Source",
      "village": "Kasempa",
      "capacity": 1458,
      "currentUsage": 1143,
      "status": "Needs Repair",
      "latitude": -15.351,
      "longitude": 23.2336,
      "lastMaintenance": "2025-11-29T15:00:30.892118"
    },
    {
      "id": 47,
      "chiefdom": "Chief Inyambo Yeta",
      "facilityName": "Mbala Facility 47",
      "facilityType": "Hospital",
      "village": "Mwinilunga",
      "capacity": 1022,
      "currentUsage": 259,
      "status": "Needs Repair",
      "latitude": -15.3116,
      "longitude": 23.1407,
      "lastMaintenance": "2025-02-02T15:00:30.892125"
    },
    {
      "id": 48,
      "chiefdom": "Chief Inyambo Yeta",
      "facilityName": "Pemba Facility 48",
      "facilityType": "Clinic",
      "village": "Mansa",
      "capacity": 55,
      "currentUsage": 992,
      "status": "Under Construction",
      "latitude": -15.3109,
      "longitude": 23.1363,
      "lastMaintenance": "2025-02-14T15:00:30.892133"
    },
    {
      "id": 49,
      "chiefdom": "Chief Inyambo Yeta",
      "facilityName": "Kasama Facility 49",
      "facilityType": "Water Source",
      "village": "Lunsemfwa",
      "capacity": 130,
      "currentUsage": 805,
      "status": "Under Construction",
      "latitude": -15.2805,
      "longitude": 23.0936,
      "lastMaintenance": "2025-03-01T15:00:30.892140"
    },
    {
      "id": 50,
      "chiefdom": "Chief Inyambo Yeta",
      "facilityName": "Lundazi Facility 50",
      "facilityType": "Water Source",
      "village": "Mpika",
      "capacity": 514,
      "currentUsage": 793,
      "status": "Under Construction",
      "latitude": -15.3025,
      "longitude": 23.1465,
      "lastMaintenance": "2025-06-29T15:00:30.892147"
    }
  ]
}