{
  "roads": [
    {
      "id": 1,
      "chiefdom": "Chieftainess Nkomesha",
      "roadName": "Meanwood - Kabompo Road",
      "roadType": "Paved",
      "lengthKm": 22.5,
      "condition": "Good",
      "trafficVolume": "Medium",
      "lastMaintenance": "2025-05-15T15:00:30.557561",
      "connectedVillages": [
        "Sinda",
        "Ndola",
        "Mkushi",
        "Mumbwa",
        "Shimabala"
      ],
      "latitude": -15.3452,
      "longitude": 28.4465
    },
    {
      "id": 2,
      "chiefdom": "Chieftainess Nkomesha",
      "roadName": "Chalimbana - Luwingu Road",
      "roadType": "Tarred",
      "lengthKm": 26.1,
      "condition": "Fair",
      "trafficVolume": "Medium",
      "lastMaintenance": "2024-04-14T15:00:30.557590",
      "connectedVillages": [
        "Lukulu",
        "Nakatindi",
        "Kaunga"
      ],
      "latitude": -15.2729,
      "longitude": 28.4459
    },
    {
      "id": 3,
      "chiefdom": "Chieftainess Nkomesha",
      "roadName": "Kawambwa - Kawambwa Road",
      "roadType": "Gravel",
      "lengthKm": 9.4,
      "condition": "Fair",
      "trafficVolume": "High",
      "lastMaintenance": "2024-03-01T15:00:30.557604",
      "connectedVillages": [
        "Mpongwe",
        "Mbabala",
        "Kasempa"
      ],
      "latitude": -15.2928,
      "longitude": 28.547
    },
    {
      "id": 4,
      "chiefdom": "Chieftainess Nkomesha",
      "roadName": "Chongwe Central - Kabwe Road",
      "roadType": "Tarred",
      "lengthKm": 38.1,
      "condition": "Fair",
      "trafficVolume": "Medium",
      "lastMaintenance": "2024-12-05T15:00:30.557616",
      "connectedVillages": [
        "Nchelenge",
        "Chingola",
        "Zambezi",
        "Siavonga"
      ],
      "latitude": -15.2525,
      "longitude": 28.5939
    },
    {
      "id": 5,
      "chiefdom": "Chieftainess Nkomesha",
      "roadName": "Mongu - Kasempa Road",
      "roadType": "Earth",
      "lengthKm": 43.9,
      "condition": "Good",
      "trafficVolume": "Medium",
      "lastMaintenance": "2024-10-28T15:00:30.557625",
      "connectedVillages": [
        "Shangombo",
        "Nchelenge",
        "Mazabuka",
        "Nakatindi"
      ],
      "latitude": -15.449,
      "longitude": 28.4288
    },
    {
      "id": 6,
      "chiefdom": "Chieftainess Nkomesha",
      "roadName": "Chipapa - Mpanshya Road",
      "roadType": "Tarred",
      "lengthKm": 27.6,
      "condition": "Poor",
      "trafficVolume": "Medium",
      "lastMaintenance": "2025-06-03T15:00:30.557635",
      "connectedVillages": [
        "Nakonde",
        "Kabwe"
      ],
      "latitude": -15.2767,
      "longitude": 28.5434
    },
    {
      "id": 7,
      "chiefdom": "Chieftainess Nkomesha",
      "roadName": "Kaunga - Solwezi Road",
      "roadType": "Gravel",
      "lengthKm": 16.2,
      "condition": "Poor",
      "trafficVolume": "Medium",
      "lastMaintenance": "2025-05-05T15:00:30.557645",
      "connectedVillages": [
        "Shimabala",
        "Kabompo",
        "Chalala",
        "Mongu"
      ],
      "latitude": -15.4093,
      "longitude": 28.4374
    },
    {
      "id": 8,
      "chiefdom": "Chieftainess Nkomesha",
      "roadName": "Kabwe - Katoba Road",
      "roadType": "Paved",
      "lengthKm": 38.6,
      "condition": "Critical",
      "trafficVolume": "Low",
      "lastMaintenance": "2025-01-17T15:00:30.557655",
      "connectedVillages": [
        "Kaunga",
        "Chadiza"
      ],
      "latitude": -15.3487,
      "longitude": 28.5351
    },
    {
      "id": 9,
      "chiefdom": "Chieftainess Nkomesha",
      "roadName": "Kanakantapa - Nyimba Road",
      "roadType": "Earth",
      "lengthKm": 11.7,
      "condition": "Fair",
      "trafficVolume": "High",
      "lastMaintenance": "2025-08-27T15:00:30.557664",
      "connectedVillages": [
        "Livingstone",
        "Mufulira",
        "Kasempa"
      ],
      "latitude": -15.2757,
      "longitude": 28.4038
    },
    {
      "id": 10,
      "chiefdom": "Chieftainess Nkomesha",
      "roadName": "Chinsali - Kalabo Road",
      "roadType": "Tarred",
      "lengthKm": 29.6,
      "condition": "Fair",
      "trafficVolume": "Medium",
      "lastMaintenance": "2024-08-14T15:00:30.557672",
      "connectedVillages": [
        "Kalulushi",
        "Mutumbi"
      ],
      "latitude": -15.3882,
      "longitude": 28.5956
    },
    {
      "id": 11,
      "chiefdom": "Chieftainess Nkomesha",
      "roadName": "Gwembe - Monze Road",
      "roadType": "Tarred",
      "lengthKm": 18.7,
      "condition": "Fair",
      "trafficVolume": "Low",
      "lastMaintenance": "2024-01-23T15:00:30.557681",
      "connectedVillages": [
        "Chipata",
        "Nchelenge",
        "Kasempa"
      ],
      "latitude": -15.3738,
      "longitude": 28.5911
    },
    {
      "id": 12,
      "chiefdom": "Chieftainess Nkomesha",
      "roadName": "Sesheke - Lukulu Road",
      "roadType": "Tarred",
      "lengthKm": 40.6,
      "condition": "Good",
      "trafficVolume": "Low",
      "lastMaintenance": "2024-12-03T15:00:30.557690",
      "connectedVillages": [
        "Lukulu",
        "Luanshya",
        "Mansa",
        "Mwembezhi"
      ],
      "latitude": -15.3804,
      "longitude": 28.5815
    },
    {
      "id": 13,
      "chiefdom": "Chieftainess Nkomesha",
      "roadName": "Sikanze - Kapiri Road",
      "roadType": "Paved",
      "lengthKm": 34.7,
      "condition": "Critical",
      "trafficVolume": "Low",
      "lastMaintenance": "2025-08-28T15:00:30.557699",
      "connectedVillages": [
        "Chadiza",
        "Mansa"
      ],
      "latitude": -15.4486,
      "longitude": 28.5299
    },
    {
      "id": 14,
      "chiefdom": "Chieftainess Nkomesha",
      "roadName": "Kawambwa - Mufulira Road",
      "roadType": "Tarred",
      "lengthKm": 49.0,
      "condition": "Poor",
      "trafficVolume": "Medium",
      "lastMaintenance": "2024-02-02T15:00:30.557708",
      "connectedVillages": [
        "Solwezi",
        "Mufulira",
        "Lundazi"
      ],
      "latitude": -15.2724,
      "longitude": 28.4829
    },
    {
      "id": 15,
      "chiefdom": "Chieftainess Nkomesha",
      "roadName": "Solwezi - Chama Road",
      "roadType": "Paved",
      "lengthKm": 28.0,
      "condition": "Critical",
      "trafficVolume": "Low",
      "lastMaintenance": "2024-10-24T15:00:30.557717",
      "connectedVillages": [
        "Serenje",
        "Luangwa",
        "Livingstone",
        "Kaunga"
      ],
      "latitude": -15.3108,
      "longitude": 28.5616
    },
    {
      "id": 16,
      "chiefdom": "Chieftainess Nkomesha",
      "roadName": "Mpongwe - Kabwe Road",
      "roadType": "Tarred",
      "lengthKm": 18.3,
      "condition": "Good",
      "trafficVolume": "High",
      "lastMaintenance": "2025-03-22T15:00:30.557726",
      "connectedVillages": [
        "Shangombo",
        "Kasempa"
      ],
      "latitude": -15.2856,
      "longitude": 28.4018
    },
    {
      "id": 17,
      "chiefdom": "Chieftainess Nkomesha",
      "roadName": "Mpika - Isoka Road",
      "roadType": "Tarred",
      "lengthKm": 45.5,
      "condition": "Fair",
      "trafficVolume": "High",
      "lastMaintenance": "2026-01-18T15:00:30.557736",
      "connectedVillages": [
        "Mufulira",
        "Chibombo",
        "Nakatindi"
      ],
      "latitude": -15.4092,
      "longitude": 28.4476
    },
    {
      "id": 18,
      "chiefdom": "Chieftainess Nkomesha",
      "roadName": "Ngwerere - Mbala Road",
      "roadType": "Earth",
      "lengthKm": 12.9,
      "condition": "Critical",
      "trafficVolume": "High",
      "lastMaintenance": "2024-11-28T15:00:30.557744",
      "connectedVillages": [
        "Kalingalinga",
        "Mporokoso",
        "Leopards Hill",
        "Chalala"
      ],
      "latitude": -15.4263,
      "longitude": 28.5941
    },
    {
      "id": 19,
      "chiefdom": "Chieftainess Nkomesha",
      "roadName": "Kabompo - Lilayi Road",
      "roadType": "Gravel",
      "lengthKm": 40.2,
      "condition": "Poor",
      "trafficVolume": "Medium",
      "lastMaintenance": "2024-03-29T15:00:30.557753",
      "connectedVillages": [
        "Mufumbwe",
        "Choma",
        "Kasama",
        "Mpongwe",
        "Kasempa"
      ],
      "latitude": -15.3961,
      "longitude": 28.5746
    },
    {
      "id": 20,
      "chiefdom": "Chieftainess Nkomesha",
      "roadName": "Meanwood - Kasempa Road",
      "roadType": "Earth",
      "lengthKm": 40.9,
      "condition": "Critical",
      "trafficVolume": "Low",
      "lastMaintenance": "2024-04-13T15:00:30.557763",
      "connectedVillages": [
        "Chalimbana",
        "Kaunga"
      ],
      "latitude": -15.3816,
      "longitude": 28.4614
    },
    {
      "id": 21,
      "chiefdom": "Chieftainess Nkomesha",
      "roadName": "Samfya - Katete Road",
      "roadType": "Earth",
      "lengthKm": 48.6,
      "condition": "Fair",
      "trafficVolume": "Low",
      "lastMaintenance": "2024-02-18T15:00:30.557771",
      "connectedVillages": [
        "Chainda",
        "Kabwe",
        "Serenje"
      ],
      "latitude": -15.3919,
      "longitude": 28.5331
    },
    {
      "id": 22,
      "chiefdom": "Chieftainess Nkomesha",
      "roadName": "Nakonde - Serenje Road",
      "roadType": "Earth",
      "lengthKm": 31.8,
      "condition": "Critical",
      "trafficVolume": "High",
      "lastMaintenance": "2024-11-11T15:00:30.557780",
      "connectedVillages": [
        "Gwembe",
        "Chinsali",
        "Mwinilunga",
        "Katoba"
      ],
      "latitude": -15.3915,
      "longitude": 28.4293
    },
    {
      "id": 23,
      "chiefdom": "Chieftainess Nkomesha",
      "roadName": "Chama - Mpika Road",
      "roadType": "Tarred",
      "lengthKm": 34.0,
      "condition": "Good",
      "trafficVolume": "Low",
      "lastMaintenance": "2025-04-04T15:00:30.557789",
      "connectedVillages": [
        "Chongwe Central",
        "Mambwe",
        "Vubwi"
      ],
      "latitude": -15.3962,
      "longitude": 28.4158
    },
    {
      "id": 24,
      "chiefdom": "Chieftainess Nkomesha",
      "roadName": "Mazabuka - Kalingalinga Road",
      "roadType": "Earth",
      "lengthKm": 47.3,
      "condition": "Fair",
      "trafficVolume": "High",
      "lastMaintenance": "2024-05-28T15:00:30.557797",
      "connectedVillages": [
        "Mufumbwe",
        "Chadiza",
        "Katete",
        "Munyumba",
        "Chilanga"
      ],
      "latitude": -15.3372,
      "longitude": 28.5843
    },
    {
      "id": 25,
      "chiefdom": "Chieftainess Nkomesha",
      "roadName": "Mumbwa - Mumbwa Road",
      "roadType": "Paved",
      "lengthKm": 10.8,
      "condition": "Good",
      "trafficVolume": "Medium",
      "lastMaintenance": "2024-12-29T15:00:30.557806",
      "connectedVillages": [
        "Kapiri",
        "Mutumbi",
        "Chisamba"
      ],
      "latitude": -15.3975,
      "longitude": 28.5609
    },
    {
      "id": 26,
      "chiefdom": "Chieftainess Nkomesha",
      "roadName": "Nakatindi - Chilanga Road",
      "roadType": "Earth",
      "lengthKm": 24.4,
      "condition": "Poor",
      "trafficVolume": "Medium",
      "lastMaintenance": "2024-05-17T15:00:30.557815",
      "connectedVillages": [
        "Chadiza",
        "Chipata",
        "Chalala",
        "Mongu",
        "Ngwerere"
      ],
      "latitude": -15.2848,
      "longitude": 28.574
    },
    {
      "id": 27,
      "chiefdom": "Chieftainess Nkomesha",
      "roadName": "Isoka - Kalingalinga Road",
      "roadType": "Earth",
      "lengthKm": 44.5,
      "condition": "Poor",
      "trafficVolume": "Medium",
      "lastMaintenance": "2025-06-26T15:00:30.557826",
      "connectedVillages": [
        "Chalimbana",
        "Chipapa",
        "Gwembe",
        "Chongwe Central"
      ],
      "latitude": -15.4168,
      "longitude": 28.4935
    },
    {
      "id": 28,
      "chiefdom": "Chieftainess Nkomesha",
      "roadName": "Chipapa - Mwembezhi Road",
      "roadType": "Earth",
      "lengthKm": 45.1,
      "condition": "Poor",
      "trafficVolume": "Medium",
      "lastMaintenance": "2024-01-29T15:00:30.557845",
      "connectedVillages": [
        "Makeni",
        "Petauke"
      ],
      "latitude": -15.3076,
      "longitude": 28.473
    },
    {
      "id": 29,
      "chiefdom": "Chieftainess Nkomesha",
      "roadName": "Isoka - Kalingalinga Road",
      "roadType": "Earth",
      "lengthKm": 40.9,
      "condition": "Critical",
      "trafficVolume": "Low",
      "lastMaintenance": "2024-01-29T15:00:30.557853",
      "connectedVillages": [
        "Nakonde",
        "Chipapa",
        "Siavonga",
        "Kasempa"
      ],
      "latitude": -15.3618,
      "longitude": 28.5975
    },
    {
      "id": 30,
      "chiefdom": "Chieftainess Nkomesha",
      "roadName": "Makeni - Kawambwa Road",
      "roadType": "Earth",
      "lengthKm": 30.0,
      "condition": "Poor",
      "trafficVolume": "Medium",
      "lastMaintenance": "2025-07-11T15:00:30.557862",
      "connectedVillages": [
        "Chalimbana",
        "Lukulu"
      ],
      "latitude": -15.3661,
      "longitude": 28.5857
    },
    {
      "id": 31,
      "chiefdom": "Chieftainess Nkomesha",
      "roadName": "Kasempa - Kabwe Road",
      "roadType": "Paved",
      "lengthKm": 9.2,
      "condition": "Critical",
      "trafficVolume": "High",
      "lastMaintenance": "2025-04-13T15:00:30.557871",
      "connectedVillages": [
        "Chibombo",
        "Mambwe"
      ],
      "latitude": -15.4381,
      "longitude": 28.5585
    },
    {
      "id": 32,
      "chiefdom": "Chieftainess Nkomesha",
      "roadName": "Ndola - Katoba Road",
      "roadType": "Gravel",
      "lengthKm": 47.3,
      "condition": "Critical",
      "trafficVolume": "High",
      "lastMaintenance": "2024-01-29T15:00:30.557881",
      "connectedVillages": [
        "Zambezi",
        "Katete"
      ],
      "latitude": -15.2836,
      "longitude": 28.4693
    },
    {
      "id": 33,
      "chiefdom": "Chieftainess Nkomesha",
      "roadName": "Kaunga - Chalimbana Road",
      "roadType": "Paved",
      "lengthKm": 11.2,
      "condition": "Critical",
      "trafficVolume": "High",
      "lastMaintenance": "2025-04-04T15:00:30.557889",
      "connectedVillages": [
        "Ndola",
        "Chisamba"
      ],
      "latitude": -15.3528,
      "longitude": 28.4495
    },
    {
      "id": 34,
      "chiefdom": "Chieftainess Nkomesha",
      "roadName": "Nyimba - Mazabuka Road",
      "roadType": "Tarred",
      "lengthKm": 30.5,
      "condition": "Critical",
      "trafficVolume": "High",
      "lastMaintenance": "2024-07-21T15:00:30.557898",
      "connectedVillages": [
        "Mpika",
        "Kasempa",
        "Isoka",
        "Kaunga"
      ],
      "latitude": -15.4318,
      "longitude": 28.5894
    },
    {
      "id": 35,
      "chiefdom": "Chieftainess Nkomesha",
      "roadName": "Chingola - Chilanga Road",
      "roadType": "Tarred",
      "lengthKm": 32.5,
      "condition": "Good",
      "trafficVolume": "Medium",
      "lastMaintenance": "2024-01-23T15:00:30.557907",
      "connectedVillages": [
        "Mufumbwe",
        "Kasama",
        "Katoba"
      ],
      "latitude": -15.3435,
      "longitude": 28.5578
    },
    {
      "id": 36,
      "chiefdom": "Chieftainess Nkomesha",
      "roadName": "Chililabombwe - Senanga Road",
      "roadType": "Tarred",
      "lengthKm": 29.1,
      "condition": "Fair",
      "trafficVolume": "Low",
      "lastMaintenance": "2024-02-12T15:00:30.557924",
      "connectedVillages": [
        "Katete",
        "Mporokoso",
        "Pemba",
        "Kalomo"
      ],
      "latitude": -15.3549,
      "longitude": 28.5902
    },
    {
      "id": 37,
      "chiefdom": "Chieftainess Nkomesha",
      "roadName": "Makeni - Siavonga Road",
      "roadType": "Earth",
      "lengthKm": 27.7,
      "condition": "Critical",
      "trafficVolume": "High",
      "lastMaintenance": "2025-06-12T15:00:30.557949",
      "connectedVillages": [
        "Kasempa",
        "Isoka",
        "Chibombo",
        "Kalabo"
      ],
      "latitude": -15.3622,
      "longitude": 28.4886
    },
    {
      "id": 38,
      "chiefdom": "Chieftainess Nkomesha",
      "roadName": "Pemba - Kalingalinga Road",
      "roadType": "Earth",
      "lengthKm": 15.8,
      "condition": "Critical",
      "trafficVolume": "Low",
      "lastMaintenance": "2025-05-15T15:00:30.557958",
      "connectedVillages": [
        "Chalimbana",
        "Makeni",
        "Chilanga",
        "Nakatindi"
      ],
      "latitude": -15.2599,
      "longitude": 28.435
    },
    {
      "id": 39,
      "chiefdom": "Chieftainess Nkomesha",
      "roadName": "Serenje - Sikanze Road",
      "roadType": "Paved",
      "lengthKm": 5.3,
      "condition": "Good",
      "trafficVolume": "High",
      "lastMaintenance": "2024-03-17T15:00:30.557969",
      "connectedVillages": [
        "Chainda",
        "Katete",
        "Kaunga"
      ],
      "latitude": -15.3418,
      "longitude": 28.4357
    },
    {
      "id": 40,
      "chiefdom": "Chieftainess Nkomesha",
      "roadName": "Serenje - Kanakantapa Road",
      "roadType": "Paved",
      "lengthKm": 5.7,
      "condition": "Critical",
      "trafficVolume": "Medium",
      "lastMaintenance": "2025-11-15T15:00:30.557979",
      "connectedVillages": [
        "Kawambwa",
        "Kapiri",
        "Nakonde",
        "Mutumbi"
      ],
      "latitude": -15.2995,
      "longitude": 28.4917
    },
    {
      "id": 41,
      "chiefdom": "Chieftainess Nkomesha",
      "roadName": "Ngwerere - Lundazi Road",
      "roadType": "Earth",
      "lengthKm": 36.4,
      "condition": "Good",
      "trafficVolume": "Medium",
      "lastMaintenance": "2024-09-30T15:00:30.557989",
      "connectedVillages": [
        "Chibombo",
        "Kasempa",
        "Shangombo",
        "Mutumbi",
        "Luwingu"
      ],
      "latitude": -15.4349,
      "longitude": 28.5191
    },
    {
      "id": 42,
      "chiefdom": "Chieftainess Nkomesha",
      "roadName": "Mufulira - Mbabala Road",
      "roadType": "Paved",
      "lengthKm": 24.2,
      "condition": "Poor",
      "trafficVolume": "Medium",
      "lastMaintenance": "2025-09-17T15:00:30.557998",
      "connectedVillages": [
        "Kalingalinga",
        "Mpika",
        "Kaputa"
      ],
      "latitude": -15.345,
      "longitude": 28.4198
    },
    {
      "id": 43,
      "chiefdom": "Chieftainess Nkomesha",
      "roadName": "Kitwe - Chipapa Road",
      "roadType": "Gravel",
      "lengthKm": 23.5,
      "condition": "Critical",
      "trafficVolume": "High",
      "lastMaintenance": "2024-07-24T15:00:30.558007",
      "connectedVillages": [
        "Chalimbana",
        "Lukulu",
        "Shangombo"
      ],
      "latitude": -15.3299,
      "longitude": 28.4471
    },
    {
      "id": 44,
      "chiefdom": "Chieftainess Nkomesha",
      "roadName": "Mufumbwe - Chinsali Road",
      "roadType": "Gravel",
      "lengthKm": 46.1,
      "condition": "Fair",
      "trafficVolume": "Medium",
      "lastMaintenance": "2024-01-30T15:00:30.558015",
      "connectedVillages": [
        "Livingstone",
        "Ndola"
      ],
      "latitude": -15.4343,
      "longitude": 28.5283
    },
    {
      "id": 45,
      "chiefdom": "Chieftainess Nkomesha",
      "roadName": "Meanwood - Mpongwe Road",
      "roadType": "Earth",
      "lengthKm": 14.0,
      "condition": "Fair",
      "trafficVolume": "Medium",
      "lastMaintenance": "2024-04-20T15:00:30.558024",
      "connectedVillages": [
        "Mumbwa",
        "Chainda",
        "Kalingalinga",
        "Kalomo"
      ],
      "latitude": -15.4443,
      "longitude": 28.5028
    },
    {
      "id": 46,
      "chiefdom": "Chieftainess Nkomesha",
      "roadName": "Palabana - Monze Road",
      "roadType": "Paved",
      "lengthKm": 17.2,
      "condition": "Good",
      "trafficVolume": "Medium",
      "lastMaintenance": "2024-11-17T15:00:30.558033",
      "connectedVillages": [
        "Senanga",
        "Mbala",
        "Chibombo",
        "Chipata"
      ],
      "latitude": -15.4248,
      "longitude": 28.4922
    },
    {
      "id": 47,
      "chiefdom": "Chieftainess Nkomesha",
      "roadName": "Chisamba - Senanga Road",
      "roadType": "Earth",
      "lengthKm": 21.7,
      "condition": "Fair",
      "trafficVolume": "High",
      "lastMaintenance": "2024-11-04T15:00:30.558044",
      "connectedVillages": [
        "Nyimba",
        "Mpika",
        "Chipata"
      ],
      "latitude": -15.4162,
      "longitude": 28.423
    },
    {
      "id": 48,
      "chiefdom": "Chieftainess Nkomesha",
      "roadName": "Kalabo - Kabompo Road",
      "roadType": "Gravel",
      "lengthKm": 33.9,
      "condition": "Good",
      "trafficVolume": "Low",
      "lastMaintenance": "2025-08-08T15:00:30.558052",
      "connectedVillages": [
        "Lukulu",
        "Chingola",
        "Kalulushi"
      ],
      "latitude": -15.2998,
      "longitude": 28.5175
    },
    {
      "id": 49,
      "chiefdom": "Chieftainess Nkomesha",
      "roadName": "Mbabala - Kalomo Road",
      "roadType": "Gravel",
      "lengthKm": 14.4,
      "condition": "Fair",
      "trafficVolume": "Medium",
      "lastMaintenance": "2024-10-01T15:00:30.558061",
      "connectedVillages": [
        "Lukulu",
        "Kaunga",
        "Luanshya",
        "Shangombo"
      ],
      "latitude": -15.3865,
      "longitude": 28.4452
    },
    {
      "id": 50,
      "chiefdom": "Chieftainess Nkomesha",
      "roadName": "Senanga - Kafue Riverside Road",
      "roadType": "Paved",
      "lengthKm": 40.3,
      "condition": "Good",
      "trafficVolume": "Medium",
      "lastMaintenance": "2025-06-09T15:00:30.558069",
      "connectedVillages": [
        "Chainda",
        "Kapiri",
        "Katete",
        "Mambwe",
        "Siavonga"
      ],
      "latitude": -15.3417,
      "longitude": 28.4021
    }
  ],
  "communicationTowers": [
    {
      "id": 1,
      "chiefdom": "Chieftainess Nkomesha",
      "towerName": "Kapiri Tower 1",
      "operator": "Airtel",
      "towerType": "3G",
      "coverageRadius": 12.9,
      "populationCovered": 3431,
      "status": "Operational",
      "latitude": -15.3215,
      "longitude": 28.5453,
      "installationDate": "2022-05-03T15:00:30.558082"
    },
    {
      "id": 2,
      "chiefdom": "Chieftainess Nkomesha",
      "towerName": "Ndola Tower 2",
      "operator": "Zamtel",
      "towerType": "4G",
      "coverageRadius": 5.5,
      "populationCovered": 11654,
      "status": "Planned",
      "latitude": -15.3641,
      "longitude": 28.5029,
      "installationDate": "2021-11-23T15:00:30.558091"
    },
    {
      "id": 3,
      "chiefdom": "Chieftainess Nkomesha",
      "towerName": "Katete Tower 3",
      "operator": "MTN",
      "towerType": "3G",
      "coverageRadius": 10.7,
      "populationCovered": 4397,
      "status": "Maintenance",
      "latitude": -15.4056,
      "longitude": 28.5413,
      "installationDate": "2021-08-27T15:00:30.558099"
    },
    {
      "id": 4,
      "chiefdom": "Chieftainess Nkomesha",
      "towerName": "Kalomo Tower 4",
      "operator": "MTN",
      "towerType": "3G",
      "coverageRadius": 17.8,
      "populationCovered": 19986,
      "status": "Operational",
      "latitude": -15.3398,
      "longitude": 28.4542,
      "installationDate": "2024-05-08T15:00:30.558106"
    },
    {
      "id": 5,
      "chiefdom": "Chieftainess Nkomesha",
      "towerName": "Kasama Tower 5",
      "operator": "Airtel",
      "towerType": "4G",
      "coverageRadius": 9.6,
      "populationCovered": 15025,
      "status": "Planned",
      "latitude": -15.2982,
      "longitude": 28.4426,
      "installationDate": "2021-04-18T15:00:30.558113"
    },
    {
      "id": 6,
      "chiefdom": "Chieftainess Nkomesha",
      "towerName": "Kaunga Tower 6",
      "operator": "Airtel",
      "towerType": "3G",
      "coverageRadius": 10.6,
      "populationCovered": 13943,
      "status": "Operational",
      "latitude": -15.2528,
      "longitude": 28.5453,
      "installationDate": "2021-12-05T15:00:30.558122"
    },
    {
      "id": 7,
      "chiefdom": "Chieftainess Nkomesha",
      "towerName": "Nchelenge Tower 7",
      "operator": "Zamtel",
      "towerType": "2G",
      "coverageRadius": 10.8,
      "populationCovered": 15658,
      "status": "Planned",
      "latitude": -15.3374,
      "longitude": 28.5851,
      "installationDate": "2021-11-10T15:00:30.558130"
    },
    {
      "id": 8,
      "chiefdom": "Chieftainess Nkomesha",
      "towerName": "Kaoma Tower 8",
      "operator": "MTN",
      "towerType": "3G",
      "coverageRadius": 11.9,
      "populationCovered": 8107,
      "status": "Maintenance",
      "latitude": -15.401,
      "longitude": 28.4769,
      "installationDate": "2025-03-27T15:00:30.558137"
    },
    {
      "id": 9,
      "chiefdom": "Chieftainess Nkomesha",
      "towerName": "Kabwe Tower 9",
      "operator": "Airtel",
      "towerType": "4G",
      "coverageRadius": 13.1,
      "populationCovered": 10744,
      "status": "Operational",
      "latitude": -15.3165,
      "longitude": 28.406,
      "installationDate": "2022-05-13T15:00:30.558144"
    },
    {
      "id": 10,
      "chiefdom": "Chieftainess Nkomesha",
      "towerName": "Mbala Tower 10",
      "operator": "Zamtel",
      "towerType": "3G",
      "coverageRadius": 17.2,
      "populationCovered": 17002,
      "status": "Planned",
      "latitude": -15.4208,
      "longitude": 28.4517,
      "installationDate": "2024-07-19T15:00:30.558151"
    },
    {
      "id": 11,
      "chiefdom": "Chieftainess Nkomesha",
      "towerName": "Mazabuka Tower 11",
      "operator": "Zamtel",
      "towerType": "3G",
      "coverageRadius": 10.7,
      "populationCovered": 5830,
      "status": "Maintenance",
      "latitude": -15.3816,
      "longitude": 28.4166,
      "installationDate": "2023-02-20T15:00:30.558181"
    },
    {
      "id": 12,
      "chiefdom": "Chieftainess Nkomesha",
      "towerName": "Petauke Tower 12",
      "operator": "Airtel",
      "towerType": "3G",
      "coverageRadius": 16.9,
      "populationCovered": 20544,
      "status": "Planned",
      "latitude": -15.4488,
      "longitude": 28.5693,
      "installationDate": "2021-07-09T15:00:30.558189"
    },
    {
      "id": 13,
      "chiefdom": "Chieftainess Nkomesha",
      "towerName": "Choma Tower 13",
      "operator": "Airtel",
      "towerType": "4G",
      "coverageRadius": 5.0,
      "populationCovered": 16737,
      "status": "Planned",
      "latitude": -15.2642,
      "longitude": 28.4238,
      "installationDate": "2025-10-01T15:00:30.558196"
    },
    {
      "id": 14,
      "chiefdom": "Chieftainess Nkomesha",
      "towerName": "Mbala Tower 14",
      "operator": "Airtel",
      "towerType": "3G",
      "coverageRadius": 7.4,
      "populationCovered": 9458,
      "status": "Operational",
      "latitude": -15.3896,
      "longitude": 28.5513,
      "installationDate": "2024-05-14T15:00:30.558203"
    },
    {
      "id": 15,
      "chiefdom": "Chieftainess Nkomesha",
      "towerName": "Munyumba Tower 15",
      "operator": "Zamtel",
      "towerType": "4G",
      "coverageRadius": 14.4,
      "populationCovered": 23432,
      "status": "Planned",
      "latitude": -15.2674,
      "longitude": 28.4425,
      "installationDate": "2022-07-17T15:00:30.558211"
    },
    {
      "id": 16,
      "chiefdom": "Chieftainess Nkomesha",
      "towerName": "Kaputa Tower 16",
      "operator": "Zamtel",
      "towerType": "2G",
      "coverageRadius": 17.0,
      "populationCovered": 21752,
      "status": "Maintenance",
      "latitude": -15.4131,
      "longitude": 28.5527,
      "installationDate": "2024-01-19T15:00:30.558222"
    },
    {
      "id": 17,
      "chiefdom": "Chieftainess Nkomesha",
      "towerName": "Kabompo Tower 17",
      "operator": "MTN",
      "towerType": "3G",
      "coverageRadius": 6.3,
      "populationCovered": 23542,
      "status": "Maintenance",
      "latitude": -15.3299,
      "longitude": 28.5541,
      "installationDate": "2023-10-24T15:00:30.558235"
    },
    {
      "id": 18,
      "chiefdom": "Chieftainess Nkomesha",
      "towerName": "Mutumbi Tower 18",
      "operator": "Airtel",
      "towerType": "4G",
      "coverageRadius": 8.2,
      "populationCovered": 13628,
      "status": "Maintenance",
      "latitude": -15.3728,
      "longitude": 28.4589,
      "installationDate": "2022-08-29T15:00:30.558246"
    },
    {
      "id": 19,
      "chiefdom": "Chieftainess Nkomesha",
      "towerName": "Luanshya Tower 19",
      "operator": "Zamtel",
      "towerType": "2G",
      "coverageRadius": 12.2,
      "populationCovered": 21721,
      "status": "Maintenance",
      "latitude": -15.2683,
      "longitude": 28.4809,
      "installationDate": "2024-06-01T15:00:30.558257"
    },
    {
      "id": 20,
      "chiefdom": "Chieftainess Nkomesha",
      "towerName": "Senanga Tower 20",
      "operator": "Zamtel",
      "towerType": "4G",
      "coverageRadius": 17.9,
      "populationCovered": 21346,
      "status": "Planned",
      "latitude": -15.2819,
      "longitude": 28.5847,
      "installationDate": "2022-03-17T15:00:30.558272"
    },
    {
      "id": 21,
      "chiefdom": "Chieftainess Nkomesha",
      "towerName": "Sinda Tower 21",
      "operator": "Zamtel",
      "towerType": "3G",
      "coverageRadius": 11.0,
      "populationCovered": 24173,
      "status": "Operational",
      "latitude": -15.4017,
      "longitude": 28.5326,
      "installationDate": "2021-02-16T15:00:30.558279"
    },
    {
      "id": 22,
      "chiefdom": "Chieftainess Nkomesha",
      "towerName": "Kaputa Tower 22",
      "operator": "Zamtel",
      "towerType": "3G",
      "coverageRadius": 18.6,
      "populationCovered": 23587,
      "status": "Operational",
      "latitude": -15.3457,
      "longitude": 28.5073,
      "installationDate": "2021-03-30T15:00:30.558288"
    },
    {
      "id": 23,
      "chiefdom": "Chieftainess Nkomesha",
      "towerName": "Kabompo Tower 23",
      "operator": "MTN",
      "towerType": "3G",
      "coverageRadius": 17.1,
      "populationCovered": 3140,
      "status": "Planned",
      "latitude": -15.4081,
      "longitude": 28.4841,
      "installationDate": "2023-06-25T15:00:30.558295"
    },
    {
      "id": 24,
      "chiefdom": "Chieftainess Nkomesha",
      "towerName": "Nchelenge Tower 24",
      "operator": "Zamtel",
      "towerType": "2G",
      "coverageRadius": 14.4,
      "populationCovered": 11918,
      "status": "Planned",
      "latitude": -15.3513,
      "longitude": 28.562,
      "installationDate": "2025-05-28T15:00:30.558302"
    },
    {
      "id": 25,
      "chiefdom": "Chieftainess Nkomesha",
      "towerName": "Kabwe Tower 25",
      "operator": "MTN",
      "towerType": "3G",
      "coverageRadius": 16.0,
      "populationCovered": 18811,
      "status": "Maintenance",
      "latitude": -15.3957,
      "longitude": 28.4557,
      "installationDate": "2024-05-01T15:00:30.558309"
    },
    {
      "id": 26,
      "chiefdom": "Chieftainess Nkomesha",
      "towerName": "Ndola Tower 26",
      "operator": "Airtel",
      "towerType": "4G",
      "coverageRadius": 16.2,
      "populationCovered": 16881,
      "status": "Maintenance",
      "latitude": -15.2839,
      "longitude": 28.508,
      "installationDate": "2021-05-19T15:00:30.558316"
    },
    {
      "id": 27,
      "chiefdom": "Chieftainess Nkomesha",
      "towerName": "Katoba Tower 27",
      "operator": "Airtel",
      "towerType": "3G",
      "coverageRadius": 18.9,
      "populationCovered": 17343,
      "status": "Planned",
      "latitude": -15.3141,
      "longitude": 28.4545,
      "installationDate": "2023-03-25T15:00:30.558324"
    },
    {
      "id": 28,
      "chiefdom": "Chieftainess Nkomesha",
      "towerName": "Katoba Tower 28",
      "operator": "MTN",
      "towerType": "3G",
      "coverageRadius": 18.3,
      "populationCovered": 4903,
      "status": "Maintenance",
      "latitude": -15.2939,
      "longitude": 28.5341,
      "installationDate": "2021-06-10T15:00:30.558331"
    },
    {
      "id": 29,
      "chiefdom": "Chieftainess Nkomesha",
      "towerName": "Mbabala Tower 29",
      "operator": "MTN",
      "towerType": "4G",
      "coverageRadius": 17.7,
      "populationCovered": 11363,
      "status": "Operational",
      "latitude": -15.4284,
      "longitude": 28.5738,
      "installationDate": "2021-02-10T15:00:30.558338"
    },
    {
      "id": 30,
      "chiefdom": "Chieftainess Nkomesha",
      "towerName": "Kalabo Tower 30",
      "operator": "MTN",
      "towerType": "3G",
      "coverageRadius": 7.4,
      "populationCovered": 15782,
      "status": "Maintenance",
      "latitude": -15.2674,
      "longitude": 28.5088,
      "installationDate": "2023-10-20T15:00:30.558345"
    },
    {
      "id": 31,
      "chiefdom": "Chieftainess Nkomesha",
      "towerName": "Siavonga Tower 31",
      "operator": "Airtel",
      "towerType": "2G",
      "coverageRadius": 10.4,
      "populationCovered": 10923,
      "status": "Operational",
      "latitude": -15.2963,
      "longitude": 28.5443,
      "installationDate": "2023-07-08T15:00:30.558352"
    },
    {
      "id": 32,
      "chiefdom": "Chieftainess Nkomesha",
      "towerName": "Kasama Tower 32",
      "operator": "Airtel",
      "towerType": "3G",
      "coverageRadius": 19.5,
      "populationCovered": 15931,
      "status": "Planned",
      "latitude": -15.4365,
      "longitude": 28.4695,
      "installationDate": "2023-09-27T15:00:30.558359"
    },
    {
      "id": 33,
      "chiefdom": "Chieftainess Nkomesha",
      "towerName": "Sikanze Tower 33",
      "operator": "MTN",
      "towerType": "4G",
      "coverageRadius": 6.6,
      "populationCovered": 14808,
      "status": "Planned",
      "latitude": -15.3534,
      "longitude": 28.5639,
      "installationDate": "2023-06-23T15:00:30.558366"
    },
    {
      "id": 34,
      "chiefdom": "Chieftainess Nkomesha",
      "towerName": "Chipata Tower 34",
      "operator": "MTN",
      "towerType": "3G",
      "coverageRadius": 19.1,
      "populationCovered": 21407,
      "status": "Operational",
      "latitude": -15.3137,
      "longitude": 28.4514,
      "installationDate": "2021-09-09T15:00:30.558373"
    },
    {
      "id": 35,
      "chiefdom": "Chieftainess Nkomesha",
      "towerName": "Kanakantapa Tower 35",
      "operator": "MTN",
      "towerType": "3G",
      "coverageRadius": 11.6,
      "populationCovered": 14987,
      "status": "Operational",
      "latitude": -15.4427,
      "longitude": 28.5686,
      "installationDate": "2022-09-27T15:00:30.558380"
    },
    {
      "id": 36,
      "chiefdom": "Chieftainess Nkomesha",
      "towerName": "Ngwerere Tower 36",
      "operator": "Airtel",
      "towerType": "3G",
      "coverageRadius": 5.4,
      "populationCovered": 23280,
      "status": "Maintenance",
      "latitude": -15.2996,
      "longitude": 28.5925,
      "installationDate": "2021-06-18T15:00:30.558387"
    },
    {
      "id": 37,
      "chiefdom": "Chieftainess Nkomesha",
      "towerName": "Chadiza Tower 37",
      "operator": "MTN",
      "towerType": "4G",
      "coverageRadius": 5.2,
      "populationCovered": 24528,
      "status": "Operational",
      "latitude": -15.3193,
      "longitude": 28.5091,
      "installationDate": "2024-01-04T15:00:30.558397"
    },
    {
      "id": 38,
      "chiefdom": "Chieftainess Nkomesha",
      "towerName": "Chalala Tower 38",
      "operator": "Zamtel",
      "towerType": "4G",
      "coverageRadius": 14.2,
      "populationCovered": 19999,
      "status": "Maintenance",
      "latitude": -15.2907,
      "longitude": 28.5496,
      "installationDate": "2021-05-30T15:00:30.558404"
    },
    {
      "id": 39,
      "chiefdom": "Chieftainess Nkomesha",
      "towerName": "Lundazi Tower 39",
      "operator": "Airtel",
      "towerType": "3G",
      "coverageRadius": 12.7,
      "populationCovered": 19095,
      "status": "Operational",
      "latitude": -15.2654,
      "longitude": 28.5877,
      "installationDate": "2024-12-30T15:00:30.558412"
    },
    {
      "id": 40,
      "chiefdom": "Chieftainess Nkomesha",
      "towerName": "Serenje Tower 40",
      "operator": "Airtel",
      "towerType": "3G",
      "coverageRadius": 13.8,
      "populationCovered": 10947,
      "status": "Operational",
      "latitude": -15.417,
      "longitude": 28.5002,
      "installationDate": "2025-01-24T15:00:30.558434"
    },
    {
      "id": 41,
      "chiefdom": "Chieftainess Nkomesha",
      "towerName": "Lundazi Tower 41",
      "operator": "Zamtel",
      "towerType": "2G",
      "coverageRadius": 17.1,
      "populationCovered": 14254,
      "status": "Planned",
      "latitude": -15.3657,
      "longitude": 28.4049,
      "installationDate": "2021-05-22T15:00:30.558445"
    },
    {
      "id": 42,
      "chiefdom": "Chieftainess Nkomesha",
      "towerName": "Isoka Tower 42",
      "operator": "Zamtel",
      "towerType": "2G",
      "coverageRadius": 10.8,
      "populationCovered": 14678,
      "status": "Operational",
      "latitude": -15.3171,
      "longitude": 28.4422,
      "installationDate": "2022-05-10T15:00:30.558452"
    },
    {
      "id": 43,
      "chiefdom": "Chieftainess Nkomesha",
      "towerName": "Kabwe Tower 43",
      "operator": "Zamtel",
      "towerType": "4G",
      "coverageRadius": 19.5,
      "populationCovered": 22165,
      "status": "Planned",
      "latitude": -15.3521,
      "longitude": 28.5059,
      "installationDate": "2023-09-06T15:00:30.558459"
    },
    {
      "id": 44,
      "chiefdom": "Chieftainess Nkomesha",
      "towerName": "Vubwi Tower 44",
      "operator": "MTN",
      "towerType": "3G",
      "coverageRadius": 5.9,
      "populationCovered": 7661,
      "status": "Maintenance",
      "latitude": -15.2789,
      "longitude": 28.528,
      "installationDate": "2022-10-03T15:00:30.558465"
    },
    {
      "id": 45,
      "chiefdom": "Chieftainess Nkomesha",
      "towerName": "Makeni Tower 45",
      "operator": "MTN",
      "towerType": "2G",
      "coverageRadius": 7.9,
      "populationCovered": 21793,
      "status": "Operational",
      "latitude": -15.4354,
      "longitude": 28.4974,
      "installationDate": "2021-12-22T15:00:30.558472"
    },
    {
      "id": 46,
      "chiefdom": "Chieftainess Nkomesha",
      "towerName": "Kasama Tower 46",
      "operator": "MTN",
      "towerType": "4G",
      "coverageRadius": 10.7,
      "populationCovered": 16340,
      "status": "Operational",
      "latitude": -15.2926,
      "longitude": 28.4095,
      "installationDate": "2022-02-22T15:00:30.558480"
    },
    {
      "id": 47,
      "chiefdom": "Chieftainess Nkomesha",
      "towerName": "Zambezi Tower 47",
      "operator": "Airtel",
      "towerType": "4G",
      "coverageRadius": 12.7,
      "populationCovered": 18167,
      "status": "Operational",
      "latitude": -15.4488,
      "longitude": 28.5975,
      "installationDate": "2023-08-20T15:00:30.558494"
    },
    {
      "id": 48,
      "chiefdom": "Chieftainess Nkomesha",
      "towerName": "Palabana Tower 48",
      "operator": "Zamtel",
      "towerType": "3G",
      "coverageRadius": 5.4,
      "populationCovered": 9973,
      "status": "Operational",
      "latitude": -15.3119,
      "longitude": 28.4266,
      "installationDate": "2022-10-07T15:00:30.558501"
    },
    {
      "id": 49,
      "chiefdom": "Chieftainess Nkomesha",
      "towerName": "Lukulu Tower 49",
      "operator": "Airtel",
      "towerType": "4G",
      "coverageRadius": 5.1,
      "populationCovered": 12738,
      "status": "Planned",
      "latitude": -15.3356,
      "longitude": 28.4239,
      "installationDate": "2022-08-07T15:00:30.558508"
    },
    {
      "id": 50,
      "chiefdom": "Chieftainess Nkomesha",
      "towerName": "Choma Tower 50",
      "operator": "Zamtel",
      "towerType": "3G",
      "coverageRadius": 16.8,
      "populationCovered": 13496,
      "status": "Planned",
      "latitude": -15.2835,
      "longitude": 28.5027,
      "installationDate": "2021-07-22T15:00:30.558514"
    }
  ],
  "connectivityAreas": [
    {
      "id": 1,
      "chiefdom": "Chieftainess Nkomesha",
      "areaName": "Shangombo Connectivity 1",
      "population": 2677,
      "mobileSignalQuality": "Fair",
      "internetAvailability": "Available",
      "roadAccess": "Poor",
      "electricityAccess": false,
      "latitude": -15.2962,
      "longitude": 28.5541
    },
    {
      "id": 2,
      "chiefdom": "Chieftainess Nkomesha",
      "areaName": "Chilanga Connectivity 2",
      "population": 14617,
      "mobileSignalQuality": "Excellent",
      "internetAvailability": "Limited",
      "roadAccess": "Fair",
      "electricityAccess": true,
      "latitude": -15.3272,
      "longitude": 28.5411
    },
    {
      "id": 3,
      "chiefdom": "Chieftainess Nkomesha",
      "areaName": "Kawambwa Connectivity 3",
      "population": 3539,
      "mobileSignalQuality": "Excellent",
      "internetAvailability": "None",
      "roadAccess": "Poor",
      "electricityAccess": false,
      "latitude": -15.2774,
      "longitude": 28.4026
    },
    {
      "id": 4,
      "chiefdom": "Chieftainess Nkomesha",
      "areaName": "Nchelenge Connectivity 4",
      "population": 4155,
      "mobileSignalQuality": "Excellent",
      "internetAvailability": "Limited",
      "roadAccess": "Fair",
      "electricityAccess": false,
      "latitude": -15.2634,
      "longitude": 28.4982
    },
    {
      "id": 5,
      "chiefdom": "Chieftainess Nkomesha",
      "areaName": "Makeni Connectivity 5",
      "population": 11496,
      "mobileSignalQuality": "Fair",
      "internetAvailability": "Limited",
      "roadAccess": "Fair",
      "electricityAccess": true,
      "latitude": -15.4356,
      "longitude": 28.4296
    },
    {
      "id": 6,
      "chiefdom": "Chieftainess Nkomesha",
      "areaName": "Mpanshya Connectivity 6",
      "population": 2903,
      "mobileSignalQuality": "None",
      "internetAvailability": "Available",
      "roadAccess": "Good",
      "electricityAccess": false,
      "latitude": -15.2711,
      "longitude": 28.5783
    },
    {
      "id": 7,
      "chiefdom": "Chieftainess Nkomesha",
      "areaName": "Katoba Connectivity 7",
      "population": 11656,
      "mobileSignalQuality": "Good",
      "internetAvailability": "None",
      "roadAccess": "Poor",
      "electricityAccess": true,
      "latitude": -15.4305,
      "longitude": 28.5739
    },
    {
      "id": 8,
      "chiefdom": "Chieftainess Nkomesha",
      "areaName": "Lunsemfwa Connectivity 8",
      "population": 12746,
      "mobileSignalQuality": "Poor",
      "internetAvailability": "None",
      "roadAccess": "Good",
      "electricityAccess": true,
      "latitude": -15.3645,
      "longitude": 28.4198
    },
    {
      "id": 9,
      "chiefdom": "Chieftainess Nkomesha",
      "areaName": "Solwezi Connectivity 9",
      "population": 2984,
      "mobileSignalQuality": "Excellent",
      "internetAvailability": "Limited",
      "roadAccess": "Good",
      "electricityAccess": true,
      "latitude": -15.4014,
      "longitude": 28.4976
    },
    {
      "id": 10,
      "chiefdom": "Chieftainess Nkomesha",
      "areaName": "Katoba Connectivity 10",
      "population": 8994,
      "mobileSignalQuality": "Good",
      "internetAvailability": "None",
      "roadAccess": "Poor",
      "electricityAccess": false,
      "latitude": -15.4128,
      "longitude": 28.458
    },
    {
      "id": 11,
      "chiefdom": "Chieftainess Nkomesha",
      "areaName": "Ndola Connectivity 11",
      "population": 3585,
      "mobileSignalQuality": "None",
      "internetAvailability": "None",
      "roadAccess": "Good",
      "electricityAccess": true,
      "latitude": -15.2624,
      "longitude": 28.5286
    },
    {
      "id": 12,
      "chiefdom": "Chieftainess Nkomesha",
      "areaName": "Kabwe Connectivity 12",
      "population": 8401,
      "mobileSignalQuality": "Fair",
      "internetAvailability": "Available",
      "roadAccess": "Good",
      "electricityAccess": true,
      "latitude": -15.4397,
      "longitude": 28.5157
    },
    {
      "id": 13,
      "chiefdom": "Chieftainess Nkomesha",
      "areaName": "Sikanze Connectivity 13",
      "population": 8785,
      "mobileSignalQuality": "Fair",
      "internetAvailability": "None",
      "roadAccess": "Good",
      "electricityAccess": true,
      "latitude": -15.3325,
      "longitude": 28.433
    },
    {
      "id": 14,
      "chiefdom": "Chieftainess Nkomesha",
      "areaName": "Pemba Connectivity 14",
      "population": 13586,
      "mobileSignalQuality": "None",
      "internetAvailability": "Available",
      "roadAccess": "Poor",
      "electricityAccess": true,
      "latitude": -15.3355,
      "longitude": 28.4815
    },
    {
      "id": 15,
      "chiefdom": "Chieftainess Nkomesha",
      "areaName": "Chilanga Connectivity 15",
      "population": 4762,
      "mobileSignalQuality": "Fair",
      "internetAvailability": "Limited",
      "roadAccess": "Good",
      "electricityAccess": true,
      "latitude": -15.2553,
      "longitude": 28.4645
    },
    {
      "id": 16,
      "chiefdom": "Chieftainess Nkomesha",
      "areaName": "Mbala Connectivity 16",
      "population": 11520,
      "mobileSignalQuality": "Fair",
      "internetAvailability": "Available",
      "roadAccess": "Fair",
      "electricityAccess": false,
      "latitude": -15.4457,
      "longitude": 28.4512
    },
    {
      "id": 17,
      "chiefdom": "Chieftainess Nkomesha",
      "areaName": "Lundazi Connectivity 17",
      "population": 12015,
      "mobileSignalQuality": "None",
      "internetAvailability": "Limited",
      "roadAccess": "Good",
      "electricityAccess": true,
      "latitude": -15.3939,
      "longitude": 28.5699
    },
    {
      "id": 18,
      "chiefdom": "Chieftainess Nkomesha",
      "areaName": "Mambwe Connectivity 18",
      "population": 6486,
      "mobileSignalQuality": "Poor",
      "internetAvailability": "None",
      "roadAccess": "Poor",
      "electricityAccess": false,
      "latitude": -15.3613,
      "longitude": 28.5661
    },
    {
      "id": 19,
      "chiefdom": "Chieftainess Nkomesha",
      "areaName": "Siavonga Connectivity 19",
      "population": 3286,
      "mobileSignalQuality": "Good",
      "internetAvailability": "Available",
      "roadAccess": "Poor",
      "electricityAccess": true,
      "latitude": -15.26,
      "longitude": 28.5649
    },
    {
      "id": 20,
      "chiefdom": "Chieftainess Nkomesha",
      "areaName": "Chama Connectivity 20",
      "population": 4025,
      "mobileSignalQuality": "Poor",
      "internetAvailability": "None",
      "roadAccess": "Poor",
      "electricityAccess": true,
      "latitude": -15.4441,
      "longitude": 28.5691
    },
    {
      "id": 21,
      "chiefdom": "Chieftainess Nkomesha",
      "areaName": "Meanwood Connectivity 21",
      "population": 7148,
      "mobileSignalQuality": "Excellent",
      "internetAvailability": "Available",
      "roadAccess": "Fair",
      "electricityAccess": false,
      "latitude": -15.4215,
      "longitude": 28.4217
    },
    {
      "id": 22,
      "chiefdom": "Chieftainess Nkomesha",
      "areaName": "Pemba Connectivity 22",
      "population": 5197,
      "mobileSignalQuality": "Fair",
      "internetAvailability": "None",
      "roadAccess": "Good",
      "electricityAccess": true,
      "latitude": -15.3597,
      "longitude": 28.4283
    },
    {
      "id": 23,
      "chiefdom": "Chieftainess Nkomesha",
      "areaName": "Luangwa Connectivity 23",
      "population": 9690,
      "mobileSignalQuality": "Excellent",
      "internetAvailability": "Available",
      "roadAccess": "Good",
      "electricityAccess": true,
      "latitude": -15.3272,
      "longitude": 28.5492
    },
    {
      "id": 24,
      "chiefdom": "Chieftainess Nkomesha",
      "areaName": "Sinazongwe Connectivity 24",
      "population": 12372,
      "mobileSignalQuality": "Excellent",
      "internetAvailability": "None",
      "roadAccess": "Good",
      "electricityAccess": true,
      "latitude": -15.3625,
      "longitude": 28.5816
    },
    {
      "id": 25,
      "chiefdom": "Chieftainess Nkomesha",
      "areaName": "Chibombo Connectivity 25",
      "population": 4197,
      "mobileSignalQuality": "None",
      "internetAvailability": "None",
      "roadAccess": "Poor",
      "electricityAccess": false,
      "latitude": -15.295,
      "longitude": 28.5378
    },
    {
      "id": 26,
      "chiefdom": "Chieftainess Nkomesha",
      "areaName": "Kawambwa Connectivity 26",
      "population": 8780,
      "mobileSignalQuality": "Poor",
      "internetAvailability": "Available",
      "roadAccess": "Good",
      "electricityAccess": true,
      "latitude": -15.2518,
      "longitude": 28.5647
    },
    {
      "id": 27,
      "chiefdom": "Chieftainess Nkomesha",
      "areaName": "Zambezi Connectivity 27",
      "population": 2199,
      "mobileSignalQuality": "Excellent",
      "internetAvailability": "Available",
      "roadAccess": "Poor",
      "electricityAccess": true,
      "latitude": -15.3205,
      "longitude": 28.5414
    },
    {
      "id": 28,
      "chiefdom": "Chieftainess Nkomesha",
      "areaName": "Leopards Hill Connectivity 28",
      "population": 11822,
      "mobileSignalQuality": "Good",
      "internetAvailability": "None",
      "roadAccess": "Good",
      "electricityAccess": false,
      "latitude": -15.3003,
      "longitude": 28.5541
    },
    {
      "id": 29,
      "chiefdom": "Chieftainess Nkomesha",
      "areaName": "Ndola Connectivity 29",
      "population": 3968,
      "mobileSignalQuality": "None",
      "internetAvailability": "Available",
      "roadAccess": "Fair",
      "electricityAccess": true,
      "latitude": -15.287,
      "longitude": 28.4625
    },
    {
      "id": 30,
      "chiefdom": "Chieftainess Nkomesha",
      "areaName": "Ndola Connectivity 30",
      "population": 4383,
      "mobileSignalQuality": "Excellent",
      "internetAvailability": "Limited",
      "roadAccess": "Poor",
      "electricityAccess": false,
      "latitude": -15.358,
      "longitude": 28.5295
    },
    {
      "id": 31,
      "chiefdom": "Chieftainess Nkomesha",
      "areaName": "Mkushi Connectivity 31",
      "population": 10801,
      "mobileSignalQuality": "Fair",
      "internetAvailability": "Available",
      "roadAccess": "Poor",
      "electricityAccess": true,
      "latitude": -15.3907,
      "longitude": 28.4454
    },
    {
      "id": 32,
      "chiefdom": "Chieftainess Nkomesha",
      "areaName": "Mongu Connectivity 32",
      "population": 5843,
      "mobileSignalQuality": "Good",
      "internetAvailability": "None",
      "roadAccess": "Fair",
      "electricityAccess": false,
      "latitude": -15.4061,
      "longitude": 28.4243
    },
    {
      "id": 33,
      "chiefdom": "Chieftainess Nkomesha",
      "areaName": "Kabwe Connectivity 33",
      "population": 8806,
      "mobileSignalQuality": "Fair",
      "internetAvailability": "Limited",
      "roadAccess": "Good",
      "electricityAccess": true,
      "latitude": -15.4102,
      "longitude": 28.5125
    },
    {
      "id": 34,
      "chiefdom": "Chieftainess Nkomesha",
      "areaName": "Ngwerere Connectivity 34",
      "population": 4608,
      "mobileSignalQuality": "Poor",
      "internetAvailability": "Limited",
      "roadAccess": "Poor",
      "electricityAccess": true,
      "latitude": -15.329,
      "longitude": 28.4923
    },
    {
      "id": 35,
      "chiefdom": "Chieftainess Nkomesha",
      "areaName": "Siavonga Connectivity 35",
      "population": 12955,
      "mobileSignalQuality": "Poor",
      "internetAvailability": "Limited",
      "roadAccess": "Poor",
      "electricityAccess": false,
      "latitude": -15.3577,
      "longitude": 28.446
    },
    {
      "id": 36,
      "chiefdom": "Chieftainess Nkomesha",
      "areaName": "Kalulushi Connectivity 36",
      "population": 9321,
      "mobileSignalQuality": "Good",
      "internetAvailability": "Available",
      "roadAccess": "Fair",
      "electricityAccess": true,
      "latitude": -15.3778,
      "longitude": 28.5316
    },
    {
      "id": 37,
      "chiefdom": "Chieftainess Nkomesha",
      "areaName": "Chama Connectivity 37",
      "population": 13018,
      "mobileSignalQuality": "Fair",
      "internetAvailability": "Limited",
      "roadAccess": "Fair",
      "electricityAccess": true,
      "latitude": -15.3244,
      "longitude": 28.4924
    },
    {
      "id": 38,
      "chiefdom": "Chieftainess Nkomesha",
      "areaName": "Kasempa Connectivity 38",
      "population": 14664,
      "mobileSignalQuality": "Fair",
      "internetAvailability": "Available",
      "roadAccess": "Poor",
      "electricityAccess": false,
      "latitude": -15.3583,
      "longitude": 28.457
    },
    {
      "id": 39,
      "chiefdom": "Chieftainess Nkomesha",
      "areaName": "Kalomo Connectivity 39",
      "population": 4039,
      "mobileSignalQuality": "None",
      "internetAvailability": "None",
      "roadAccess": "Good",
      "electricityAccess": true,
      "latitude": -15.271,
      "longitude": 28.5367
    },
    {
      "id": 40,
      "chiefdom": "Chieftainess Nkomesha",
      "areaName": "Chingola Connectivity 40",
      "population": 5185,
      "mobileSignalQuality": "Excellent",
      "internetAvailability": "Available",
      "roadAccess": "Fair",
      "electricityAccess": true,
      "latitude": -15.2734,
      "longitude": 28.4704
    },
    {
      "id": 41,
      "chiefdom": "Chieftainess Nkomesha",
      "areaName": "Siavonga Connectivity 41",
      "population": 12483,
      "mobileSignalQuality": "Fair",
      "internetAvailability": "Limited",
      "roadAccess": "Fair",
      "electricityAccess": false,
      "latitude": -15.3751,
      "longitude": 28.511
    },
    {
      "id": 42,
      "chiefdom": "Chieftainess Nkomesha",
      "areaName": "Sesheke Connectivity 42",
      "population": 12454,
      "mobileSignalQuality": "Fair",
      "internetAvailability": "None",
      "roadAccess": "Poor",
      "electricityAccess": false,
      "latitude": -15.311,
      "longitude": 28.4557
    },
    {
      "id": 43,
      "chiefdom": "Chieftainess Nkomesha",
      "areaName": "Makeni Connectivity 43",
      "population": 5742,
      "mobileSignalQuality": "None",
      "internetAvailability": "Limited",
      "roadAccess": "Fair",
      "electricityAccess": false,
      "latitude": -15.3759,
      "longitude": 28.4451
    },
    {
      "id": 44,
      "chiefdom": "Chieftainess Nkomesha",
      "areaName": "Mporokoso Connectivity 44",
      "population": 6279,
      "mobileSignalQuality": "Poor",
      "internetAvailability": "Limited",
      "roadAccess": "Fair",
      "electricityAccess": false,
      "latitude": -15.409,
      "longitude": 28.567
    },
    {
      "id": 45,
      "chiefdom": "Chieftainess Nkomesha",
      "areaName": "Livingstone Connectivity 45",
      "population": 14537,
      "mobileSignalQuality": "None",
      "internetAvailability": "None",
      "roadAccess": "Good",
      "electricityAccess": true,
      "latitude": -15.3494,
      "longitude": 28.5852
    },
    {
      "id": 46,
      "chiefdom": "Chieftainess Nkomesha",
      "areaName": "Kitwe Connectivity 46",
      "population": 10801,
      "mobileSignalQuality": "Excellent",
      "internetAvailability": "Available",
      "roadAccess": "Good",
      "electricityAccess": true,
      "latitude": -15.3533,
      "longitude": 28.561
    },
    {
      "id": 47,
      "chiefdom": "Chieftainess Nkomesha",
      "areaName": "Kalulushi Connectivity 47",
      "population": 7504,
      "mobileSignalQuality": "None",
      "internetAvailability": "Available",
      "roadAccess": "Fair",
      "electricityAccess": false,
      "latitude": -15.3282,
      "longitude": 28.5091
    },
    {
      "id": 48,
      "chiefdom": "Chieftainess Nkomesha",
      "areaName": "Lukulu Connectivity 48",
      "population": 3133,
      "mobileSignalQuality": "None",
      "internetAvailability": "Available",
      "roadAccess": "Fair",
      "electricityAccess": false,
      "latitude": -15.3557,
      "longitude": 28.4074
    },
    {
      "id": 49,
      "chiefdom": "Chieftainess Nkomesha",
      "areaName": "Chadiza Connectivity 49",
      "population": 4967,
      "mobileSignalQuality": "Fair",
      "internetAvailability": "Available",
      "roadAccess": "Fair",
      "electricityAccess": false,
      "latitude": -15.4158,
      "longitude": 28.5562
    },
    {
      "id": 50,
      "chiefdom": "Chieftainess Nkomesha",
      "areaName": "Chilanga Connectivity 50",
      "population": 2274,
      "mobileSignalQuality": "Fair",
      "internetAvailability": "Limited",
      "roadAccess": "Good",
      "electricityAccess": true,
      "latitude": -15.3725,
      "longitude": 28.459
    }
  ],
  "bridges": [
    {
      "id": 1,
      "chiefdom": "Chieftainess Nkomesha",
      "bridgeName": "Nakonde Bridge 1",
      "bridgeType": "Wooden",
      "lengthMeters": 125,
      "condition": "Critical",
      "waterBody": "Stream",
      "trafficCapacity": "Light",
      "lastInspection": "2025-04-19T15:00:30.558691",
      "latitude": -15.3284,
      "longitude": 28.5354
    },
    {
      "id": 2,
      "chiefdom": "Chieftainess Nkomesha",
      "bridgeName": "Mufumbwe Bridge 2",
      "bridgeType": "Suspension",
      "lengthMeters": 201,
      "condition": "Good",
      "waterBody": "River",
      "trafficCapacity": "Light",
      "lastInspection": "2025-07-31T15:00:30.558700",
      "latitude": -15.4218,
      "longitude": 28.4733
    },
    {
      "id": 3,
      "chiefdom": "Chieftainess Nkomesha",
      "bridgeName": "Mongu Bridge 3",
      "bridgeType": "Suspension",
      "lengthMeters": 25,
      "condition": "Critical",
      "waterBody": "Stream",
      "trafficCapacity": "Heavy",
      "lastInspection": "2025-05-12T15:00:30.558711",
      "latitude": -15.345,
      "longitude": 28.505
    },
    {
      "id": 4,
      "chiefdom": "Chieftainess Nkomesha",
      "bridgeName": "Mongu Bridge 4",
      "bridgeType": "Concrete",
      "lengthMeters": 254,
      "condition": "Poor",
      "waterBody": "River",
      "trafficCapacity": "Medium",
      "lastInspection": "2025-04-25T15:00:30.558718",
      "latitude": -15.3097,
      "longitude": 28.4012
    },
    {
      "id": 5,
      "chiefdom": "Chieftainess Nkomesha",
      "bridgeName": "Isoka Bridge 5",
      "bridgeType": "Wooden",
      "lengthMeters": 226,
      "condition": "Critical",
      "waterBody": "Stream",
      "trafficCapacity": "Medium",
      "lastInspection": "2025-08-21T15:00:30.558725",
      "latitude": -15.4107,
      "longitude": 28.534
    },
    {
      "id": 6,
      "chiefdom": "Chieftainess Nkomesha",
      "bridgeName": "Kalabo Bridge 6",
      "bridgeType": "Wooden",
      "lengthMeters": 71,
      "condition": "Good",
      "waterBody": "River",
      "trafficCapacity": "Light",
      "lastInspection": "2026-01-09T15:00:30.558732",
      "latitude": -15.3632,
      "longitude": 28.5792
    },
    {
      "id": 7,
      "chiefdom": "Chieftainess Nkomesha",
      "bridgeName": "Kabwe Bridge 7",
      "bridgeType": "Wooden",
      "lengthMeters": 85,
      "condition": "Poor",
      "waterBody": "River",
      "trafficCapacity": "Light",
      "lastInspection": "2025-05-12T15:00:30.558740",
      "latitude": -15.4064,
      "longitude": 28.4767
    },
    {
      "id": 8,
      "chiefdom": "Chieftainess Nkomesha",
      "bridgeName": "Nakonde Bridge 8",
      "bridgeType": "Wooden",
      "lengthMeters": 267,
      "condition": "Critical",
      "waterBody": "Creek",
      "trafficCapacity": "Heavy",
      "lastInspection": "2025-08-26T15:00:30.558753",
      "latitude": -15.4132,
      "longitude": 28.5919
    },
    {
      "id": 9,
      "chiefdom": "Chieftainess Nkomesha",
      "bridgeName": "Isoka Bridge 9",
      "bridgeType": "Concrete",
      "lengthMeters": 192,
      "condition": "Critical",
      "waterBody": "Stream",
      "trafficCapacity": "Medium",
      "lastInspection": "2025-07-20T15:00:30.558760",
      "latitude": -15.3558,
      "longitude": 28.5562
    },
    {
      "id": 10,
      "chiefdom": "Chieftainess Nkomesha",
      "bridgeName": "Chalala Bridge 10",
      "bridgeType": "Steel",
      "lengthMeters": 208,
      "condition": "Critical",
      "waterBody": "River",
      "trafficCapacity": "Medium",
      "lastInspection": "2025-08-20T15:00:30.558766",
      "latitude": -15.3965,
      "longitude": 28.5441
    }
  ]
}