{
  "populationDemographics": {
    "id": 1,
    "chiefdom": "Chief Mukuni",
    "district": "Livingstone",
    "province": "Southern",
    "totalPopulation": 68648,
    "numberOfVillages": 32,
    "numberOfHouseholds": 16657,
    "malePopulation": 37701,
    "femalePopulation": 27918,
    "youthPopulation": 21341,
    "elderlyPopulation": 3727,
    "populationDensity": 59.4,
    "censusDate": "2025-08-06T15:00:30.847887"
  },
  "villages": [
    {
      "id": 1,
      "name": "Chongwe Central 1",
      "chiefdom": "Chief Mukuni",
      "population": 842,
      "numberOfHouseholds": 2691,
      "villageHead": "Mr. Richard Zimba",
      "latitude": -17.9534,
      "longitude": 25.9474,
      "distanceToNearestHospital": 14.8,
      "distanceToNearestSchool": 1.7,
      "primaryEconomicActivity": "Fishing",
      "hasElectricity": true,
      "hasCleanWater": true
    },
    {
      "id": 2,
      "name": "Kafue Riverside 1",
      "chiefdom": "Chief Mukuni",
      "population": 7233,
      "numberOfHouseholds": 2231,
      "villageHead": "Mrs. Rose Mwila",
      "latitude": -17.781,
      "longitude": 25.9418,
      "distanceToNearestHospital": 4.2,
      "distanceToNearestSchool": 3.1,
      "primaryEconomicActivity": "Trading",
      "hasElectricity": false,
      "hasCleanWater": false
    },
    {
      "id": 3,
      "name": "Munyumba 1",
      "chiefdom": "Chief Mukuni",
      "population": 4833,
      "numberOfHouseholds": 1706,
      "villageHead": "Mrs. Elizabeth Mutale",
      "latitude": -17.8155,
      "longitude": 25.9425,
      "distanceToNearestHospital": 15.5,
      "distanceToNearestSchool": 10.7,
      "primaryEconomicActivity": "Mining",
      "hasElectricity": true,
      "hasCleanWater": true
    },
    {
      "id": 4,
      "name": "Kalingalinga 1",
      "chiefdom": "Chief Mukuni",
      "population": 4128,
      "numberOfHouseholds": 1382,
      "villageHead": "Mr. James Chanda",
      "latitude": -17.8959,
      "longitude": 25.8419,
      "distanceToNearestHospital": 6.7,
      "distanceToNearestSchool": 10.3,
      "primaryEconomicActivity": "Farming",
      "hasElectricity": true,
      "hasCleanWater": true
    },
    {
      "id": 5,
      "name": "Chilanga 1",
      "chiefdom": "Chief Mukuni",
      "population": 11881,
      "numberOfHouseholds": 1514,
      "villageHead": "Mr. Patrick Zulu",
      "latitude": -17.8814,
      "longitude": 25.7808,
      "distanceToNearestHospital": 14.6,
      "distanceToNearestSchool": 11.1,
      "primaryEconomicActivity": "Services",
      "hasElectricity": false,
      "hasCleanWater": true
    },
    {
      "id": 6,
      "name": "Makeni 1",
      "chiefdom": "Chief Mukuni",
      "population": 3128,
      "numberOfHouseholds": 2348,
      "villageHead": "Mrs. Joyce Banda",
      "latitude": -17.8848,
      "longitude": 25.7771,
      "distanceToNearestHospital": 11.0,
      "distanceToNearestSchool": 10.7,
      "primaryEconomicActivity": "Fishing",
      "hasElectricity": false,
      "hasCleanWater": true
    },
    {
      "id": 7,
      "name": "Ngwerere 1",
      "chiefdom": "Chief Mukuni",
      "population": 13736,
      "numberOfHouseholds": 2788,
      "villageHead": "Mr. Andrew Sichone",
      "latitude": -17.8344,
      "longitude": 25.872,
      "distanceToNearestHospital": 10.4,
      "distanceToNearestSchool": 11.1,
      "primaryEconomicActivity": "Farming",
      "hasElectricity": true,
      "hasCleanWater": true
    },
    {
      "id": 8,
      "name": "Lilayi 1",
      "chiefdom": "Chief Mukuni",
      "population": 12031,
      "numberOfHouseholds": 2781,
      "villageHead": "Mrs. Alice Mwansa",
      "latitude": -17.8244,
      "longitude": 25.9108,
      "distanceToNearestHospital": 8.1,
      "distanceToNearestSchool": 3.4,
      "primaryEconomicActivity": "Trading",
      "hasElectricity": false,
      "hasCleanWater": false
    },
    {
      "id": 9,
      "name": "Palabana 1",
      "chiefdom": "Chief Mukuni",
      "population": 1445,
      "numberOfHouseholds": 364,
      "villageHead": "Mr. Charles Bwalya",
      "latitude": -17.8579,
      "longitude": 25.8986,
      "distanceToNearestHospital": 7.6,
      "distanceToNearestSchool": 10.0,
      "primaryEconomicActivity": "Farming",
      "hasElectricity": false,
      "hasCleanWater": true
    },
    {
      "id": 10,
      "name": "Chainda 1",
      "chiefdom": "Chief Mukuni",
      "population": 5339,
      "numberOfHouseholds": 1587,
      "villageHead": "Mr. Michael Nyirenda",
      "latitude": -17.8328,
      "longitude": 25.8751,
      "distanceToNearestHospital": 3.6,
      "distanceToNearestSchool": 2.0,
      "primaryEconomicActivity": "Mining",
      "hasElectricity": true,
      "hasCleanWater": true
    },
    {
      "id": 11,
      "name": "Meanwood 1",
      "chiefdom": "Chief Mukuni",
      "population": 1970,
      "numberOfHouseholds": 2589,
      "villageHead": "Mrs. Florence Mwanza",
      "latitude": -17.8461,
      "longitude": 25.9576,
      "distanceToNearestHospital": 10.8,
      "distanceToNearestSchool": 4.0,
      "primaryEconomicActivity": "Trading",
      "hasElectricity": true,
      "hasCleanWater": true
    },
    {
      "id": 12,
      "name": "Leopards Hill 1",
      "chiefdom": "Chief Mukuni",
      "population": 7948,
      "numberOfHouseholds": 1072,
      "villageHead": "Mrs. Beatrice Nkhoma",
      "latitude": -17.8884,
      "longitude": 25.9302,
      "distanceToNearestHospital": 10.3,
      "distanceToNearestSchool": 4.4,
      "primaryEconomicActivity": "Fishing",
      "hasElectricity": false,
      "hasCleanWater": true
    },
    {
      "id": 13,
      "name": "Chalala 1",
      "chiefdom": "Chief Mukuni",
      "population": 4288,
      "numberOfHouseholds": 1717,
      "villageHead": "Mrs. Sarah Mumba",
      "latitude": -17.7678,
      "longitude": 25.7676,
      "distanceToNearestHospital": 18.1,
      "distanceToNearestSchool": 6.5,
      "primaryEconomicActivity": "Trading",
      "hasElectricity": true,
      "hasCleanWater": true
    },
    {
      "id": 14,
      "name": "Sikanze 1",
      "chiefdom": "Chief Mukuni",
      "population": 11473,
      "numberOfHouseholds": 1179,
      "villageHead": "Mrs. Beatrice Nkhoma",
      "latitude": -17.8457,
      "longitude": 25.8831,
      "distanceToNearestHospital": 3.4,
      "distanceToNearestSchool": 9.7,
      "primaryEconomicActivity": "Farming",
      "hasElectricity": true,
      "hasCleanWater": false
    },
    {
      "id": 15,
      "name": "Nyimba 1",
      "chiefdom": "Chief Mukuni",
      "population": 1238,
      "numberOfHouseholds": 711,
      "villageHead": "Mr. Joseph Lungu",
      "latitude": -17.7602,
      "longitude": 25.8096,
      "distanceToNearestHospital": 20.0,
      "distanceToNearestSchool": 12.0,
      "primaryEconomicActivity": "Farming",
      "hasElectricity": false,
      "hasCleanWater": true
    },
    {
      "id": 16,
      "name": "Luangwa 1",
      "chiefdom": "Chief Mukuni",
      "population": 7826,
      "numberOfHouseholds": 1310,
      "villageHead": "Mr. Emmanuel Ngulube",
      "latitude": -17.8498,
      "longitude": 25.7856,
      "distanceToNearestHospital": 18.8,
      "distanceToNearestSchool": 7.2,
      "primaryEconomicActivity": "Fishing",
      "hasElectricity": true,
      "hasCleanWater": true
    },
    {
      "id": 17,
      "name": "Mpanshya 1",
      "chiefdom": "Chief Mukuni",
      "population": 2632,
      "numberOfHouseholds": 2998,
      "villageHead": "Mr. Joseph Lungu",
      "latitude": -17.8182,
      "longitude": 25.9093,
      "distanceToNearestHospital": 9.3,
      "distanceToNearestSchool": 11.4,
      "primaryEconomicActivity": "Farming",
      "hasElectricity": false,
      "hasCleanWater": true
    },
    {
      "id": 18,
      "name": "Mutumbi 1",
      "chiefdom": "Chief Mukuni",
      "population": 1034,
      "numberOfHouseholds": 1768,
      "villageHead": "Mr. Francis Chipanga",
      "latitude": -17.9579,
      "longitude": 25.9389,
      "distanceToNearestHospital": 14.1,
      "distanceToNearestSchool": 10.3,
      "primaryEconomicActivity": "Fishing",
      "hasElectricity": true,
      "hasCleanWater": true
    },
    {
      "id": 19,
      "name": "Kanakantapa 1",
      "chiefdom": "Chief Mukuni",
      "population": 7179,
      "numberOfHouseholds": 1670,
      "villageHead": "Mr. Francis Chipanga",
      "latitude": -17.9166,
      "longitude": 25.8035,
      "distanceToNearestHospital": 9.3,
      "distanceToNearestSchool": 3.9,
      "primaryEconomicActivity": "Mining",
      "hasElectricity": true,
      "hasCleanWater": true
    },
    {
      "id": 20,
      "name": "Mwembezhi 1",
      "chiefdom": "Chief Mukuni",
      "population": 9029,
      "numberOfHouseholds": 1798,
      "villageHead": "Mrs. Alice Mwansa",
      "latitude": -17.8214,
      "longitude": 25.7994,
      "distanceToNearestHospital": 13.3,
      "distanceToNearestSchool": 0.5,
      "primaryEconomicActivity": "Fishing",
      "hasElectricity": false,
      "hasCleanWater": true
    },
    {
      "id": 21,
      "name": "Shimabala 1",
      "chiefdom": "Chief Mukuni",
      "population": 11004,
      "numberOfHouseholds": 750,
      "villageHead": "Mr. Patrick Zulu",
      "latitude": -17.9386,
      "longitude": 25.9059,
      "distanceToNearestHospital": 3.1,
      "distanceToNearestSchool": 3.7,
      "primaryEconomicActivity": "Farming",
      "hasElectricity": false,
      "hasCleanWater": false
    },
    {
      "id": 22,
      "name": "Chisamba 1",
      "chiefdom": "Chief Mukuni",
      "population": 10618,
      "numberOfHouseholds": 1033,
      "villageHead": "Mr. Richard Zimba",
      "latitude": -17.8347,
      "longitude": 25.8432,
      "distanceToNearestHospital": 14.1,
      "distanceToNearestSchool": 7.0,
      "primaryEconomicActivity": "Services",
      "hasElectricity": false,
      "hasCleanWater": true
    },
    {
      "id": 23,
      "name": "Katoba 1",
      "chiefdom": "Chief Mukuni",
      "population": 2809,
      "numberOfHouseholds": 2618,
      "villageHead": "Mrs. Elizabeth Mutale",
      "latitude": -17.9384,
      "longitude": 25.8402,
      "distanceToNearestHospital": 6.9,
      "distanceToNearestSchool": 2.5,
      "primaryEconomicActivity": "Mining",
      "hasElectricity": false,
      "hasCleanWater": true
    },
    {
      "id": 24,
      "name": "Kaunga 1",
      "chiefdom": "Chief Mukuni",
      "population": 7829,
      "numberOfHouseholds": 526,
      "villageHead": "Mr. Robert Ngoma",
      "latitude": -17.8,
      "longitude": 25.9267,
      "distanceToNearestHospital": 9.8,
      "distanceToNearestSchool": 8.9,
      "primaryEconomicActivity": "Mining",
      "hasElectricity": false,
      "hasCleanWater": true
    },
    {
      "id": 25,
      "name": "Chipapa 1",
      "chiefdom": "Chief Mukuni",
      "population": 2871,
      "numberOfHouseholds": 1636,
      "villageHead": "Mr. Simon Lubinda",
      "latitude": -17.8536,
      "longitude": 25.7747,
      "distanceToNearestHospital": 2.4,
      "distanceToNearestSchool": 8.8,
      "primaryEconomicActivity": "Farming",
      "hasElectricity": true,
      "hasCleanWater": true
    },
    {
      "id": 26,
      "name": "Nakatindi 1",
      "chiefdom": "Chief Mukuni",
      "population": 9869,
      "numberOfHouseholds": 2638,
      "villageHead": "Mr. Simon Lubinda",
      "latitude": -17.8455,
      "longitude": 25.8811,
      "distanceToNearestHospital": 13.5,
      "distanceToNearestSchool": 5.1,
      "primaryEconomicActivity": "Services",
      "hasElectricity": true,
      "hasCleanWater": false
    },
    {
      "id": 27,
      "name": "Mbabala 1",
      "chiefdom": "Chief Mukuni",
      "population": 3366,
      "numberOfHouseholds": 275,
      "villageHead": "Mr. Daniel Sakala",
      "latitude": -17.7722,
      "longitude": 25.8131,
      "distanceToNearestHospital": 20.0,
      "distanceToNearestSchool": 1.8,
      "primaryEconomicActivity": "Trading",
      "hasElectricity": true,
      "hasCleanWater": true
    },
    {
      "id": 28,
      "name": "Chalimbana 1",
      "chiefdom": "Chief Mukuni",
      "population": 8742,
      "numberOfHouseholds": 646,
      "villageHead": "Mrs. Rose Mwila",
      "latitude": -17.86,
      "longitude": 25.958,
      "distanceToNearestHospital": 18.4,
      "distanceToNearestSchool": 9.2,
      "primaryEconomicActivity": "Farming",
      "hasElectricity": true,
      "hasCleanWater": true
    },
    {
      "id": 29,
      "name": "Kapiri 1",
      "chiefdom": "Chief Mukuni",
      "population": 11163,
      "numberOfHouseholds": 1613,
      "villageHead": "Mr. Vincent Hachipuka",
      "latitude": -17.7666,
      "longitude": 25.8169,
      "distanceToNearestHospital": 14.8,
      "distanceToNearestSchool": 7.0,
      "primaryEconomicActivity": "Fishing",
      "hasElectricity": true,
      "hasCleanWater": true
    },
    {
      "id": 30,
      "name": "Lunsemfwa 1",
      "chiefdom": "Chief Mukuni",
      "population": 13904,
      "numberOfHouseholds": 2340,
      "villageHead": "Mrs. Margaret Musonda",
      "latitude": -17.8752,
      "longitude": 25.8527,
      "distanceToNearestHospital": 20.8,
      "distanceToNearestSchool": 6.9,
      "primaryEconomicActivity": "Fishing",
      "hasElectricity": false,
      "hasCleanWater": false
    },
    {
      "id": 31,
      "name": "Mumbwa 1",
      "chiefdom": "Chief Mukuni",
      "population": 5801,
      "numberOfHouseholds": 2588,
      "villageHead": "Mr. Lawrence Kapasa",
      "latitude": -17.893,
      "longitude": 25.8068,
      "distanceToNearestHospital": 2.3,
      "distanceToNearestSchool": 2.9,
      "primaryEconomicActivity": "Mining",
      "hasElectricity": true,
      "hasCleanWater": true
    },
    {
      "id": 32,
      "name": "Kasempa 1",
      "chiefdom": "Chief Mukuni",
      "population": 13158,
      "numberOfHouseholds": 1654,
      "villageHead": "Mr. Joseph Lungu",
      "latitude": -17.7988,
      "longitude": 25.8588,
      "distanceToNearestHospital": 18.8,
      "distanceToNearestSchool": 7.8,
      "primaryEconomicActivity": "Fishing",
      "hasElectricity": false,
      "hasCleanWater": true
    },
    {
      "id": 33,
      "name": "Mufumbwe 1",
      "chiefdom": "Chief Mukuni",
      "population": 4449,
      "numberOfHouseholds": 698,
      "villageHead": "Mrs. Patricia Chilufya",
      "latitude": -17.8415,
      "longitude": 25.826,
      "distanceToNearestHospital": 5.7,
      "distanceToNearestSchool": 5.7,
      "primaryEconomicActivity": "Mining",
      "hasElectricity": true,
      "hasCleanWater": false
    },
    {
      "id": 34,
      "name": "Kabwe 1",
      "chiefdom": "Chief Mukuni",
      "population": 3734,
      "numberOfHouseholds": 2545,
      "villageHead": "Mr. Charles Bwalya",
      "latitude": -17.7629,
      "longitude": 25.9568,
      "distanceToNearestHospital": 11.8,
      "distanceToNearestSchool": 1.1,
      "primaryEconomicActivity": "Mining",
      "hasElectricity": true,
      "hasCleanWater": true
    },
    {
      "id": 35,
      "name": "Chibombo 1",
      "chiefdom": "Chief Mukuni",
      "population": 5677,
      "numberOfHouseholds": 985,
      "villageHead": "Mr. John Banda",
      "latitude": -17.8846,
      "longitude": 25.7732,
      "distanceToNearestHospital": 15.4,
      "distanceToNearestSchool": 7.4,
      "primaryEconomicActivity": "Trading",
      "hasElectricity": false,
      "hasCleanWater": true
    },
    {
      "id": 36,
      "name": "Mkushi 1",
      "chiefdom": "Chief Mukuni",
      "population": 5808,
      "numberOfHouseholds": 769,
      "villageHead": "Mr. Vincent Hachipuka",
      "latitude": -17.946,
      "longitude": 25.8628,
      "distanceToNearestHospital": 7.8,
      "distanceToNearestSchool": 12.0,
      "primaryEconomicActivity": "Mining",
      "hasElectricity": false,
      "hasCleanWater": false
    },
    {
      "id": 37,
      "name": "Serenje 1",
      "chiefdom": "Chief Mukuni",
      "population": 12913,
      "numberOfHouseholds": 2451,
      "villageHead": "Mr. David Mwale",
      "latitude": -17.7912,
      "longitude": 25.8034,
      "distanceToNearestHospital": 18.6,
      "distanceToNearestSchool": 8.6,
      "primaryEconomicActivity": "Fishing",
      "hasElectricity": false,
      "hasCleanWater": true
    },
    {
      "id": 38,
      "name": "Mpika 1",
      "chiefdom": "Chief Mukuni",
      "population": 7349,
      "numberOfHouseholds": 2364,
      "villageHead": "Mr. James Chanda",
      "latitude": -17.9476,
      "longitude": 25.9267,
      "distanceToNearestHospital": 5.8,
      "distanceToNearestSchool": 7.6,
      "primaryEconomicActivity": "Farming",
      "hasElectricity": false,
      "hasCleanWater": false
    },
    {
      "id": 39,
      "name": "Nakonde 1",
      "chiefdom": "Chief Mukuni",
      "population": 14212,
      "numberOfHouseholds": 733,
      "villageHead": "Mr. James Chanda",
      "latitude": -17.8198,
      "longitude": 25.8736,
      "distanceToNearestHospital": 24.9,
      "distanceToNearestSchool": 6.6,
      "primaryEconomicActivity": "Trading",
      "hasElectricity": false,
      "hasCleanWater": false
    },
    {
      "id": 40,
      "name": "Isoka 1",
      "chiefdom": "Chief Mukuni",
      "population": 1329,
      "numberOfHouseholds": 2501,
      "villageHead": "Mrs. Elizabeth Mutale",
      "latitude": -17.8449,
      "longitude": 25.8588,
      "distanceToNearestHospital": 20.0,
      "distanceToNearestSchool": 4.5,
      "primaryEconomicActivity": "Trading",
      "hasElectricity": true,
      "hasCleanWater": true
    },
    {
      "id": 41,
      "name": "Chinsali 1",
      "chiefdom": "Chief Mukuni",
      "population": 7385,
      "numberOfHouseholds": 371,
      "villageHead": "Mrs. Grace Tembo",
      "latitude": -17.7828,
      "longitude": 25.7982,
      "distanceToNearestHospital": 5.4,
      "distanceToNearestSchool": 6.3,
      "primaryEconomicActivity": "Fishing",
      "hasElectricity": true,
      "hasCleanWater": true
    },
    {
      "id": 42,
      "name": "Kasama 1",
      "chiefdom": "Chief Mukuni",
      "population": 1204,
      "numberOfHouseholds": 2592,
      "villageHead": "Mrs. Florence Mwanza",
      "latitude": -17.8886,
      "longitude": 25.9413,
      "distanceToNearestHospital": 16.8,
      "distanceToNearestSchool": 0.9,
      "primaryEconomicActivity": "Trading",
      "hasElectricity": false,
      "hasCleanWater": false
    },
    {
      "id": 43,
      "name": "Mbala 1",
      "chiefdom": "Chief Mukuni",
      "population": 6683,
      "numberOfHouseholds": 2837,
      "villageHead": "Mrs. Ruth Moyo",
      "latitude": -17.8536,
      "longitude": 25.8969,
      "distanceToNearestHospital": 8.1,
      "distanceToNearestSchool": 1.7,
      "primaryEconomicActivity": "Trading",
      "hasElectricity": true,
      "hasCleanWater": true
    },
    {
      "id": 44,
      "name": "Luwingu 1",
      "chiefdom": "Chief Mukuni",
      "population": 3068,
      "numberOfHouseholds": 1032,
      "villageHead": "Mr. Steven Daka",
      "latitude": -17.9249,
      "longitude": 25.8413,
      "distanceToNearestHospital": 22.1,
      "distanceToNearestSchool": 6.4,
      "primaryEconomicActivity": "Farming",
      "hasElectricity": false,
      "hasCleanWater": false
    },
    {
      "id": 45,
      "name": "Mporokoso 1",
      "chiefdom": "Chief Mukuni",
      "population": 2315,
      "numberOfHouseholds": 994,
      "villageHead": "Mr. Francis Chipanga",
      "latitude": -17.8926,
      "longitude": 25.8522,
      "distanceToNearestHospital": 13.7,
      "distanceToNearestSchool": 4.5,
      "primaryEconomicActivity": "Fishing",
      "hasElectricity": true,
      "hasCleanWater": true
    },
    {
      "id": 46,
      "name": "Kawambwa 1",
      "chiefdom": "Chief Mukuni",
      "population": 4002,
      "numberOfHouseholds": 347,
      "villageHead": "Mr. Daniel Sakala",
      "latitude": -17.9108,
      "longitude": 25.8272,
      "distanceToNearestHospital": 6.4,
      "distanceToNearestSchool": 7.9,
      "primaryEconomicActivity": "Fishing",
      "hasElectricity": true,
      "hasCleanWater": true
    },
    {
      "id": 47,
      "name": "Mansa 1",
      "chiefdom": "Chief Mukuni",
      "population": 8674,
      "numberOfHouseholds": 1263,
      "villageHead": "Mr. David Mwale",
      "latitude": -17.9582,
      "longitude": 25.9237,
      "distanceToNearestHospital": 7.4,
      "distanceToNearestSchool": 5.1,
      "primaryEconomicActivity": "Farming",
      "hasElectricity": true,
      "hasCleanWater": true
    },
    {
      "id": 48,
      "name": "Samfya 1",
      "chiefdom": "Chief Mukuni",
      "population": 9433,
      "numberOfHouseholds": 2923,
      "villageHead": "Mrs. Christine Kunda",
      "latitude": -17.7717,
      "longitude": 25.8337,
      "distanceToNearestHospital": 7.7,
      "distanceToNearestSchool": 2.7,
      "primaryEconomicActivity": "Mining",
      "hasElectricity": true,
      "hasCleanWater": true
    },
    {
      "id": 49,
      "name": "Nchelenge 1",
      "chiefdom": "Chief Mukuni",
      "population": 10738,
      "numberOfHouseholds": 1631,
      "villageHead": "Mr. Francis Chipanga",
      "latitude": -17.8097,
      "longitude": 25.8033,
      "distanceToNearestHospital": 19.7,
      "distanceToNearestSchool": 11.1,
      "primaryEconomicActivity": "Services",
      "hasElectricity": true,
      "hasCleanWater": false
    },
    {
      "id": 50,
      "name": "Kaputa 1",
      "chiefdom": "Chief Mukuni",
      "population": 11189,
      "numberOfHouseholds": 1198,
      "villageHead": "Mr. Anthony Mulenga",
      "latitude": -17.8986,
      "longitude": 25.8486,
      "distanceToNearestHospital": 22.5,
      "distanceToNearestSchool": 8.3,
      "primaryEconomicActivity": "Mining",
      "hasElectricity": true,
      "hasCleanWater": true
    }
  ],
  "infrastructure": [
    {
      "id": 1,
      "chiefdom": "Chief Mukuni",
      "facilityName": "Kabwe Facility 1",
      "facilityType": "Water Source",
      "village": "Nakonde",
      "capacity": 705,
      "currentUsage": 620,
      "status": "Operational",
      "latitude": -17.9551,
      "longitude": 25.8249,
      "lastMaintenance": "2025-09-15T15:00:30.848095"
    },
    {
      "id": 2,
      "chiefdom": "Chief Mukuni",
      "facilityName": "Katete Facility 2",
      "facilityType": "Water Source",
      "village": "Sikanze",
      "capacity": 94,
      "currentUsage": 875,
      "status": "Operational",
      "latitude": -17.859,
      "longitude": 25.7918,
      "lastMaintenance": "2025-12-06T15:00:30.848103"
    },
    {
      "id": 3,
      "chiefdom": "Chief Mukuni",
      "facilityName": "Vubwi Facility 3",
      "facilityType": "Hospital",
      "village": "Shangombo",
      "capacity": 389,
      "currentUsage": 831,
      "status": "Operational",
      "latitude": -17.7651,
      "longitude": 25.9228,
      "lastMaintenance": "2025-10-18T15:00:30.848110"
    },
    {
      "id": 4,
      "chiefdom": "Chief Mukuni",
      "facilityName": "Mwinilunga Facility 4",
      "facilityType": "Hospital",
      "village": "Mpongwe",
      "capacity": 209,
      "currentUsage": 950,
      "status": "Needs Repair",
      "latitude": -17.8328,
      "longitude": 25.8155,
      "lastMaintenance": "2025-11-16T15:00:30.848117"
    },
    {
      "id": 5,
      "chiefdom": "Chief Mukuni",
      "facilityName": "Mpongwe Facility 5",
      "facilityType": "Hospital",
      "village": "Mansa",
      "capacity": 903,
      "currentUsage": 739,
      "status": "Operational",
      "latitude": -17.7877,
      "longitude": 25.9216,
      "lastMaintenance": "2025-05-30T15:00:30.848124"
    },
    {
      "id": 6,
      "chiefdom": "Chief Mukuni",
      "facilityName": "Lukulu Facility 6",
      "facilityType": "Secondary School",
      "village": "Kaputa",
      "capacity": 1196,
      "currentUsage": 168,
      "status": "Operational",
      "latitude": -17.9342,
      "longitude": 25.8159,
      "lastMaintenance": "2025-07-05T15:00:30.848132"
    },
    {
      "id": 7,
      "chiefdom": "Chief Mukuni",
      "facilityName": "Kaunga Facility 7",
      "facilityType": "Primary School",
      "village": "Kanakantapa",
      "capacity": 1131,
      "currentUsage": 1000,
      "status": "Under Construction",
      "latitude": -17.7656,
      "longitude": 25.9047,
      "lastMaintenance": "2025-12-05T15:00:30.848140"
    },
    {
      "id": 8,
      "chiefdom": "Chief Mukuni",
      "facilityName": "Katete Facility 8",
      "facilityType": "Primary School",
      "village": "Mbala",
      "capacity": 1309,
      "currentUsage": 85,
      "status": "Needs Repair",
      "latitude": -17.7898,
      "longitude": 25.8241,
      "lastMaintenance": "2025-09-04T15:00:30.848147"
    },
    {
      "id": 9,
      "chiefdom": "Chief Mukuni",
      "facilityName": "Mwembezhi Facility 9",
      "facilityType": "Secondary School",
      "village": "Mbala",
      "capacity": 1292,
      "currentUsage": 777,
      "status": "Operational",
      "latitude": -17.9506,
      "longitude": 25.9381,
      "lastMaintenance": "2025-10-16T15:00:30.848154"
    },
    {
      "id": 10,
      "chiefdom": "Chief Mukuni",
      "facilityName": "Kasempa Facility 10",
      "facilityType": "Water Source",
      "village": "Kalomo",
      "capacity": 183,
      "currentUsage": 1353,
      "status": "Under Construction",
      "latitude": -17.763,
      "longitude": 25.7708,
      "lastMaintenance": "2025-09-01T15:00:30.848162"
    },
    {
      "id": 11,
      "chiefdom": "Chief Mukuni",
      "facilityName": "Mpika Facility 11",
      "facilityType": "Hospital",
      "village": "Mpika",
      "capacity": 1240,
      "currentUsage": 650,
      "status": "Under Construction",
      "latitude": -17.9008,
      "longitude": 25.8234,
      "lastMaintenance": "2025-02-05T15:00:30.848169"
    },
    {
      "id": 12,
      "chiefdom": "Chief Mukuni",
      "facilityName": "Chipata Facility 12",
      "facilityType": "Secondary School",
      "village": "Solwezi",
      "capacity": 628,
      "currentUsage": 770,
      "status": "Operational",
      "latitude": -17.7694,
      "longitude": 25.9161,
      "lastMaintenance": "2025-09-23T15:00:30.848176"
    },
    {
      "id": 13,
      "chiefdom": "Chief Mukuni",
      "facilityName": "Kabwe Facility 13",
      "facilityType": "Water Source",
      "village": "Mpika",
      "capacity": 248,
      "currentUsage": 1046,
      "status": "Under Construction",
      "latitude": -17.763,
      "longitude": 25.8175,
      "lastMaintenance": "2025-02-12T15:00:30.848182"
    },
    {
      "id": 14,
      "chiefdom": "Chief Mukuni",
      "facilityName": "Mufumbwe Facility 14",
      "facilityType": "Secondary School",
      "village": "Kawambwa",
      "capacity": 1249,
      "currentUsage": 330,
      "status": "Needs Repair",
      "latitude": -17.9307,
      "longitude": 25.8646,
      "lastMaintenance": "2026-01-17T15:00:30.848189"
    },
    {
      "id": 15,
      "chiefdom": "Chief Mukuni",
      "facilityName": "Kapiri Facility 15",
      "facilityType": "Primary School",
      "village": "Kalomo",
      "capacity": 726,
      "currentUsage": 394,
      "status": "Under Construction",
      "latitude": -17.8884,
      "longitude": 25.8421,
      "lastMaintenance": "2025-05-09T15:00:30.848196"
    },
    {
      "id": 16,
      "chiefdom": "Chief Mukuni",
      "facilityName": "Luwingu Facility 16",
      "facilityType": "Primary School",
      "village": "Mwembezhi",
      "capacity": 1404,
      "currentUsage": 142,
      "status": "Operational",
      "latitude": -17.8201,
      "longitude": 25.824,
      "lastMaintenance": "2025-01-22T15:00:30.848203"
    },
    {
      "id": 17,
      "chiefdom": "Chief Mukuni",
      "facilityName": "Solwezi Facility 17",
      "facilityType": "Primary School",
      "village": "Chingola",
      "capacity": 1259,
      "currentUsage": 1193,
      "status": "Operational",
      "latitude": -17.8402,
      "longitude": 25.8478,
      "lastMaintenance": "2025-12-14T15:00:30.848210"
    },
    {
      "id": 18,
      "chiefdom": "Chief Mukuni",
      "facilityName": "Choma Facility 18",
      "facilityType": "Clinic",
      "village": "Chilanga",
      "capacity": 771,
      "currentUsage": 155,
      "status": "Under Construction",
      "latitude": -17.8588,
      "longitude": 25.8427,
      "lastMaintenance": "2025-10-05T15:00:30.848217"
    },
    {
      "id": 19,
      "chiefdom": "Chief Mukuni",
      "facilityName": "Sinazongwe Facility 19",
      "facilityType": "Water Source",
      "village": "Livingstone",
      "capacity": 220,
      "currentUsage": 650,
      "status": "Needs Repair",
      "latitude": -17.8713,
      "longitude": 25.7637,
      "lastMaintenance": "2025-02-06T15:00:30.848225"
    },
    {
      "id": 20,
      "chiefdom": "Chief Mukuni",
      "facilityName": "Meanwood Facility 20",
      "facilityType": "Hospital",
      "village": "Kapiri",
      "capacity": 597,
      "currentUsage": 363,
      "status": "Needs Repair",
      "latitude": -17.7994,
      "longitude": 25.9396,
      "lastMaintenance": "2025-05-06T15:00:30.848232"
    },
    {
      "id": 21,
      "chiefdom": "Chief Mukuni",
      "facilityName": "Mumbwa Facility 21",
      "facilityType": "Clinic",
      "village": "Meanwood",
      "capacity": 1320,
      "currentUsage": 685,
      "status": "Needs Repair",
      "latitude": -17.8557,
      "longitude": 25.7726,
      "lastMaintenance": "2025-05-06T15:00:30.848238"
    },
    {
      "id": 22,
      "chiefdom": "Chief Mukuni",
      "facilityName": "Kabompo Facility 22",
      "facilityType": "Primary School",
      "village": "Mpika",
      "capacity": 1063,
      "currentUsage": 1282,
      "status": "Needs Repair",
      "latitude": -17.9572,
      "longitude": 25.8018,
      "lastMaintenance": "2025-04-28T15:00:30.848246"
    },
    {
      "id": 23,
      "chiefdom": "Chief Mukuni",
      "facilityName": "Nchelenge Facility 23",
      "facilityType": "Hospital",
      "village": "Kalomo",
      "capacity": 1140,
      "currentUsage": 760,
      "status": "Under Construction",
      "latitude": -17.9222,
      "longitude": 25.8511,
      "lastMaintenance": "2025-02-04T15:00:30.848253"
    },
    {
      "id": 24,
      "chiefdom": "Chief Mukuni",
      "facilityName": "Mufumbwe Facility 24",
      "facilityType": "Water Source",
      "village": "Mwembezhi",
      "capacity": 993,
      "currentUsage": 763,
      "status": "Operational",
      "latitude": -17.8983,
      "longitude": 25.9476,
      "lastMaintenance": "2025-12-12T15:00:30.848259"
    },
    {
      "id": 25,
      "chiefdom": "Chief Mukuni",
      "facilityName": "Lukulu Facility 25",
      "facilityType": "Water Source",
      "village": "Shimabala",
      "capacity": 833,
      "currentUsage": 649,
      "status": "Operational",
      "latitude": -17.808,
      "longitude": 25.8752,
      "lastMaintenance": "2025-05-02T15:00:30.848266"
    },
    {
      "id": 26,
      "chiefdom": "Chief Mukuni",
      "facilityName": "Sinazongwe Facility 26",
      "facilityType": "Water Source",
      "village": "Ngwerere",
      "capacity": 227,
      "currentUsage": 440,
      "status": "Under Construction",
      "latitude": -17.8188,
      "longitude": 25.7873,
      "lastMaintenance": "2025-08-01T15:00:30.848273"
    },
    {
      "id": 27,
      "chiefdom": "Chief Mukuni",
      "facilityName": "Makeni Facility 27",
      "facilityType": "Hospital",
      "village": "Munyumba",
      "capacity": 1446,
      "currentUsage": 1381,
      "status": "Operational",
      "latitude": -17.7859,
      "longitude": 25.9486,
      "lastMaintenance": "2025-03-26T15:00:30.848280"
    },
    {
      "id": 28,
      "chiefdom": "Chief Mukuni",
      "facilityName": "Shangombo Facility 28",
      "facilityType": "Hospital",
      "village": "Chinsali",
      "capacity": 1260,
      "currentUsage": 1476,
      "status": "Under Construction",
      "latitude": -17.8041,
      "longitude": 25.9513,
      "lastMaintenance": "2025-05-09T15:00:30.848287"
    },
    {
      "id": 29,
      "chiefdom": "Chief Mukuni",
      "facilityName": "Mufumbwe Facility 29",
      "facilityType": "Hospital",
      "village": "Luwingu",
      "capacity": 495,
      "currentUsage": 58,
      "status": "Under Construction",
      "latitude": -17.9397,
      "longitude": 25.886,
      "lastMaintenance": "2025-09-22T15:00:30.848293"
    },
    {
      "id": 30,
      "chiefdom": "Chief Mukuni",
      "facilityName": "Nakonde Facility 30",
      "facilityType": "Secondary School",
      "village": "Mwinilunga",
      "capacity": 142,
      "currentUsage": 1246,
      "status": "Under Construction",
      "latitude": -17.8196,
      "longitude": 25.7991,
      "lastMaintenance": "2025-09-19T15:00:30.848300"
    },
    {
      "id": 31,
      "chiefdom": "Chief Mukuni",
      "facilityName": "Zambezi Facility 31",
      "facilityType": "Primary School",
      "village": "Senanga",
      "capacity": 564,
      "currentUsage": 1197,
      "status": "Operational",
      "latitude": -17.8639,
      "longitude": 25.7614,
      "lastMaintenance": "2025-02-15T15:00:30.848307"
    },
    {
      "id": 32,
      "chiefdom": "Chief Mukuni",
      "facilityName": "Petauke Facility 32",
      "facilityType": "Secondary School",
      "village": "Choma",
      "capacity": 673,
      "currentUsage": 1210,
      "status": "Under Construction",
      "latitude": -17.8427,
      "longitude": 25.7979,
      "lastMaintenance": "2025-07-15T15:00:30.848314"
    },
    {
      "id": 33,
      "chiefdom": "Chief Mukuni",
      "facilityName": "Gwembe Facility 33",
      "facilityType": "Water Source",
      "village": "Chinsali",
      "capacity": 234,
      "currentUsage": 1270,
      "status": "Under Construction",
      "latitude": -17.822,
      "longitude": 25.8857,
      "lastMaintenance": "2025-11-10T15:00:30.848321"
    },
    {
      "id": 34,
      "chiefdom": "Chief Mukuni",
      "facilityName": "Kawambwa Facility 34",
      "facilityType": "Secondary School",
      "village": "Mkushi",
      "capacity": 58,
      "currentUsage": 1577,
      "status": "Operational",
      "latitude": -17.8184,
      "longitude": 25.7672,
      "lastMaintenance": "2025-02-24T15:00:30.848327"
    },
    {
      "id": 35,
      "chiefdom": "Chief Mukuni",
      "facilityName": "Sesheke Facility 35",
      "facilityType": "Clinic",
      "village": "Senanga",
      "capacity": 628,
      "currentUsage": 125,
      "status": "Needs Repair",
      "latitude": -17.833,
      "longitude": 25.7865,
      "lastMaintenance": "2025-05-31T15:00:30.848335"
    },
    {
      "id": 36,
      "chiefdom": "Chief Mukuni",
      "facilityName": "Kalabo Facility 36",
      "facilityType": "Secondary School",
      "village": "Serenje",
      "capacity": 68,
      "currentUsage": 605,
      "status": "Needs Repair",
      "latitude": -17.9521,
      "longitude": 25.9073,
      "lastMaintenance": "2025-02-15T15:00:30.848341"
    },
    {
      "id": 37,
      "chiefdom": "Chief Mukuni",
      "facilityName": "Munyumba Facility 37",
      "facilityType": "Hospital",
      "village": "Solwezi",
      "capacity": 1137,
      "currentUsage": 178,
      "status": "Operational",
      "latitude": -17.8018,
      "longitude": 25.8631,
      "lastMaintenance": "2025-01-25T15:00:30.848348"
    },
    {
      "id": 38,
      "chiefdom": "Chief Mukuni",
      "facilityName": "Mutumbi Facility 38",
      "facilityType": "Hospital",
      "village": "Kapiri",
      "capacity": 990,
      "currentUsage": 157,
      "status": "Needs Repair",
      "latitude": -17.8171,
      "longitude": 25.821,
      "lastMaintenance": "2025-05-05T15:00:30.848355"
    },
    {
      "id": 39,
      "chiefdom": "Chief Mukuni",
      "facilityName": "Mpanshya Facility 39",
      "facilityType": "Hospital",
      "village": "Chipapa",
      "capacity": 218,
      "currentUsage": 866,
      "status": "Under Construction",
      "latitude": -17.8772,
      "longitude": 25.9268,
      "lastMaintenance": "2025-06-15T15:00:30.848362"
    },
    {
      "id": 40,
      "chiefdom": "Chief Mukuni",
      "facilityName": "Luangwa Facility 40",
      "facilityType": "Hospital",
      "village": "Kaoma",
      "capacity": 287,
      "currentUsage": 132,
      "status": "Operational",
      "latitude": -17.848,
      "longitude": 25.9514,
      "lastMaintenance": "2025-08-06T15:00:30.848369"
    },
    {
      "id": 41,
      "chiefdom": "Chief Mukuni",
      "facilityName": "Livingstone Facility 41",
      "facilityType": "Primary School",
      "village": "Mpika",
      "capacity": 562,
      "currentUsage": 863,
      "status": "Operational",
      "latitude": -17.7851,
      "longitude": 25.783,
      "lastMaintenance": "2025-05-22T15:00:30.848376"
    },
    {
      "id": 42,
      "chiefdom": "Chief Mukuni",
      "facilityName": "Mongu Facility 42",
      "facilityType": "Water Source",
      "village": "Kabwe",
      "capacity": 347,
      "currentUsage": 423,
      "status": "Operational",
      "latitude": -17.8093,
      "longitude": 25.9063,
      "lastMaintenance": "2025-03-21T15:00:30.848383"
    },
    {
      "id": 43,
      "chiefdom": "Chief Mukuni",
      "facilityName": "Chinsali Facility 43",
      "facilityType": "Secondary School",
      "village": "Sinda",
      "capacity": 1425,
      "currentUsage": 106,
      "status": "Operational",
      "latitude": -17.8938,
      "longitude": 25.8209,
      "lastMaintenance": "2025-12-08T15:00:30.848390"
    },
    {
      "id": 44,
      "chiefdom": "Chief Mukuni",
      "facilityName": "Leopards Hill Facility 44",
      "facilityType": "Secondary School",
      "village": "Nyimba",
      "capacity": 1303,
      "currentUsage": 446,
      "status": "Under Construction",
      "latitude": -17.8969,
      "longitude": 25.913,
      "lastMaintenance": "2025-11-09T15:00:30.848397"
    },
    {
      "id": 45,
      "chiefdom": "Chief Mukuni",
      "facilityName": "Nchelenge Facility 45",
      "facilityType": "Secondary School",
      "village": "Kalomo",
      "capacity": 295,
      "currentUsage": 753,
      "status": "Needs Repair",
      "latitude": -17.8458,
      "longitude": 25.8224,
      "lastMaintenance": "2025-09-30T15:00:30.848404"
    },
    {
      "id": 46,
      "chiefdom": "Chief Mukuni",
      "facilityName": "Kitwe Facility 46",
      "facilityType": "Clinic",
      "village": "Chalimbana",
      "capacity": 215,
      "currentUsage": 1539,
      "status": "Needs Repair",
      "latitude": -17.8686,
      "longitude": 25.7913,
      "lastMaintenance": "2025-09-21T15:00:30.848411"
    },
    {
      "id": 47,
      "chiefdom": "Chief Mukuni",
      "facilityName": "Munyumba Facility 47",
      "facilityType": "Secondary School",
      "village": "Mumbwa",
      "capacity": 770,
      "currentUsage": 187,
      "status": "Under Construction",
      "latitude": -17.9118,
      "longitude": 25.9505,
      "lastMaintenance": "2026-01-10T15:00:30.848425"
    },
    {
      "id": 48,
      "chiefdom": "Chief Mukuni",
      "facilityName": "Luanshya Facility 48",
      "facilityType": "Primary School",
      "village": "Mongu",
      "capacity": 290,
      "currentUsage": 700,
      "status": "Under Construction",
      "latitude": -17.9314,
      "longitude": 25.9167,
      "lastMaintenance": "2025-01-31T15:00:30.848433"
    },
    {
      "id": 49,
      "chiefdom": "Chief Mukuni",
      "facilityName": "Sinda Facility 49",
      "facilityType": "Primary School",
      "village": "Ndola",
      "capacity": 267,
      "currentUsage": 367,
      "status": "Under Construction",
      "latitude": -17.8911,
      "longitude": 25.8931,
      "lastMaintenance": "2025-06-22T15:00:30.848439"
    },
    {
      "id": 50,
      "chiefdom": "Chief Mukuni",
      "facilityName": "Siavonga Facility 50",
      "facilityType": "Hospital",
      "village": "Nakatindi",
      "capacity": 1172,
      "currentUsage": 122,
      "status": "Needs Repair",
      "latitude": -17.8583,
      "longitude": 25.8837,
      "lastMaintenance": "2025-12-05T15:00:30.848446"
    }
  ]
}