{
  "roads": [
    {
      "id": 1,
      "chiefdom": "Chief Kasempa",
      "roadName": "Solwezi - Mazabuka Road",
      "roadType": "Gravel",
      "lengthKm": 25.4,
      "condition": "Poor",
      "trafficVolume": "Medium",
      "lastMaintenance": "2025-09-18T15:00:30.821058",
      "connectedVillages": [
        "Mutumbi",
        "Samfya",
        "Kapiri"
      ],
      "latitude": -13.4077,
      "longitude": 25.8085
    },
    {
      "id": 2,
      "chiefdom": "Chief Kasempa",
      "roadName": "Sinda - Kasempa Road",
      "roadType": "Paved",
      "lengthKm": 42.3,
      "condition": "Critical",
      "trafficVolume": "High",
      "lastMaintenance": "2025-06-06T15:00:30.821074",
      "connectedVillages": [
        "Chama",
        "Chainda",
        "Makeni"
      ],
      "latitude": -13.4006,
      "longitude": 25.8963
    },
    {
      "id": 3,
      "chiefdom": "Chief Kasempa",
      "roadName": "Kapiri - Mpongwe Road",
      "roadType": "Earth",
      "lengthKm": 50.0,
      "condition": "Good",
      "trafficVolume": "Low",
      "lastMaintenance": "2024-05-01T15:00:30.821084",
      "connectedVillages": [
        "Sinda",
        "Nakonde",
        "Kalabo",
        "Sinazongwe"
      ],
      "latitude": -13.5071,
      "longitude": 25.7979
    },
    {
      "id": 4,
      "chiefdom": "Chief Kasempa",
      "roadName": "Munyumba - Kasempa Road",
      "roadType": "Tarred",
      "lengthKm": 33.7,
      "condition": "Poor",
      "trafficVolume": "High",
      "lastMaintenance": "2024-04-03T15:00:30.821093",
      "connectedVillages": [
        "Kaunga",
        "Chililabombwe"
      ],
      "latitude": -13.4061,
      "longitude": 25.8551
    },
    {
      "id": 5,
      "chiefdom": "Chief Kasempa",
      "roadName": "Gwembe - Mongu Road",
      "roadType": "Paved",
      "lengthKm": 5.9,
      "condition": "Critical",
      "trafficVolume": "Medium",
      "lastMaintenance": "2024-02-17T15:00:30.821102",
      "connectedVillages": [
        "Sinazongwe",
        "Samfya",
        "Kalingalinga",
        "Chinsali"
      ],
      "latitude": -13.5519,
      "longitude": 25.8216
    },
    {
      "id": 6,
      "chiefdom": "Chief Kasempa",
      "roadName": "Chalimbana - Meanwood Road",
      "roadType": "Paved",
      "lengthKm": 28.5,
      "condition": "Poor",
      "trafficVolume": "Medium",
      "lastMaintenance": "2024-03-10T15:00:30.821112",
      "connectedVillages": [
        "Kitwe",
        "Mongu",
        "Siavonga",
        "Katete",
        "Ndola"
      ],
      "latitude": -13.4143,
      "longitude": 25.8328
    },
    {
      "id": 7,
      "chiefdom": "Chief Kasempa",
      "roadName": "Mkushi - Kawambwa Road",
      "roadType": "Paved",
      "lengthKm": 27.1,
      "condition": "Fair",
      "trafficVolume": "Low",
      "lastMaintenance": "2024-12-27T15:00:30.821121",
      "connectedVillages": [
        "Chinsali",
        "Sikanze",
        "Zambezi",
        "Lunsemfwa"
      ],
      "latitude": -13.4291,
      "longitude": 25.7692
    },
    {
      "id": 8,
      "chiefdom": "Chief Kasempa",
      "roadName": "Mufumbwe - Katete Road",
      "roadType": "Gravel",
      "lengthKm": 47.5,
      "condition": "Poor",
      "trafficVolume": "Low",
      "lastMaintenance": "2024-03-15T15:00:30.821130",
      "connectedVillages": [
        "Mongu",
        "Leopards Hill",
        "Pemba"
      ],
      "latitude": -13.5522,
      "longitude": 25.8305
    },
    {
      "id": 9,
      "chiefdom": "Chief Kasempa",
      "roadName": "Mutumbi - Kasempa Road",
      "roadType": "Earth",
      "lengthKm": 35.4,
      "condition": "Good",
      "trafficVolume": "Medium",
      "lastMaintenance": "2024-12-18T15:00:30.821139",
      "connectedVillages": [
        "Mpanshya",
        "Makeni"
      ],
      "latitude": -13.433,
      "longitude": 25.9252
    },
    {
      "id": 10,
      "chiefdom": "Chief Kasempa",
      "roadName": "Kaunga - Chalimbana Road",
      "roadType": "Tarred",
      "lengthKm": 39.3,
      "condition": "Fair",
      "trafficVolume": "High",
      "lastMaintenance": "2025-11-17T15:00:30.821148",
      "connectedVillages": [
        "Serenje",
        "Kabwe",
        "Mufumbwe",
        "Livingstone"
      ],
      "latitude": -13.3994,
      "longitude": 25.9318
    },
    {
      "id": 11,
      "chiefdom": "Chief Kasempa",
      "roadName": "Nakatindi - Kapiri Road",
      "roadType": "Gravel",
      "lengthKm": 6.3,
      "condition": "Fair",
      "trafficVolume": "Medium",
      "lastMaintenance": "2025-01-02T15:00:30.821157",
      "connectedVillages": [
        "Nyimba",
        "Lunsemfwa",
        "Luangwa"
      ],
      "latitude": -13.3809,
      "longitude": 25.7903
    },
    {
      "id": 12,
      "chiefdom": "Chief Kasempa",
      "roadName": "Nyimba - Lukulu Road",
      "roadType": "Gravel",
      "lengthKm": 43.3,
      "condition": "Critical",
      "trafficVolume": "Medium",
      "lastMaintenance": "2025-09-24T15:00:30.821166",
      "connectedVillages": [
        "Kaunga",
        "Chalimbana",
        "Mbala",
        "Mansa"
      ],
      "latitude": -13.5387,
      "longitude": 25.7539
    },
    {
      "id": 13,
      "chiefdom": "Chief Kasempa",
      "roadName": "Chalimbana - Mutumbi Road",
      "roadType": "Gravel",
      "lengthKm": 31.4,
      "condition": "Poor",
      "trafficVolume": "High",
      "lastMaintenance": "2025-01-19T15:00:30.821174",
      "connectedVillages": [
        "Vubwi",
        "Kasempa",
        "Nyimba",
        "Chalimbana"
      ],
      "latitude": -13.4598,
      "longitude": 25.7599
    },
    {
      "id": 14,
      "chiefdom": "Chief Kasempa",
      "roadName": "Vubwi - Palabana Road",
      "roadType": "Gravel",
      "lengthKm": 15.4,
      "condition": "Critical",
      "trafficVolume": "Low",
      "lastMaintenance": "2024-08-01T15:00:30.821184",
      "connectedVillages": [
        "Livingstone",
        "Kasama"
      ],
      "latitude": -13.3968,
      "longitude": 25.8333
    },
    {
      "id": 15,
      "chiefdom": "Chief Kasempa",
      "roadName": "Chilanga - Zambezi Road",
      "roadType": "Earth",
      "lengthKm": 10.5,
      "condition": "Poor",
      "trafficVolume": "Medium",
      "lastMaintenance": "2025-04-14T15:00:30.821192",
      "connectedVillages": [
        "Ndola",
        "Mporokoso",
        "Mbala",
        "Nyimba",
        "Isoka"
      ],
      "latitude": -13.4282,
      "longitude": 25.7945
    },
    {
      "id": 16,
      "chiefdom": "Chief Kasempa",
      "roadName": "Meanwood - Chililabombwe Road",
      "roadType": "Tarred",
      "lengthKm": 43.3,
      "condition": "Fair",
      "trafficVolume": "Low",
      "lastMaintenance": "2025-05-25T15:00:30.821202",
      "connectedVillages": [
        "Isoka",
        "Chadiza",
        "Mporokoso",
        "Lunsemfwa",
        "Mwembezhi"
      ],
      "latitude": -13.5375,
      "longitude": 25.811
    },
    {
      "id": 17,
      "chiefdom": "Chief Kasempa",
      "roadName": "Kaputa - Mansa Road",
      "roadType": "Gravel",
      "lengthKm": 39.1,
      "condition": "Good",
      "trafficVolume": "Low",
      "lastMaintenance": "2025-11-06T15:00:30.821211",
      "connectedVillages": [
        "Chalala",
        "Sinazongwe",
        "Gwembe"
      ],
      "latitude": -13.5374,
      "longitude": 25.8441
    },
    {
      "id": 18,
      "chiefdom": "Chief Kasempa",
      "roadName": "Lukulu - Mambwe Road",
      "roadType": "Tarred",
      "lengthKm": 49.9,
      "condition": "Critical",
      "trafficVolume": "Low",
      "lastMaintenance": "2024-02-04T15:00:30.821219",
      "connectedVillages": [
        "Mambwe",
        "Siavonga",
        "Mazabuka",
        "Chipapa",
        "Kalomo"
      ],
      "latitude": -13.5399,
      "longitude": 25.9296
    },
    {
      "id": 19,
      "chiefdom": "Chief Kasempa",
      "roadName": "Chongwe Central - Mpongwe Road",
      "roadType": "Earth",
      "lengthKm": 18.1,
      "condition": "Critical",
      "trafficVolume": "Low",
      "lastMaintenance": "2025-05-22T15:00:30.821229",
      "connectedVillages": [
        "Mpanshya",
        "Monze",
        "Pemba",
        "Katete"
      ],
      "latitude": -13.4893,
      "longitude": 25.8775
    },
    {
      "id": 20,
      "chiefdom": "Chief Kasempa",
      "roadName": "Chalimbana - Chalala Road",
      "roadType": "Tarred",
      "lengthKm": 19.5,
      "condition": "Good",
      "trafficVolume": "Medium",
      "lastMaintenance": "2025-07-26T15:00:30.821238",
      "connectedVillages": [
        "Monze",
        "Lunsemfwa",
        "Chingola"
      ],
      "latitude": -13.468,
      "longitude": 25.8085
    },
    {
      "id": 21,
      "chiefdom": "Chief Kasempa",
      "roadName": "Chipapa - Solwezi Road",
      "roadType": "Paved",
      "lengthKm": 43.4,
      "condition": "Critical",
      "trafficVolume": "High",
      "lastMaintenance": "2025-08-31T15:00:30.821247",
      "connectedVillages": [
        "Munyumba",
        "Monze",
        "Mufumbwe"
      ],
      "latitude": -13.4982,
      "longitude": 25.9203
    },
    {
      "id": 22,
      "chiefdom": "Chief Kasempa",
      "roadName": "Chalala - Gwembe Road",
      "roadType": "Earth",
      "lengthKm": 33.7,
      "condition": "Fair",
      "trafficVolume": "High",
      "lastMaintenance": "2025-05-10T15:00:30.821255",
      "connectedVillages": [
        "Kalulushi",
        "Siavonga",
        "Shangombo"
      ],
      "latitude": -13.5584,
      "longitude": 25.9015
    },
    {
      "id": 23,
      "chiefdom": "Chief Kasempa",
      "roadName": "Nchelenge - Chainda Road",
      "roadType": "Tarred",
      "lengthKm": 31.5,
      "condition": "Fair",
      "trafficVolume": "High",
      "lastMaintenance": "2024-05-19T15:00:30.821264",
      "connectedVillages": [
        "Kasama",
        "Chinsali",
        "Lilayi"
      ],
      "latitude": -13.3751,
      "longitude": 25.8553
    },
    {
      "id": 24,
      "chiefdom": "Chief Kasempa",
      "roadName": "Petauke - Sesheke Road",
      "roadType": "Paved",
      "lengthKm": 10.7,
      "condition": "Good",
      "trafficVolume": "Low",
      "lastMaintenance": "2024-04-15T15:00:30.821273",
      "connectedVillages": [
        "Nakonde",
        "Leopards Hill"
      ],
      "latitude": -13.3789,
      "longitude": 25.9091
    },
    {
      "id": 25,
      "chiefdom": "Chief Kasempa",
      "roadName": "Luwingu - Shangombo Road",
      "roadType": "Earth",
      "lengthKm": 24.5,
      "condition": "Critical",
      "trafficVolume": "Medium",
      "lastMaintenance": "2025-01-21T15:00:30.821281",
      "connectedVillages": [
        "Kalomo",
        "Mpanshya",
        "Choma",
        "Chongwe Central"
      ],
      "latitude": -13.4043,
      "longitude": 25.9297
    },
    {
      "id": 26,
      "chiefdom": "Chief Kasempa",
      "roadName": "Kawambwa - Chinsali Road",
      "roadType": "Tarred",
      "lengthKm": 9.3,
      "condition": "Fair",
      "trafficVolume": "Low",
      "lastMaintenance": "2024-11-04T15:00:30.821290",
      "connectedVillages": [
        "Kalulushi",
        "Samfya",
        "Chipapa",
        "Gwembe",
        "Kaunga"
      ],
      "latitude": -13.5376,
      "longitude": 25.876
    },
    {
      "id": 27,
      "chiefdom": "Chief Kasempa",
      "roadName": "Mpika - Mumbwa Road",
      "roadType": "Tarred",
      "lengthKm": 15.5,
      "condition": "Poor",
      "trafficVolume": "Low",
      "lastMaintenance": "2024-02-13T15:00:30.821299",
      "connectedVillages": [
        "Kaoma",
        "Shangombo",
        "Mufumbwe",
        "Gwembe"
      ],
      "latitude": -13.3969,
      "longitude": 25.8265
    },
    {
      "id": 28,
      "chiefdom": "Chief Kasempa",
      "roadName": "Nakonde - Chadiza Road",
      "roadType": "Paved",
      "lengthKm": 9.3,
      "condition": "Poor",
      "trafficVolume": "Low",
      "lastMaintenance": "2024-10-12T15:00:30.821308",
      "connectedVillages": [
        "Kasempa",
        "Mporokoso",
        "Kabompo",
        "Mpanshya"
      ],
      "latitude": -13.4917,
      "longitude": 25.8599
    },
    {
      "id": 29,
      "chiefdom": "Chief Kasempa",
      "roadName": "Nakonde - Kawambwa Road",
      "roadType": "Earth",
      "lengthKm": 24.9,
      "condition": "Fair",
      "trafficVolume": "High",
      "lastMaintenance": "2025-11-29T15:00:30.821317",
      "connectedVillages": [
        "Kasempa",
        "Chibombo",
        "Chingola"
      ],
      "latitude": -13.5043,
      "longitude": 25.761
    },
    {
      "id": 30,
      "chiefdom": "Chief Kasempa",
      "roadName": "Kasama - Zambezi Road",
      "roadType": "Tarred",
      "lengthKm": 18.7,
      "condition": "Poor",
      "trafficVolume": "Medium",
      "lastMaintenance": "2024-04-16T15:00:30.821326",
      "connectedVillages": [
        "Mpongwe",
        "Leopards Hill"
      ],
      "latitude": -13.4614,
      "longitude": 25.8287
    },
    {
      "id": 31,
      "chiefdom": "Chief Kasempa",
      "roadName": "Kasempa - Mongu Road",
      "roadType": "Tarred",
      "lengthKm": 18.1,
      "condition": "Poor",
      "trafficVolume": "High",
      "lastMaintenance": "2024-06-09T15:00:30.821334",
      "connectedVillages": [
        "Katete",
        "Shangombo",
        "Kasama",
        "Lunsemfwa",
        "Chisamba"
      ],
      "latitude": -13.4165,
      "longitude": 25.8602
    },
    {
      "id": 32,
      "chiefdom": "Chief Kasempa",
      "roadName": "Senanga - Mpongwe Road",
      "roadType": "Paved",
      "lengthKm": 6.0,
      "condition": "Good",
      "trafficVolume": "Medium",
      "lastMaintenance": "2024-04-18T15:00:30.821343",
      "connectedVillages": [
        "Kafue Riverside",
        "Chongwe Central",
        "Mpongwe"
      ],
      "latitude": -13.3833,
      "longitude": 25.8341
    },
    {
      "id": 33,
      "chiefdom": "Chief Kasempa",
      "roadName": "Luwingu - Kabompo Road",
      "roadType": "Paved",
      "lengthKm": 39.2,
      "condition": "Fair",
      "trafficVolume": "High",
      "lastMaintenance": "2025-10-24T15:00:30.821352",
      "connectedVillages": [
        "Nakonde",
        "Senanga",
        "Kaunga"
      ],
      "latitude": -13.4093,
      "longitude": 25.9295
    },
    {
      "id": 34,
      "chiefdom": "Chief Kasempa",
      "roadName": "Mutumbi - Mpika Road",
      "roadType": "Tarred",
      "lengthKm": 22.5,
      "condition": "Fair",
      "trafficVolume": "High",
      "lastMaintenance": "2025-08-29T15:00:30.821361",
      "connectedVillages": [
        "Chipapa",
        "Kasempa",
        "Munyumba",
        "Mkushi"
      ],
      "latitude": -13.4493,
      "longitude": 25.8024
    },
    {
      "id": 35,
      "chiefdom": "Chief Kasempa",
      "roadName": "Serenje - Mambwe Road",
      "roadType": "Earth",
      "lengthKm": 30.3,
      "condition": "Poor",
      "trafficVolume": "High",
      "lastMaintenance": "2024-12-10T15:00:30.821370",
      "connectedVillages": [
        "Mpanshya",
        "Mazabuka",
        "Sinda"
      ],
      "latitude": -13.4697,
      "longitude": 25.9253
    },
    {
      "id": 36,
      "chiefdom": "Chief Kasempa",
      "roadName": "Shimabala - Kabompo Road",
      "roadType": "Gravel",
      "lengthKm": 38.6,
      "condition": "Critical",
      "trafficVolume": "Medium",
      "lastMaintenance": "2024-07-01T15:00:30.821379",
      "connectedVillages": [
        "Mongu",
        "Luangwa",
        "Kitwe",
        "Chililabombwe",
        "Mpika"
      ],
      "latitude": -13.5234,
      "longitude": 25.7609
    },
    {
      "id": 37,
      "chiefdom": "Chief Kasempa",
      "roadName": "Chalala - Chadiza Road",
      "roadType": "Paved",
      "lengthKm": 49.6,
      "condition": "Critical",
      "trafficVolume": "High",
      "lastMaintenance": "2024-06-29T15:00:30.821388",
      "connectedVillages": [
        "Mansa",
        "Mufulira"
      ],
      "latitude": -13.4156,
      "longitude": 25.8825
    },
    {
      "id": 38,
      "chiefdom": "Chief Kasempa",
      "roadName": "Mazabuka - Mbabala Road",
      "roadType": "Earth",
      "lengthKm": 39.6,
      "condition": "Poor",
      "trafficVolume": "High",
      "lastMaintenance": "2024-03-20T15:00:30.821397",
      "connectedVillages": [
        "Petauke",
        "Mbala",
        "Chipapa",
        "Munyumba",
        "Nyimba"
      ],
      "latitude": -13.4004,
      "longitude": 25.8007
    },
    {
      "id": 39,
      "chiefdom": "Chief Kasempa",
      "roadName": "Mazabuka - Petauke Road",
      "roadType": "Tarred",
      "lengthKm": 22.3,
      "condition": "Fair",
      "trafficVolume": "Low",
      "lastMaintenance": "2025-12-30T15:00:30.821407",
      "connectedVillages": [
        "Sikanze",
        "Kalomo",
        "Choma",
        "Kaoma",
        "Luangwa"
      ],
      "latitude": -13.3872,
      "longitude": 25.8901
    },
    {
      "id": 40,
      "chiefdom": "Chief Kasempa",
      "roadName": "Lukulu - Chingola Road",
      "roadType": "Paved",
      "lengthKm": 26.4,
      "condition": "Poor",
      "trafficVolume": "Low",
      "lastMaintenance": "2024-04-06T15:00:30.821422",
      "connectedVillages": [
        "Mwinilunga",
        "Pemba"
      ],
      "latitude": -13.5215,
      "longitude": 25.7612
    },
    {
      "id": 41,
      "chiefdom": "Chief Kasempa",
      "roadName": "Gwembe - Mansa Road",
      "roadType": "Gravel",
      "lengthKm": 9.2,
      "condition": "Good",
      "trafficVolume": "Medium",
      "lastMaintenance": "2025-06-21T15:00:30.821431",
      "connectedVillages": [
        "Samfya",
        "Chainda",
        "Luwingu",
        "Mkushi"
      ],
      "latitude": -13.4141,
      "longitude": 25.7854
    },
    {
      "id": 42,
      "chiefdom": "Chief Kasempa",
      "roadName": "Chililabombwe - Solwezi Road",
      "roadType": "Earth",
      "lengthKm": 15.9,
      "condition": "Critical",
      "trafficVolume": "High",
      "lastMaintenance": "2024-04-12T15:00:30.821440",
      "connectedVillages": [
        "Kaoma",
        "Solwezi"
      ],
      "latitude": -13.493,
      "longitude": 25.8403
    },
    {
      "id": 43,
      "chiefdom": "Chief Kasempa",
      "roadName": "Mufumbwe - Isoka Road",
      "roadType": "Gravel",
      "lengthKm": 35.7,
      "condition": "Fair",
      "trafficVolume": "Low",
      "lastMaintenance": "2025-02-09T15:00:30.821449",
      "connectedVillages": [
        "Mufumbwe",
        "Mkushi",
        "Katete",
        "Monze",
        "Nakatindi"
      ],
      "latitude": -13.4129,
      "longitude": 25.9054
    },
    {
      "id": 44,
      "chiefdom": "Chief Kasempa",
      "roadName": "Mumbwa - Mbala Road",
      "roadType": "Paved",
      "lengthKm": 38.0,
      "condition": "Fair",
      "trafficVolume": "Medium",
      "lastMaintenance": "2025-10-31T15:00:30.821458",
      "connectedVillages": [
        "Chilanga",
        "Kasempa",
        "Chalala",
        "Kafue Riverside",
        "Chisamba"
      ],
      "latitude": -13.4226,
      "longitude": 25.8886
    },
    {
      "id": 45,
      "chiefdom": "Chief Kasempa",
      "roadName": "Luanshya - Pemba Road",
      "roadType": "Tarred",
      "lengthKm": 35.4,
      "condition": "Poor",
      "trafficVolume": "High",
      "lastMaintenance": "2025-12-15T15:00:30.821468",
      "connectedVillages": [
        "Chibombo",
        "Kalabo"
      ],
      "latitude": -13.3706,
      "longitude": 25.7557
    },
    {
      "id": 46,
      "chiefdom": "Chief Kasempa",
      "roadName": "Chililabombwe - Solwezi Road",
      "roadType": "Tarred",
      "lengthKm": 11.4,
      "condition": "Fair",
      "trafficVolume": "Low",
      "lastMaintenance": "2024-05-27T15:00:30.821477",
      "connectedVillages": [
        "Nakatindi",
        "Mporokoso",
        "Mbabala",
        "Makeni"
      ],
      "latitude": -13.5053,
      "longitude": 25.7636
    },
    {
      "id": 47,
      "chiefdom": "Chief Kasempa",
      "roadName": "Serenje - Siavonga Road",
      "roadType": "Paved",
      "lengthKm": 40.8,
      "condition": "Critical",
      "trafficVolume": "Low",
      "lastMaintenance": "2025-11-29T15:00:30.821486",
      "connectedVillages": [
        "Mpongwe",
        "Gwembe",
        "Mwinilunga"
      ],
      "latitude": -13.4622,
      "longitude": 25.7489
    },
    {
      "id": 48,
      "chiefdom": "Chief Kasempa",
      "roadName": "Mbabala - Shangombo Road",
      "roadType": "Earth",
      "lengthKm": 20.9,
      "condition": "Good",
      "trafficVolume": "High",
      "lastMaintenance": "2025-09-25T15:00:30.821495",
      "connectedVillages": [
        "Lunsemfwa",
        "Chalala",
        "Chalimbana",
        "Nyimba",
        "Kasama"
      ],
      "latitude": -13.4497,
      "longitude": 25.9049
    },
    {
      "id": 49,
      "chiefdom": "Chief Kasempa",
      "roadName": "Chilanga - Ndola Road",
      "roadType": "Gravel",
      "lengthKm": 7.3,
      "condition": "Fair",
      "trafficVolume": "Medium",
      "lastMaintenance": "2024-09-06T15:00:30.821504",
      "connectedVillages": [
        "Shimabala",
        "Vubwi",
        "Munyumba",
        "Sesheke"
      ],
      "latitude": -13.4458,
      "longitude": 25.7891
    },
    {
      "id": 50,
      "chiefdom": "Chief Kasempa",
      "roadName": "Sinda - Mkushi Road",
      "roadType": "Tarred",
      "lengthKm": 33.9,
      "condition": "Good",
      "trafficVolume": "High",
      "lastMaintenance": "2024-12-12T15:00:30.821513",
      "connectedVillages": [
        "Kalomo",
        "Katoba",
        "Chibombo",
        "Kaoma",
        "Chipapa"
      ],
      "latitude": -13.3843,
      "longitude": 25.7878
    }
  ],
  "communicationTowers": [
    {
      "id": 1,
      "chiefdom": "Chief Kasempa",
      "towerName": "Mkushi Tower 1",
      "operator": "Zamtel",
      "towerType": "4G",
      "coverageRadius": 15.4,
      "populationCovered": 16049,
      "status": "Maintenance",
      "latitude": -13.4119,
      "longitude": 25.842,
      "installationDate": "2021-03-31T15:00:30.821524"
    },
    {
      "id": 2,
      "chiefdom": "Chief Kasempa",
      "towerName": "Chipapa Tower 2",
      "operator": "Airtel",
      "towerType": "2G",
      "coverageRadius": 11.7,
      "populationCovered": 11056,
      "status": "Operational",
      "latitude": -13.5468,
      "longitude": 25.9263,
      "installationDate": "2025-06-04T15:00:30.821532"
    },
    {
      "id": 3,
      "chiefdom": "Chief Kasempa",
      "towerName": "Kalabo Tower 3",
      "operator": "Zamtel",
      "towerType": "4G",
      "coverageRadius": 18.0,
      "populationCovered": 23094,
      "status": "Operational",
      "latitude": -13.4758,
      "longitude": 25.9037,
      "installationDate": "2022-05-20T15:00:30.821539"
    },
    {
      "id": 4,
      "chiefdom": "Chief Kasempa",
      "towerName": "Monze Tower 4",
      "operator": "Zamtel",
      "towerType": "4G",
      "coverageRadius": 9.1,
      "populationCovered": 20750,
      "status": "Maintenance",
      "latitude": -13.4832,
      "longitude": 25.7931,
      "installationDate": "2025-06-23T15:00:30.821547"
    },
    {
      "id": 5,
      "chiefdom": "Chief Kasempa",
      "towerName": "Katete Tower 5",
      "operator": "MTN",
      "towerType": "2G",
      "coverageRadius": 16.2,
      "populationCovered": 20486,
      "status": "Planned",
      "latitude": -13.4203,
      "longitude": 25.8957,
      "installationDate": "2025-11-16T15:00:30.821554"
    },
    {
      "id": 6,
      "chiefdom": "Chief Kasempa",
      "towerName": "Mpanshya Tower 6",
      "operator": "MTN",
      "towerType": "3G",
      "coverageRadius": 14.8,
      "populationCovered": 13806,
      "status": "Operational",
      "latitude": -13.441,
      "longitude": 25.8724,
      "installationDate": "2023-09-25T15:00:30.821561"
    },
    {
      "id": 7,
      "chiefdom": "Chief Kasempa",
      "towerName": "Makeni Tower 7",
      "operator": "MTN",
      "towerType": "3G",
      "coverageRadius": 15.8,
      "populationCovered": 6452,
      "status": "Maintenance",
      "latitude": -13.4729,
      "longitude": 25.7639,
      "installationDate": "2023-01-08T15:00:30.821568"
    },
    {
      "id": 8,
      "chiefdom": "Chief Kasempa",
      "towerName": "Kapiri Tower 8",
      "operator": "MTN",
      "towerType": "2G",
      "coverageRadius": 14.1,
      "populationCovered": 18251,
      "status": "Operational",
      "latitude": -13.5307,
      "longitude": 25.8575,
      "installationDate": "2025-01-24T15:00:30.821575"
    },
    {
      "id": 9,
      "chiefdom": "Chief Kasempa",
      "towerName": "Chipapa Tower 9",
      "operator": "Zamtel",
      "towerType": "3G",
      "coverageRadius": 6.7,
      "populationCovered": 8425,
      "status": "Maintenance",
      "latitude": -13.4203,
      "longitude": 25.9195,
      "installationDate": "2024-08-23T15:00:30.821582"
    },
    {
      "id": 10,
      "chiefdom": "Chief Kasempa",
      "towerName": "Chongwe Central Tower 10",
      "operator": "Zamtel",
      "towerType": "3G",
      "coverageRadius": 9.5,
      "populationCovered": 3457,
      "status": "Planned",
      "latitude": -13.5037,
      "longitude": 25.8076,
      "installationDate": "2021-07-11T15:00:30.821590"
    },
    {
      "id": 11,
      "chiefdom": "Chief Kasempa",
      "towerName": "Nakatindi Tower 11",
      "operator": "MTN",
      "towerType": "4G",
      "coverageRadius": 13.9,
      "populationCovered": 18465,
      "status": "Planned",
      "latitude": -13.3839,
      "longitude": 25.9083,
      "installationDate": "2023-02-13T15:00:30.821597"
    },
    {
      "id": 12,
      "chiefdom": "Chief Kasempa",
      "towerName": "Mazabuka Tower 12",
      "operator": "Airtel",
      "towerType": "3G",
      "coverageRadius": 12.4,
      "populationCovered": 23888,
      "status": "Maintenance",
      "latitude": -13.448,
      "longitude": 25.7843,
      "installationDate": "2021-08-17T15:00:30.821604"
    },
    {
      "id": 13,
      "chiefdom": "Chief Kasempa",
      "towerName": "Lukulu Tower 13",
      "operator": "Airtel",
      "towerType": "4G",
      "coverageRadius": 5.8,
      "populationCovered": 6792,
      "status": "Operational",
      "latitude": -13.4335,
      "longitude": 25.7501,
      "installationDate": "2025-07-22T15:00:30.821611"
    },
    {
      "id": 14,
      "chiefdom": "Chief Kasempa",
      "towerName": "Mbabala Tower 14",
      "operator": "Zamtel",
      "towerType": "4G",
      "coverageRadius": 18.1,
      "populationCovered": 8362,
      "status": "Operational",
      "latitude": -13.4674,
      "longitude": 25.8661,
      "installationDate": "2023-05-11T15:00:30.821618"
    },
    {
      "id": 15,
      "chiefdom": "Chief Kasempa",
      "towerName": "Mumbwa Tower 15",
      "operator": "Zamtel",
      "towerType": "4G",
      "coverageRadius": 12.1,
      "populationCovered": 3948,
      "status": "Operational",
      "latitude": -13.3752,
      "longitude": 25.8131,
      "installationDate": "2025-11-20T15:00:30.821624"
    },
    {
      "id": 16,
      "chiefdom": "Chief Kasempa",
      "towerName": "Mwinilunga Tower 16",
      "operator": "Zamtel",
      "towerType": "2G",
      "coverageRadius": 9.8,
      "populationCovered": 21829,
      "status": "Planned",
      "latitude": -13.4539,
      "longitude": 25.8631,
      "installationDate": "2024-02-27T15:00:30.821631"
    },
    {
      "id": 17,
      "chiefdom": "Chief Kasempa",
      "towerName": "Mongu Tower 17",
      "operator": "Airtel",
      "towerType": "4G",
      "coverageRadius": 19.0,
      "populationCovered": 16082,
      "status": "Operational",
      "latitude": -13.409,
      "longitude": 25.9307,
      "installationDate": "2022-07-09T15:00:30.821638"
    },
    {
      "id": 18,
      "chiefdom": "Chief Kasempa",
      "towerName": "Chipapa Tower 18",
      "operator": "Zamtel",
      "towerType": "3G",
      "coverageRadius": 19.9,
      "populationCovered": 11908,
      "status": "Maintenance",
      "latitude": -13.5145,
      "longitude": 25.7578,
      "installationDate": "2024-05-18T15:00:30.821645"
    },
    {
      "id": 19,
      "chiefdom": "Chief Kasempa",
      "towerName": "Meanwood Tower 19",
      "operator": "Zamtel",
      "towerType": "3G",
      "coverageRadius": 11.7,
      "populationCovered": 24410,
      "status": "Operational",
      "latitude": -13.49,
      "longitude": 25.8081,
      "installationDate": "2024-07-10T15:00:30.821652"
    },
    {
      "id": 20,
      "chiefdom": "Chief Kasempa",
      "towerName": "Nyimba Tower 20",
      "operator": "Zamtel",
      "towerType": "3G",
      "coverageRadius": 9.2,
      "populationCovered": 8638,
      "status": "Planned",
      "latitude": -13.4991,
      "longitude": 25.7548,
      "installationDate": "2022-10-12T15:00:30.821659"
    },
    {
      "id": 21,
      "chiefdom": "Chief Kasempa",
      "towerName": "Mkushi Tower 21",
      "operator": "MTN",
      "towerType": "4G",
      "coverageRadius": 5.1,
      "populationCovered": 4603,
      "status": "Operational",
      "latitude": -13.5571,
      "longitude": 25.796,
      "installationDate": "2024-10-12T15:00:30.821666"
    },
    {
      "id": 22,
      "chiefdom": "Chief Kasempa",
      "towerName": "Mumbwa Tower 22",
      "operator": "MTN",
      "towerType": "3G",
      "coverageRadius": 17.0,
      "populationCovered": 16742,
      "status": "Maintenance",
      "latitude": -13.4859,
      "longitude": 25.75,
      "installationDate": "2022-09-05T15:00:30.821725"
    },
    {
      "id": 23,
      "chiefdom": "Chief Kasempa",
      "towerName": "Chipata Tower 23",
      "operator": "Airtel",
      "towerType": "2G",
      "coverageRadius": 17.9,
      "populationCovered": 4231,
      "status": "Planned",
      "latitude": -13.4439,
      "longitude": 25.8188,
      "installationDate": "2024-07-23T15:00:30.821733"
    },
    {
      "id": 24,
      "chiefdom": "Chief Kasempa",
      "towerName": "Mambwe Tower 24",
      "operator": "MTN",
      "towerType": "2G",
      "coverageRadius": 19.1,
      "populationCovered": 12265,
      "status": "Maintenance",
      "latitude": -13.3865,
      "longitude": 25.7734,
      "installationDate": "2023-03-15T15:00:30.821741"
    },
    {
      "id": 25,
      "chiefdom": "Chief Kasempa",
      "towerName": "Luanshya Tower 25",
      "operator": "Airtel",
      "towerType": "3G",
      "coverageRadius": 11.1,
      "populationCovered": 24150,
      "status": "Planned",
      "latitude": -13.3631,
      "longitude": 25.8637,
      "installationDate": "2025-02-17T15:00:30.821749"
    },
    {
      "id": 26,
      "chiefdom": "Chief Kasempa",
      "towerName": "Chalimbana Tower 26",
      "operator": "Zamtel",
      "towerType": "3G",
      "coverageRadius": 11.5,
      "populationCovered": 4772,
      "status": "Maintenance",
      "latitude": -13.5092,
      "longitude": 25.8197,
      "installationDate": "2024-06-23T15:00:30.821756"
    },
    {
      "id": 27,
      "chiefdom": "Chief Kasempa",
      "towerName": "Nyimba Tower 27",
      "operator": "Zamtel",
      "towerType": "2G",
      "coverageRadius": 18.4,
      "populationCovered": 16446,
      "status": "Planned",
      "latitude": -13.5271,
      "longitude": 25.8151,
      "installationDate": "2021-02-14T15:00:30.821763"
    },
    {
      "id": 28,
      "chiefdom": "Chief Kasempa",
      "towerName": "Luwingu Tower 28",
      "operator": "MTN",
      "towerType": "4G",
      "coverageRadius": 7.5,
      "populationCovered": 17219,
      "status": "Operational",
      "latitude": -13.3894,
      "longitude": 25.805,
      "installationDate": "2023-10-15T15:00:30.821770"
    },
    {
      "id": 29,
      "chiefdom": "Chief Kasempa",
      "towerName": "Monze Tower 29",
      "operator": "Zamtel",
      "towerType": "4G",
      "coverageRadius": 19.0,
      "populationCovered": 10294,
      "status": "Operational",
      "latitude": -13.4334,
      "longitude": 25.9062,
      "installationDate": "2025-05-20T15:00:30.821777"
    },
    {
      "id": 30,
      "chiefdom": "Chief Kasempa",
      "towerName": "Shimabala Tower 30",
      "operator": "Airtel",
      "towerType": "3G",
      "coverageRadius": 19.5,
      "populationCovered": 22412,
      "status": "Maintenance",
      "latitude": -13.5444,
      "longitude": 25.7537,
      "installationDate": "2021-02-16T15:00:30.821785"
    },
    {
      "id": 31,
      "chiefdom": "Chief Kasempa",
      "towerName": "Shimabala Tower 31",
      "operator": "MTN",
      "towerType": "2G",
      "coverageRadius": 14.4,
      "populationCovered": 18373,
      "status": "Planned",
      "latitude": -13.5001,
      "longitude": 25.8412,
      "installationDate": "2024-04-21T15:00:30.821792"
    },
    {
      "id": 32,
      "chiefdom": "Chief Kasempa",
      "towerName": "Mwinilunga Tower 32",
      "operator": "Airtel",
      "towerType": "2G",
      "coverageRadius": 9.1,
      "populationCovered": 13971,
      "status": "Operational",
      "latitude": -13.4903,
      "longitude": 25.7497,
      "installationDate": "2024-06-20T15:00:30.821799"
    },
    {
      "id": 33,
      "chiefdom": "Chief Kasempa",
      "towerName": "Kapiri Tower 33",
      "operator": "Zamtel",
      "towerType": "2G",
      "coverageRadius": 9.1,
      "populationCovered": 13434,
      "status": "Maintenance",
      "latitude": -13.4758,
      "longitude": 25.7537,
      "installationDate": "2024-06-06T15:00:30.821806"
    },
    {
      "id": 34,
      "chiefdom": "Chief Kasempa",
      "towerName": "Chinsali Tower 34",
      "operator": "Airtel",
      "towerType": "3G",
      "coverageRadius": 6.3,
      "populationCovered": 9292,
      "status": "Planned",
      "latitude": -13.4412,
      "longitude": 25.753,
      "installationDate": "2024-09-10T15:00:30.821813"
    },
    {
      "id": 35,
      "chiefdom": "Chief Kasempa",
      "towerName": "Kalabo Tower 35",
      "operator": "MTN",
      "towerType": "4G",
      "coverageRadius": 17.6,
      "populationCovered": 4425,
      "status": "Planned",
      "latitude": -13.4598,
      "longitude": 25.7619,
      "installationDate": "2021-04-16T15:00:30.821820"
    },
    {
      "id": 36,
      "chiefdom": "Chief Kasempa",
      "towerName": "Nakonde Tower 36",
      "operator": "MTN",
      "towerType": "4G",
      "coverageRadius": 5.5,
      "populationCovered": 7520,
      "status": "Maintenance",
      "latitude": -13.5377,
      "longitude": 25.8851,
      "installationDate": "2023-10-10T15:00:30.821827"
    },
    {
      "id": 37,
      "chiefdom": "Chief Kasempa",
      "towerName": "Chililabombwe Tower 37",
      "operator": "MTN",
      "towerType": "4G",
      "coverageRadius": 13.0,
      "populationCovered": 22073,
      "status": "Maintenance",
      "latitude": -13.539,
      "longitude": 25.914,
      "installationDate": "2023-06-14T15:00:30.821834"
    },
    {
      "id": 38,
      "chiefdom": "Chief Kasempa",
      "towerName": "Mkushi Tower 38",
      "operator": "Airtel",
      "towerType": "3G",
      "coverageRadius": 19.3,
      "populationCovered": 9039,
      "status": "Maintenance",
      "latitude": -13.4864,
      "longitude": 25.772,
      "installationDate": "2025-09-22T15:00:30.821841"
    },
    {
      "id": 39,
      "chiefdom": "Chief Kasempa",
      "towerName": "Nyimba Tower 39",
      "operator": "Zamtel",
      "towerType": "3G",
      "coverageRadius": 9.3,
      "populationCovered": 4263,
      "status": "Operational",
      "latitude": -13.4444,
      "longitude": 25.8214,
      "installationDate": "2023-08-23T15:00:30.821848"
    },
    {
      "id": 40,
      "chiefdom": "Chief Kasempa",
      "towerName": "Kasama Tower 40",
      "operator": "MTN",
      "towerType": "4G",
      "coverageRadius": 9.9,
      "populationCovered": 22656,
      "status": "Operational",
      "latitude": -13.4792,
      "longitude": 25.9297,
      "installationDate": "2022-08-03T15:00:30.821855"
    },
    {
      "id": 41,
      "chiefdom": "Chief Kasempa",
      "towerName": "Palabana Tower 41",
      "operator": "Airtel",
      "towerType": "4G",
      "coverageRadius": 7.9,
      "populationCovered": 10681,
      "status": "Planned",
      "latitude": -13.4607,
      "longitude": 25.8472,
      "installationDate": "2025-11-25T15:00:30.821862"
    },
    {
      "id": 42,
      "chiefdom": "Chief Kasempa",
      "towerName": "Vubwi Tower 42",
      "operator": "MTN",
      "towerType": "3G",
      "coverageRadius": 5.9,
      "populationCovered": 15639,
      "status": "Operational",
      "latitude": -13.4377,
      "longitude": 25.7871,
      "installationDate": "2021-03-22T15:00:30.821869"
    },
    {
      "id": 43,
      "chiefdom": "Chief Kasempa",
      "towerName": "Munyumba Tower 43",
      "operator": "Airtel",
      "towerType": "4G",
      "coverageRadius": 12.8,
      "populationCovered": 21654,
      "status": "Operational",
      "latitude": -13.5411,
      "longitude": 25.9205,
      "installationDate": "2023-03-31T15:00:30.821876"
    },
    {
      "id": 44,
      "chiefdom": "Chief Kasempa",
      "towerName": "Chilanga Tower 44",
      "operator": "MTN",
      "towerType": "2G",
      "coverageRadius": 18.3,
      "populationCovered": 23490,
      "status": "Operational",
      "latitude": -13.5356,
      "longitude": 25.8394,
      "installationDate": "2022-06-30T15:00:30.821883"
    },
    {
      "id": 45,
      "chiefdom": "Chief Kasempa",
      "towerName": "Mongu Tower 45",
      "operator": "Airtel",
      "towerType": "2G",
      "coverageRadius": 6.9,
      "populationCovered": 12076,
      "status": "Planned",
      "latitude": -13.4561,
      "longitude": 25.8399,
      "installationDate": "2021-11-17T15:00:30.821890"
    },
    {
      "id": 46,
      "chiefdom": "Chief Kasempa",
      "towerName": "Nakatindi Tower 46",
      "operator": "Airtel",
      "towerType": "2G",
      "coverageRadius": 13.6,
      "populationCovered": 6335,
      "status": "Planned",
      "latitude": -13.5267,
      "longitude": 25.9313,
      "installationDate": "2024-01-06T15:00:30.821898"
    },
    {
      "id": 47,
      "chiefdom": "Chief Kasempa",
      "towerName": "Chainda Tower 47",
      "operator": "MTN",
      "towerType": "2G",
      "coverageRadius": 11.8,
      "populationCovered": 17973,
      "status": "Operational",
      "latitude": -13.5082,
      "longitude": 25.8634,
      "installationDate": "2024-12-24T15:00:30.821905"
    },
    {
      "id": 48,
      "chiefdom": "Chief Kasempa",
      "towerName": "Mporokoso Tower 48",
      "operator": "Airtel",
      "towerType": "2G",
      "coverageRadius": 6.3,
      "populationCovered": 9708,
      "status": "Maintenance",
      "latitude": -13.5371,
      "longitude": 25.7944,
      "installationDate": "2023-06-02T15:00:30.821912"
    },
    {
      "id": 49,
      "chiefdom": "Chief Kasempa",
      "towerName": "Samfya Tower 49",
      "operator": "Zamtel",
      "towerType": "3G",
      "coverageRadius": 5.6,
      "populationCovered": 11698,
      "status": "Maintenance",
      "latitude": -13.5022,
      "longitude": 25.7802,
      "installationDate": "2023-02-03T15:00:30.821919"
    },
    {
      "id": 50,
      "chiefdom": "Chief Kasempa",
      "towerName": "Mpika Tower 50",
      "operator": "Airtel",
      "towerType": "2G",
      "coverageRadius": 17.1,
      "populationCovered": 3414,
      "status": "Operational",
      "latitude": -13.5525,
      "longitude": 25.875,
      "installationDate": "2024-06-18T15:00:30.821925"
    }
  ],
  "connectivityAreas": [
    {
      "id": 1,
      "chiefdom": "Chief Kasempa",
      "areaName": "Mongu Connectivity 1",
      "population": 13446,
      "mobileSignalQuality": "Poor",
      "internetAvailability": "Available",
      "roadAccess": "Good",
      "electricityAccess": true,
      "latitude": -13.5181,
      "longitude": 25.7929
    },
    {
      "id": 2,
      "chiefdom": "Chief Kasempa",
      "areaName": "Chisamba Connectivity 2",
      "population": 6432,
      "mobileSignalQuality": "Good",
      "internetAvailability": "None",
      "roadAccess": "Good",
      "electricityAccess": true,
      "latitude": -13.5329,
      "longitude": 25.8275
    },
    {
      "id": 3,
      "chiefdom": "Chief Kasempa",
      "areaName": "Kabompo Connectivity 3",
      "population": 2658,
      "mobileSignalQuality": "Good",
      "internetAvailability": "Limited",
      "roadAccess": "Fair",
      "electricityAccess": true,
      "latitude": -13.5552,
      "longitude": 25.8015
    },
    {
      "id": 4,
      "chiefdom": "Chief Kasempa",
      "areaName": "Chongwe Central Connectivity 4",
      "population": 5016,
      "mobileSignalQuality": "Fair",
      "internetAvailability": "Limited",
      "roadAccess": "Good",
      "electricityAccess": true,
      "latitude": -13.4008,
      "longitude": 25.807
    },
    {
      "id": 5,
      "chiefdom": "Chief Kasempa",
      "areaName": "Nyimba Connectivity 5",
      "population": 12366,
      "mobileSignalQuality": "None",
      "internetAvailability": "Available",
      "roadAccess": "Fair",
      "electricityAccess": true,
      "latitude": -13.4523,
      "longitude": 25.8893
    },
    {
      "id": 6,
      "chiefdom": "Chief Kasempa",
      "areaName": "Ndola Connectivity 6",
      "population": 11654,
      "mobileSignalQuality": "Good",
      "internetAvailability": "Available",
      "roadAccess": "Fair",
      "electricityAccess": true,
      "latitude": -13.4036,
      "longitude": 25.7587
    },
    {
      "id": 7,
      "chiefdom": "Chief Kasempa",
      "areaName": "Shangombo Connectivity 7",
      "population": 12466,
      "mobileSignalQuality": "Poor",
      "internetAvailability": "Limited",
      "roadAccess": "Poor",
      "electricityAccess": true,
      "latitude": -13.5481,
      "longitude": 25.9055
    },
    {
      "id": 8,
      "chiefdom": "Chief Kasempa",
      "areaName": "Nakonde Connectivity 8",
      "population": 12330,
      "mobileSignalQuality": "Good",
      "internetAvailability": "Available",
      "roadAccess": "Poor",
      "electricityAccess": false,
      "latitude": -13.3822,
      "longitude": 25.8544
    },
    {
      "id": 9,
      "chiefdom": "Chief Kasempa",
      "areaName": "Sesheke Connectivity 9",
      "population": 10831,
      "mobileSignalQuality": "Excellent",
      "internetAvailability": "None",
      "roadAccess": "Fair",
      "electricityAccess": true,
      "latitude": -13.4574,
      "longitude": 25.8597
    },
    {
      "id": 10,
      "chiefdom": "Chief Kasempa",
      "areaName": "Solwezi Connectivity 10",
      "population": 8159,
      "mobileSignalQuality": "Poor",
      "internetAvailability": "Available",
      "roadAccess": "Fair",
      "electricityAccess": true,
      "latitude": -13.5298,
      "longitude": 25.9356
    },
    {
      "id": 11,
      "chiefdom": "Chief Kasempa",
      "areaName": "Mufumbwe Connectivity 11",
      "population": 12499,
      "mobileSignalQuality": "Excellent",
      "internetAvailability": "Available",
      "roadAccess": "Poor",
      "electricityAccess": true,
      "latitude": -13.4332,
      "longitude": 25.8244
    },
    {
      "id": 12,
      "chiefdom": "Chief Kasempa",
      "areaName": "Vubwi Connectivity 12",
      "population": 12872,
      "mobileSignalQuality": "None",
      "internetAvailability": "None",
      "roadAccess": "Fair",
      "electricityAccess": false,
      "latitude": -13.4129,
      "longitude": 25.8096
    },
    {
      "id": 13,
      "chiefdom": "Chief Kasempa",
      "areaName": "Isoka Connectivity 13",
      "population": 4686,
      "mobileSignalQuality": "Poor",
      "internetAvailability": "Available",
      "roadAccess": "Poor",
      "electricityAccess": true,
      "latitude": -13.4727,
      "longitude": 25.7818
    },
    {
      "id": 14,
      "chiefdom": "Chief Kasempa",
      "areaName": "Chingola Connectivity 14",
      "population": 8880,
      "mobileSignalQuality": "Poor",
      "internetAvailability": "None",
      "roadAccess": "Poor",
      "electricityAccess": true,
      "latitude": -13.4604,
      "longitude": 25.7489
    },
    {
      "id": 15,
      "chiefdom": "Chief Kasempa",
      "areaName": "Sikanze Connectivity 15",
      "population": 5393,
      "mobileSignalQuality": "Good",
      "internetAvailability": "Limited",
      "roadAccess": "Good",
      "electricityAccess": true,
      "latitude": -13.5204,
      "longitude": 25.7837
    },
    {
      "id": 16,
      "chiefdom": "Chief Kasempa",
      "areaName": "Luanshya Connectivity 16",
      "population": 9631,
      "mobileSignalQuality": "Fair",
      "internetAvailability": "Available",
      "roadAccess": "Good",
      "electricityAccess": true,
      "latitude": -13.5468,
      "longitude": 25.7713
    },
    {
      "id": 17,
      "chiefdom": "Chief Kasempa",
      "areaName": "Chililabombwe Connectivity 17",
      "population": 8193,
      "mobileSignalQuality": "Poor",
      "internetAvailability": "None",
      "roadAccess": "Good",
      "electricityAccess": false,
      "latitude": -13.488,
      "longitude": 25.8019
    },
    {
      "id": 18,
      "chiefdom": "Chief Kasempa",
      "areaName": "Mongu Connectivity 18",
      "population": 14476,
      "mobileSignalQuality": "None",
      "internetAvailability": "Limited",
      "roadAccess": "Poor",
      "electricityAccess": true,
      "latitude": -13.4266,
      "longitude": 25.7665
    },
    {
      "id": 19,
      "chiefdom": "Chief Kasempa",
      "areaName": "Lilayi Connectivity 19",
      "population": 6613,
      "mobileSignalQuality": "Poor",
      "internetAvailability": "Limited",
      "roadAccess": "Good",
      "electricityAccess": true,
      "latitude": -13.4782,
      "longitude": 25.8251
    },
    {
      "id": 20,
      "chiefdom": "Chief Kasempa",
      "areaName": "Makeni Connectivity 20",
      "population": 4682,
      "mobileSignalQuality": "Excellent",
      "internetAvailability": "Available",
      "roadAccess": "Good",
      "electricityAccess": true,
      "latitude": -13.4885,
      "longitude": 25.82
    },
    {
      "id": 21,
      "chiefdom": "Chief Kasempa",
      "areaName": "Nakatindi Connectivity 21",
      "population": 3793,
      "mobileSignalQuality": "Excellent",
      "internetAvailability": "Limited",
      "roadAccess": "Fair",
      "electricityAccess": true,
      "latitude": -13.3632,
      "longitude": 25.8892
    },
    {
      "id": 22,
      "chiefdom": "Chief Kasempa",
      "areaName": "Luanshya Connectivity 22",
      "population": 4926,
      "mobileSignalQuality": "Excellent",
      "internetAvailability": "None",
      "roadAccess": "Fair",
      "electricityAccess": false,
      "latitude": -13.4872,
      "longitude": 25.8191
    },
    {
      "id": 23,
      "chiefdom": "Chief Kasempa",
      "areaName": "Chipata Connectivity 23",
      "population": 5276,
      "mobileSignalQuality": "None",
      "internetAvailability": "Limited",
      "roadAccess": "Poor",
      "electricityAccess": true,
      "latitude": -13.4043,
      "longitude": 25.8255
    },
    {
      "id": 24,
      "chiefdom": "Chief Kasempa",
      "areaName": "Mansa Connectivity 24",
      "population": 5966,
      "mobileSignalQuality": "Excellent",
      "internetAvailability": "Available",
      "roadAccess": "Good",
      "electricityAccess": false,
      "latitude": -13.5564,
      "longitude": 25.9346
    },
    {
      "id": 25,
      "chiefdom": "Chief Kasempa",
      "areaName": "Mkushi Connectivity 25",
      "population": 12167,
      "mobileSignalQuality": "None",
      "internetAvailability": "None",
      "roadAccess": "Poor",
      "electricityAccess": true,
      "latitude": -13.3866,
      "longitude": 25.7785
    },
    {
      "id": 26,
      "chiefdom": "Chief Kasempa",
      "areaName": "Chilanga Connectivity 26",
      "population": 9632,
      "mobileSignalQuality": "Fair",
      "internetAvailability": "Limited",
      "roadAccess": "Poor",
      "electricityAccess": true,
      "latitude": -13.4297,
      "longitude": 25.8253
    },
    {
      "id": 27,
      "chiefdom": "Chief Kasempa",
      "areaName": "Mwinilunga Connectivity 27",
      "population": 5189,
      "mobileSignalQuality": "Excellent",
      "internetAvailability": "None",
      "roadAccess": "Poor",
      "electricityAccess": true,
      "latitude": -13.5341,
      "longitude": 25.8191
    },
    {
      "id": 28,
      "chiefdom": "Chief Kasempa",
      "areaName": "Mpika Connectivity 28",
      "population": 6663,
      "mobileSignalQuality": "Poor",
      "internetAvailability": "Available",
      "roadAccess": "Poor",
      "electricityAccess": true,
      "latitude": -13.4563,
      "longitude": 25.8081
    },
    {
      "id": 29,
      "chiefdom": "Chief Kasempa",
      "areaName": "Munyumba Connectivity 29",
      "population": 6830,
      "mobileSignalQuality": "Excellent",
      "internetAvailability": "Limited",
      "roadAccess": "Fair",
      "electricityAccess": true,
      "latitude": -13.497,
      "longitude": 25.8517
    },
    {
      "id": 30,
      "chiefdom": "Chief Kasempa",
      "areaName": "Mumbwa Connectivity 30",
      "population": 9531,
      "mobileSignalQuality": "Excellent",
      "internetAvailability": "None",
      "roadAccess": "Good",
      "electricityAccess": true,
      "latitude": -13.4089,
      "longitude": 25.9115
    },
    {
      "id": 31,
      "chiefdom": "Chief Kasempa",
      "areaName": "Meanwood Connectivity 31",
      "population": 7358,
      "mobileSignalQuality": "Poor",
      "internetAvailability": "None",
      "roadAccess": "Fair",
      "electricityAccess": true,
      "latitude": -13.4185,
      "longitude": 25.886
    },
    {
      "id": 32,
      "chiefdom": "Chief Kasempa",
      "areaName": "Sinazongwe Connectivity 32",
      "population": 3208,
      "mobileSignalQuality": "Fair",
      "internetAvailability": "Available",
      "roadAccess": "Good",
      "electricityAccess": true,
      "latitude": -13.4906,
      "longitude": 25.8779
    },
    {
      "id": 33,
      "chiefdom": "Chief Kasempa",
      "areaName": "Kasempa Connectivity 33",
      "population": 11282,
      "mobileSignalQuality": "Poor",
      "internetAvailability": "Limited",
      "roadAccess": "Poor",
      "electricityAccess": false,
      "latitude": -13.5565,
      "longitude": 25.93
    },
    {
      "id": 34,
      "chiefdom": "Chief Kasempa",
      "areaName": "Kabompo Connectivity 34",
      "population": 11086,
      "mobileSignalQuality": "Fair",
      "internetAvailability": "Available",
      "roadAccess": "Good",
      "electricityAccess": false,
      "latitude": -13.5493,
      "longitude": 25.7782
    },
    {
      "id": 35,
      "chiefdom": "Chief Kasempa",
      "areaName": "Mufulira Connectivity 35",
      "population": 3138,
      "mobileSignalQuality": "Good",
      "internetAvailability": "None",
      "roadAccess": "Poor",
      "electricityAccess": false,
      "latitude": -13.5253,
      "longitude": 25.7879
    },
    {
      "id": 36,
      "chiefdom": "Chief Kasempa",
      "areaName": "Isoka Connectivity 36",
      "population": 2990,
      "mobileSignalQuality": "None",
      "internetAvailability": "None",
      "roadAccess": "Fair",
      "electricityAccess": true,
      "latitude": -13.5173,
      "longitude": 25.8921
    },
    {
      "id": 37,
      "chiefdom": "Chief Kasempa",
      "areaName": "Mufumbwe Connectivity 37",
      "population": 12618,
      "mobileSignalQuality": "Excellent",
      "internetAvailability": "None",
      "roadAccess": "Good",
      "electricityAccess": true,
      "latitude": -13.521,
      "longitude": 25.8957
    },
    {
      "id": 38,
      "chiefdom": "Chief Kasempa",
      "areaName": "Mwinilunga Connectivity 38",
      "population": 9768,
      "mobileSignalQuality": "Poor",
      "internetAvailability": "None",
      "roadAccess": "Fair",
      "electricityAccess": true,
      "latitude": -13.4299,
      "longitude": 25.9293
    },
    {
      "id": 39,
      "chiefdom": "Chief Kasempa",
      "areaName": "Meanwood Connectivity 39",
      "population": 9043,
      "mobileSignalQuality": "Excellent",
      "internetAvailability": "Limited",
      "roadAccess": "Good",
      "electricityAccess": false,
      "latitude": -13.439,
      "longitude": 25.8999
    },
    {
      "id": 40,
      "chiefdom": "Chief Kasempa",
      "areaName": "Mufumbwe Connectivity 40",
      "population": 9185,
      "mobileSignalQuality": "Excellent",
      "internetAvailability": "None",
      "roadAccess": "Good",
      "electricityAccess": true,
      "latitude": -13.4571,
      "longitude": 25.8444
    },
    {
      "id": 41,
      "chiefdom": "Chief Kasempa",
      "areaName": "Mufumbwe Connectivity 41",
      "population": 13877,
      "mobileSignalQuality": "None",
      "internetAvailability": "Limited",
      "roadAccess": "Poor",
      "electricityAccess": true,
      "latitude": -13.5059,
      "longitude": 25.8195
    },
    {
      "id": 42,
      "chiefdom": "Chief Kasempa",
      "areaName": "Shimabala Connectivity 42",
      "population": 14251,
      "mobileSignalQuality": "Good",
      "internetAvailability": "Limited",
      "roadAccess": "Fair",
      "electricityAccess": true,
      "latitude": -13.3647,
      "longitude": 25.7741
    },
    {
      "id": 43,
      "chiefdom": "Chief Kasempa",
      "areaName": "Kasama Connectivity 43",
      "population": 3495,
      "mobileSignalQuality": "None",
      "internetAvailability": "None",
      "roadAccess": "Poor",
      "electricityAccess": true,
      "latitude": -13.5012,
      "longitude": 25.8462
    },
    {
      "id": 44,
      "chiefdom": "Chief Kasempa",
      "areaName": "Kalingalinga Connectivity 44",
      "population": 9311,
      "mobileSignalQuality": "Fair",
      "internetAvailability": "Available",
      "roadAccess": "Good",
      "electricityAccess": true,
      "latitude": -13.4333,
      "longitude": 25.7516
    },
    {
      "id": 45,
      "chiefdom": "Chief Kasempa",
      "areaName": "Chipata Connectivity 45",
      "population": 8329,
      "mobileSignalQuality": "None",
      "internetAvailability": "None",
      "roadAccess": "Fair",
      "electricityAccess": true,
      "latitude": -13.5264,
      "longitude": 25.9104
    },
    {
      "id": 46,
      "chiefdom": "Chief Kasempa",
      "areaName": "Nakatindi Connectivity 46",
      "population": 12563,
      "mobileSignalQuality": "Good",
      "internetAvailability": "Limited",
      "roadAccess": "Fair",
      "electricityAccess": true,
      "latitude": -13.4242,
      "longitude": 25.7439
    },
    {
      "id": 47,
      "chiefdom": "Chief Kasempa",
      "areaName": "Mambwe Connectivity 47",
      "population": 7069,
      "mobileSignalQuality": "Poor",
      "internetAvailability": "Available",
      "roadAccess": "Good",
      "electricityAccess": true,
      "latitude": -13.4626,
      "longitude": 25.8045
    },
    {
      "id": 48,
      "chiefdom": "Chief Kasempa",
      "areaName": "Shimabala Connectivity 48",
      "population": 6363,
      "mobileSignalQuality": "Good",
      "internetAvailability": "Limited",
      "roadAccess": "Poor",
      "electricityAccess": true,
      "latitude": -13.4233,
      "longitude": 25.8587
    },
    {
      "id": 49,
      "chiefdom": "Chief Kasempa",
      "areaName": "Monze Connectivity 49",
      "population": 4956,
      "mobileSignalQuality": "Good",
      "internetAvailability": "Available",
      "roadAccess": "Good",
      "electricityAccess": true,
      "latitude": -13.5323,
      "longitude": 25.7412
    },
    {
      "id": 50,
      "chiefdom": "Chief Kasempa",
      "areaName": "Luwingu Connectivity 50",
      "population": 4557,
      "mobileSignalQuality": "Excellent",
      "internetAvailability": "None",
      "roadAccess": "Good",
      "electricityAccess": true,
      "latitude": -13.5192,
      "longitude": 25.8758
    }
  ],
  "bridges": [
    {
      "id": 1,
      "chiefdom": "Chief Kasempa",
      "bridgeName": "Kalulushi Bridge 1",
      "bridgeType": "Steel",
      "lengthMeters": 286,
      "condition": "Critical",
      "waterBody": "River",
      "trafficCapacity": "Light",
      "lastInspection": "2025-09-13T15:00:30.822088",
      "latitude": -13.4153,
      "longitude": 25.7753
    },
    {
      "id": 2,
      "chiefdom": "Chief Kasempa",
      "bridgeName": "Ngwerere Bridge 2",
      "bridgeType": "Suspension",
      "lengthMeters": 181,
      "condition": "Fair",
      "waterBody": "River",
      "trafficCapacity": "Heavy",
      "lastInspection": "2025-08-30T15:00:30.822096",
      "latitude": -13.4952,
      "longitude": 25.8294
    },
    {
      "id": 3,
      "chiefdom": "Chief Kasempa",
      "bridgeName": "Leopards Hill Bridge 3",
      "bridgeType": "Wooden",
      "lengthMeters": 227,
      "condition": "Fair",
      "waterBody": "Stream",
      "trafficCapacity": "Light",
      "lastInspection": "2025-09-16T15:00:30.822103",
      "latitude": -13.5073,
      "longitude": 25.7776
    },
    {
      "id": 4,
      "chiefdom": "Chief Kasempa",
      "bridgeName": "Kalulushi Bridge 4",
      "bridgeType": "Suspension",
      "lengthMeters": 142,
      "condition": "Critical",
      "waterBody": "River",
      "trafficCapacity": "Heavy",
      "lastInspection": "2025-05-01T15:00:30.822110",
      "latitude": -13.5081,
      "longitude": 25.852
    },
    {
      "id": 5,
      "chiefdom": "Chief Kasempa",
      "bridgeName": "Nyimba Bridge 5",
      "bridgeType": "Steel",
      "lengthMeters": 262,
      "condition": "Good",
      "waterBody": "Creek",
      "trafficCapacity": "Light",
      "lastInspection": "2025-05-13T15:00:30.822117",
      "latitude": -13.5401,
      "longitude": 25.8723
    },
    {
      "id": 6,
      "chiefdom": "Chief Kasempa",
      "bridgeName": "Shangombo Bridge 6",
      "bridgeType": "Steel",
      "lengthMeters": 138,
      "condition": "Critical",
      "waterBody": "River",
      "trafficCapacity": "Heavy",
      "lastInspection": "2026-01-12T15:00:30.822124",
      "latitude": -13.4595,
      "longitude": 25.8042
    },
    {
      "id": 7,
      "chiefdom": "Chief Kasempa",
      "bridgeName": "Nchelenge Bridge 7",
      "bridgeType": "Suspension",
      "lengthMeters": 65,
      "condition": "Poor",
      "waterBody": "River",
      "trafficCapacity": "Heavy",
      "lastInspection": "2025-10-15T15:00:30.822131",
      "latitude": -13.3974,
      "longitude": 25.8131
    },
    {
      "id": 8,
      "chiefdom": "Chief Kasempa",
      "bridgeName": "Nchelenge Bridge 8",
      "bridgeType": "Suspension",
      "lengthMeters": 131,
      "condition": "Critical",
      "waterBody": "Creek",
      "trafficCapacity": "Heavy",
      "lastInspection": "2025-04-13T15:00:30.822138",
      "latitude": -13.3635,
      "longitude": 25.8601
    },
    {
      "id": 9,
      "chiefdom": "Chief Kasempa",
      "bridgeName": "Kaunga Bridge 9",
      "bridgeType": "Concrete",
      "lengthMeters": 211,
      "condition": "Good",
      "waterBody": "Creek",
      "trafficCapacity": "Medium",
      "lastInspection": "2025-06-20T15:00:30.822144",
      "latitude": -13.3668,
      "longitude": 25.7453
    },
    {
      "id": 10,
      "chiefdom": "Chief Kasempa",
      "bridgeName": "Shangombo Bridge 10",
      "bridgeType": "Wooden",
      "lengthMeters": 156,
      "condition": "Good",
      "waterBody": "Stream",
      "trafficCapacity": "Light",
      "lastInspection": "2025-06-01T15:00:30.822151",
      "latitude": -13.3825,
      "longitude": 25.7995
    }
  ]
}