{
  "waterSources": [
    {
      "id": 1,
      "chiefdom": "Chief Tafuna",
      "district": "Mbala",
      "sourceName": "Kalomo Water Source 1",
      "sourceType": "Borehole",
      "waterBodyType": "Groundwater",
      "village": "Kaunga",
      "populationServed": 3797,
      "householdsServed": 1520,
      "flowRate": 14516,
      "waterQuality": "Poor",
      "status": "Non-Functional",
      "latitude": -8.8637,
      "longitude": 31.2924,
      "averageWalkingDistance": 2.3,
      "lastMaintenance": "2025-07-13T15:00:30.776316",
      "installationYear": "2018-03-03T15:00:30.776320",
      "isProtected": false,
      "isTreated": false,
      "management": "Private"
    },
    {
      "id": 2,
      "chiefdom": "Chief Tafuna",
      "district": "Mbala",
      "sourceName": "Leopards Hill Water Source 2",
      "sourceType": "Piped Water",
      "waterBodyType": "Groundwater",
      "village": "Chainda",
      "populationServed": 8006,
      "householdsServed": 2107,
      "flowRate": 40438,
      "waterQuality": "Poor",
      "status": "Non-Functional",
      "latitude": -8.8004,
      "longitude": 31.4412,
      "averageWalkingDistance": 0.6,
      "lastMaintenance": "2025-07-30T15:00:30.776330",
      "installationYear": "2022-01-08T15:00:30.776334",
      "isProtected": true,
      "isTreated": false,
      "management": "Government"
    },
    {
      "id": 3,
      "chiefdom": "Chief Tafuna",
      "district": "Mbala",
      "sourceName": "Palabana Water Source 3",
      "sourceType": "Well",
      "waterBodyType": "Groundwater",
      "village": "Sinazongwe",
      "populationServed": 13035,
      "householdsServed": 1042,
      "flowRate": 18874,
      "waterQuality": "Poor",
      "status": "Needs Repair",
      "latitude": -8.7708,
      "longitude": 31.3107,
      "averageWalkingDistance": 1.5,
      "lastMaintenance": "2025-07-28T15:00:30.776342",
      "installationYear": "2022-04-30T15:00:30.776346",
      "isProtected": false,
      "isTreated": false,
      "management": "Government"
    },
    {
      "id": 4,
      "chiefdom": "Chief Tafuna",
      "district": "Mbala",
      "sourceName": "Lukulu Water Source 4",
      "sourceType": "Piped Water",
      "waterBodyType": "Groundwater",
      "village": "Mumbwa",
      "populationServed": 12291,
      "householdsServed": 2424,
      "flowRate": 18794,
      "waterQuality": "Good",
      "status": "Needs Repair",
      "latitude": -8.772,
      "longitude": 31.2944,
      "averageWalkingDistance": 4.9,
      "lastMaintenance": "2025-10-28T15:00:30.776355",
      "installationYear": "2019-10-15T15:00:30.776359",
      "isProtected": true,
      "isTreated": true,
      "management": "NGO"
    },
    {
      "id": 5,
      "chiefdom": "Chief Tafuna",
      "district": "Mbala",
      "sourceName": "Kalulushi Water Source 5",
      "sourceType": "Spring",
      "waterBodyType": "Groundwater",
      "village": "Pemba",
      "populationServed": 1578,
      "householdsServed": 2937,
      "flowRate": 4854,
      "waterQuality": "Poor",
      "status": "Non-Functional",
      "latitude": -8.9247,
      "longitude": 31.4614,
      "averageWalkingDistance": 3.4,
      "lastMaintenance": "2025-01-22T15:00:30.776367",
      "installationYear": "2023-10-05T15:00:30.776371",
      "isProtected": true,
      "isTreated": false,
      "management": "NGO"
    },
    {
      "id": 6,
      "chiefdom": "Chief Tafuna",
      "district": "Mbala",
      "sourceName": "Kabompo Water Source 6",
      "sourceType": "Well",
      "waterBodyType": "Groundwater",
      "village": "Mumbwa",
      "populationServed": 11911,
      "householdsServed": 2389,
      "flowRate": 23855,
      "waterQuality": "Excellent",
      "status": "Needs Repair",
      "latitude": -8.8116,
      "longitude": 31.3855,
      "averageWalkingDistance": 2.8,
      "lastMaintenance": "2025-10-25T15:00:30.776380",
      "installationYear": "2023-06-26T15:00:30.776383",
      "isProtected": true,
      "isTreated": true,
      "management": "NGO"
    },
    {
      "id": 7,
      "chiefdom": "Chief Tafuna",
      "district": "Mbala",
      "sourceName": "Lunsemfwa Water Source 7",
      "sourceType": "Spring",
      "waterBodyType": "Groundwater",
      "village": "Siavonga",
      "populationServed": 5205,
      "householdsServed": 1212,
      "flowRate": 21163,
      "waterQuality": "Fair",
      "status": "Functional",
      "latitude": -8.9388,
      "longitude": 31.4417,
      "averageWalkingDistance": 1.1,
      "lastMaintenance": "2025-12-14T15:00:30.776392",
      "installationYear": "2018-05-15T15:00:30.776395",
      "isProtected": true,
      "isTreated": true,
      "management": "NGO"
    },
    {
      "id": 8,
      "chiefdom": "Chief Tafuna",
      "district": "Mbala",
      "sourceName": "Choma Water Source 8",
      "sourceType": "Well",
      "waterBodyType": "Groundwater",
      "village": "Chipapa",
      "populationServed": 4637,
      "householdsServed": 591,
      "flowRate": 49100,
      "waterQuality": "Excellent",
      "status": "Non-Functional",
      "latitude": -8.8887,
      "longitude": 31.3336,
      "averageWalkingDistance": 3.2,
      "lastMaintenance": "2025-09-03T15:00:30.776404",
      "installationYear": "2024-11-18T15:00:30.776407",
      "isProtected": false,
      "isTreated": true,
      "management": "Private"
    },
    {
      "id": 9,
      "chiefdom": "Chief Tafuna",
      "district": "Mbala",
      "sourceName": "Mufulira Water Source 9",
      "sourceType": "Borehole",
      "waterBodyType": "Groundwater",
      "village": "Chisamba",
      "populationServed": 6282,
      "householdsServed": 1613,
      "flowRate": 40686,
      "waterQuality": "Excellent",
      "status": "Functional",
      "latitude": -8.9349,
      "longitude": 31.4315,
      "averageWalkingDistance": 1.5,
      "lastMaintenance": "2025-03-06T15:00:30.776423",
      "installationYear": "2019-11-02T15:00:30.776426",
      "isProtected": true,
      "isTreated": false,
      "management": "Government"
    },
    {
      "id": 10,
      "chiefdom": "Chief Tafuna",
      "district": "Mbala",
      "sourceName": "Munyumba Water Source 10",
      "sourceType": "Well",
      "waterBodyType": "Groundwater",
      "village": "Kasempa",
      "populationServed": 12153,
      "householdsServed": 1227,
      "flowRate": 41915,
      "waterQuality": "Good",
      "status": "Needs Repair",
      "latitude": -8.7694,
      "longitude": 31.3733,
      "averageWalkingDistance": 0.5,
      "lastMaintenance": "2025-04-11T15:00:30.776435",
      "installationYear": "2018-09-03T15:00:30.776439",
      "isProtected": true,
      "isTreated": false,
      "management": "Private"
    },
    {
      "id": 11,
      "chiefdom": "Chief Tafuna",
      "district": "Mbala",
      "sourceName": "Katoba Water Source 11",
      "sourceType": "Well",
      "waterBodyType": "Groundwater",
      "village": "Zambezi",
      "populationServed": 13160,
      "householdsServed": 783,
      "flowRate": 32754,
      "waterQuality": "Good",
      "status": "Needs Repair",
      "latitude": -8.8336,
      "longitude": 31.3869,
      "averageWalkingDistance": 4.6,
      "lastMaintenance": "2025-07-01T15:00:30.776447",
      "installationYear": "2019-07-13T15:00:30.776451",
      "isProtected": true,
      "isTreated": false,
      "management": "Government"
    },
    {
      "id": 12,
      "chiefdom": "Chief Tafuna",
      "district": "Mbala",
      "sourceName": "Chingola Water Source 12",
      "sourceType": "Piped Water",
      "waterBodyType": "Groundwater",
      "village": "Lukulu",
      "populationServed": 1409,
      "householdsServed": 755,
      "flowRate": 27907,
      "waterQuality": "Fair",
      "status": "Functional",
      "latitude": -8.7747,
      "longitude": 31.3938,
      "averageWalkingDistance": 1.1,
      "lastMaintenance": "2025-02-22T15:00:30.776460",
      "installationYear": "2019-05-05T15:00:30.776463",
      "isProtected": true,
      "isTreated": false,
      "management": "Private"
    },
    {
      "id": 13,
      "chiefdom": "Chief Tafuna",
      "district": "Mbala",
      "sourceName": "Kawambwa Water Source 13",
      "sourceType": "Well",
      "waterBodyType": "Groundwater",
      "village": "Mufumbwe",
      "populationServed": 10434,
      "householdsServed": 2543,
      "flowRate": 12301,
      "waterQuality": "Fair",
      "status": "Functional",
      "latitude": -8.882,
      "longitude": 31.406,
      "averageWalkingDistance": 2.7,
      "lastMaintenance": "2025-10-19T15:00:30.776472",
      "installationYear": "2023-07-06T15:00:30.776475",
      "isProtected": false,
      "isTreated": false,
      "management": "Community"
    },
    {
      "id": 14,
      "chiefdom": "Chief Tafuna",
      "district": "Mbala",
      "sourceName": "Mambwe Water Source 14",
      "sourceType": "Spring",
      "waterBodyType": "Groundwater",
      "village": "Kaoma",
      "populationServed": 3463,
      "householdsServed": 3000,
      "flowRate": 10196,
      "waterQuality": "Poor",
      "status": "Needs Repair",
      "latitude": -8.8971,
      "longitude": 31.3567,
      "averageWalkingDistance": 2.4,
      "lastMaintenance": "2025-10-14T15:00:30.776484",
      "installationYear": "2018-02-24T15:00:30.776488",
      "isProtected": true,
      "isTreated": false,
      "management": "Community"
    },
    {
      "id": 15,
      "chiefdom": "Chief Tafuna",
      "district": "Mbala",
      "sourceName": "Chalala Water Source 15",
      "sourceType": "Piped Water",
      "waterBodyType": "Groundwater",
      "village": "Kabwe",
      "populationServed": 4343,
      "householdsServed": 317,
      "flowRate": 5234,
      "waterQuality": "Good",
      "status": "Functional",
      "latitude": -8.935,
      "longitude": 31.2993,
      "averageWalkingDistance": 1.9,
      "lastMaintenance": "2025-11-18T15:00:30.776497",
      "installationYear": "2019-10-02T15:00:30.776500",
      "isProtected": true,
      "isTreated": true,
      "management": "Private"
    },
    {
      "id": 16,
      "chiefdom": "Chief Tafuna",
      "district": "Mbala",
      "sourceName": "Chadiza Water Source 16",
      "sourceType": "Piped Water",
      "waterBodyType": "Groundwater",
      "village": "Mufumbwe",
      "populationServed": 12422,
      "householdsServed": 191,
      "flowRate": 7212,
      "waterQuality": "Excellent",
      "status": "Non-Functional",
      "latitude": -8.8673,
      "longitude": 31.3609,
      "averageWalkingDistance": 3.2,
      "lastMaintenance": "2025-08-10T15:00:30.776509",
      "installationYear": "2018-02-21T15:00:30.776512",
      "isProtected": true,
      "isTreated": true,
      "management": "Private"
    },
    {
      "id": 17,
      "chiefdom": "Chief Tafuna",
      "district": "Mbala",
      "sourceName": "Katoba Water Source 17",
      "sourceType": "Spring",
      "waterBodyType": "Groundwater",
      "village": "Mporokoso",
      "populationServed": 14742,
      "householdsServed": 292,
      "flowRate": 9567,
      "waterQuality": "Excellent",
      "status": "Needs Repair",
      "latitude": -8.9102,
      "longitude": 31.3643,
      "averageWalkingDistance": 1.7,
      "lastMaintenance": "2025-11-03T15:00:30.776521",
      "installationYear": "2017-11-25T15:00:30.776524",
      "isProtected": false,
      "isTreated": true,
      "management": "Community"
    },
    {
      "id": 18,
      "chiefdom": "Chief Tafuna",
      "district": "Mbala",
      "sourceName": "Mbala Water Source 18",
      "sourceType": "Borehole",
      "waterBodyType": "Groundwater",
      "village": "Mambwe",
      "populationServed": 8860,
      "householdsServed": 823,
      "flowRate": 3815,
      "waterQuality": "Fair",
      "status": "Needs Repair",
      "latitude": -8.8176,
      "longitude": 31.3139,
      "averageWalkingDistance": 3.0,
      "lastMaintenance": "2025-11-25T15:00:30.776533",
      "installationYear": "2023-04-06T15:00:30.776537",
      "isProtected": false,
      "isTreated": false,
      "management": "Private"
    },
    {
      "id": 19,
      "chiefdom": "Chief Tafuna",
      "district": "Mbala",
      "sourceName": "Kasempa Water Source 19",
      "sourceType": "Piped Water",
      "waterBodyType": "Groundwater",
      "village": "Leopards Hill",
      "populationServed": 11715,
      "householdsServed": 2555,
      "flowRate": 49497,
      "waterQuality": "Excellent",
      "status": "Non-Functional",
      "latitude": -8.9357,
      "longitude": 31.4031,
      "averageWalkingDistance": 3.3,
      "lastMaintenance": "2025-09-22T15:00:30.776545",
      "installationYear": "2016-03-05T15:00:30.776549",
      "isProtected": false,
      "isTreated": false,
      "management": "NGO"
    },
    {
      "id": 20,
      "chiefdom": "Chief Tafuna",
      "district": "Mbala",
      "sourceName": "Sinda Water Source 20",
      "sourceType": "Well",
      "waterBodyType": "Groundwater",
      "village": "Luangwa",
      "populationServed": 5173,
      "householdsServed": 1228,
      "flowRate": 20692,
      "waterQuality": "Good",
      "status": "Needs Repair",
      "latitude": -8.899,
      "longitude": 31.2987,
      "averageWalkingDistance": 4.5,
      "lastMaintenance": "2025-10-24T15:00:30.776558",
      "installationYear": "2024-05-25T15:00:30.776561",
      "isProtected": false,
      "isTreated": false,
      "management": "Community"
    },
    {
      "id": 21,
      "chiefdom": "Chief Tafuna",
      "district": "Mbala",
      "sourceName": "Kaputa Water Source 21",
      "sourceType": "Spring",
      "waterBodyType": "Groundwater",
      "village": "Katoba",
      "populationServed": 3987,
      "householdsServed": 1931,
      "flowRate": 42840,
      "waterQuality": "Fair",
      "status": "Needs Repair",
      "latitude": -8.8434,
      "longitude": 31.3864,
      "averageWalkingDistance": 3.8,
      "lastMaintenance": "2025-05-22T15:00:30.776570",
      "installationYear": "2017-10-22T15:00:30.776573",
      "isProtected": true,
      "isTreated": false,
      "management": "NGO"
    },
    {
      "id": 22,
      "chiefdom": "Chief Tafuna",
      "district": "Mbala",
      "sourceName": "Mpongwe Water Source 22",
      "sourceType": "Borehole",
      "waterBodyType": "Groundwater",
      "village": "Shimabala",
      "populationServed": 10601,
      "householdsServed": 930,
      "flowRate": 9136,
      "waterQuality": "Good",
      "status": "Non-Functional",
      "latitude": -8.8927,
      "longitude": 31.2755,
      "averageWalkingDistance": 4.1,
      "lastMaintenance": "2025-02-01T15:00:30.776582",
      "installationYear": "2022-05-23T15:00:30.776585",
      "isProtected": true,
      "isTreated": false,
      "management": "NGO"
    },
    {
      "id": 23,
      "chiefdom": "Chief Tafuna",
      "district": "Mbala",
      "sourceName": "Senanga Water Source 23",
      "sourceType": "Spring",
      "waterBodyType": "Groundwater",
      "village": "Kasempa",
      "populationServed": 11164,
      "householdsServed": 1759,
      "flowRate": 9446,
      "waterQuality": "Fair",
      "status": "Needs Repair",
      "latitude": -8.8259,
      "longitude": 31.3832,
      "averageWalkingDistance": 3.6,
      "lastMaintenance": "2025-10-31T15:00:30.776594",
      "installationYear": "2023-08-02T15:00:30.776597",
      "isProtected": false,
      "isTreated": false,
      "management": "Private"
    },
    {
      "id": 24,
      "chiefdom": "Chief Tafuna",
      "district": "Mbala",
      "sourceName": "Mansa Water Source 24",
      "sourceType": "Spring",
      "waterBodyType": "Groundwater",
      "village": "Solwezi",
      "populationServed": 1212,
      "householdsServed": 2530,
      "flowRate": 31285,
      "waterQuality": "Fair",
      "status": "Needs Repair",
      "latitude": -8.9255,
      "longitude": 31.364,
      "averageWalkingDistance": 3.2,
      "lastMaintenance": "2025-12-12T15:00:30.776606",
      "installationYear": "2024-12-16T15:00:30.776610",
      "isProtected": false,
      "isTreated": false,
      "management": "Community"
    },
    {
      "id": 25,
      "chiefdom": "Chief Tafuna",
      "district": "Mbala",
      "sourceName": "Kafue Riverside Water Source 25",
      "sourceType": "Well",
      "waterBodyType": "Groundwater",
      "village": "Sinda",
      "populationServed": 7317,
      "householdsServed": 1284,
      "flowRate": 1806,
      "waterQuality": "Fair",
      "status": "Non-Functional",
      "latitude": -8.8546,
      "longitude": 31.3669,
      "averageWalkingDistance": 4.7,
      "lastMaintenance": "2025-11-21T15:00:30.776618",
      "installationYear": "2021-05-11T15:00:30.776622",
      "isProtected": false,
      "isTreated": true,
      "management": "Government"
    },
    {
      "id": 26,
      "chiefdom": "Chief Tafuna",
      "district": "Mbala",
      "sourceName": "Shangombo Water Source 26",
      "sourceType": "Borehole",
      "waterBodyType": "Groundwater",
      "village": "Chainda",
      "populationServed": 1873,
      "householdsServed": 825,
      "flowRate": 18404,
      "waterQuality": "Good",
      "status": "Non-Functional",
      "latitude": -8.796,
      "longitude": 31.3867,
      "averageWalkingDistance": 3.2,
      "lastMaintenance": "2025-06-26T15:00:30.776631",
      "installationYear": "2023-06-28T15:00:30.776634",
      "isProtected": true,
      "isTreated": false,
      "management": "Private"
    },
    {
      "id": 27,
      "chiefdom": "Chief Tafuna",
      "district": "Mbala",
      "sourceName": "Kalomo Water Source 27",
      "sourceType": "Spring",
      "waterBodyType": "Groundwater",
      "village": "Lukulu",
      "populationServed": 8940,
      "householdsServed": 1769,
      "flowRate": 26921,
      "waterQuality": "Excellent",
      "status": "Needs Repair",
      "latitude": -8.8831,
      "longitude": 31.4169,
      "averageWalkingDistance": 0.3,
      "lastMaintenance": "2025-01-26T15:00:30.776643",
      "installationYear": "2024-05-09T15:00:30.776646",
      "isProtected": true,
      "isTreated": false,
      "management": "NGO"
    },
    {
      "id": 28,
      "chiefdom": "Chief Tafuna",
      "district": "Mbala",
      "sourceName": "Chalimbana Water Source 28",
      "sourceType": "Piped Water",
      "waterBodyType": "Groundwater",
      "village": "Mpanshya",
      "populationServed": 14030,
      "householdsServed": 1399,
      "flowRate": 12382,
      "waterQuality": "Excellent",
      "status": "Functional",
      "latitude": -8.8138,
      "longitude": 31.4596,
      "averageWalkingDistance": 3.5,
      "lastMaintenance": "2025-06-28T15:00:30.776655",
      "installationYear": "2020-06-15T15:00:30.776658",
      "isProtected": false,
      "isTreated": false,
      "management": "Government"
    },
    {
      "id": 29,
      "chiefdom": "Chief Tafuna",
      "district": "Mbala",
      "sourceName": "Monze Water Source 29",
      "sourceType": "Piped Water",
      "waterBodyType": "Groundwater",
      "village": "Mbabala",
      "populationServed": 9989,
      "householdsServed": 408,
      "flowRate": 29705,
      "waterQuality": "Fair",
      "status": "Needs Repair",
      "latitude": -8.7566,
      "longitude": 31.4269,
      "averageWalkingDistance": 2.8,
      "lastMaintenance": "2025-10-08T15:00:30.776667",
      "installationYear": "2017-03-15T15:00:30.776670",
      "isProtected": false,
      "isTreated": true,
      "management": "Private"
    },
    {
      "id": 30,
      "chiefdom": "Chief Tafuna",
      "district": "Mbala",
      "sourceName": "Sikanze Water Source 30",
      "sourceType": "Well",
      "waterBodyType": "Groundwater",
      "village": "Luwingu",
      "populationServed": 10212,
      "householdsServed": 2896,
      "flowRate": 47721,
      "waterQuality": "Good",
      "status": "Non-Functional",
      "latitude": -8.9239,
      "longitude": 31.4268,
      "averageWalkingDistance": 2.9,
      "lastMaintenance": "2025-08-30T15:00:30.776679",
      "installationYear": "2024-03-19T15:00:30.776683",
      "isProtected": true,
      "isTreated": false,
      "management": "NGO"
    },
    {
      "id": 31,
      "chiefdom": "Chief Tafuna",
      "district": "Mbala",
      "sourceName": "Kafue Riverside Water Source 31",
      "sourceType": "Well",
      "waterBodyType": "Groundwater",
      "village": "Zambezi",
      "populationServed": 8877,
      "householdsServed": 1023,
      "flowRate": 16598,
      "waterQuality": "Good",
      "status": "Non-Functional",
      "latitude": -8.852,
      "longitude": 31.4137,
      "averageWalkingDistance": 2.7,
      "lastMaintenance": "2025-05-13T15:00:30.776691",
      "installationYear": "2021-09-08T15:00:30.776695",
      "isProtected": true,
      "isTreated": false,
      "management": "Private"
    },
    {
      "id": 32,
      "chiefdom": "Chief Tafuna",
      "district": "Mbala",
      "sourceName": "Chingola Water Source 32",
      "sourceType": "Spring",
      "waterBodyType": "Groundwater",
      "village": "Chilanga",
      "populationServed": 9579,
      "householdsServed": 2718,
      "flowRate": 1334,
      "waterQuality": "Poor",
      "status": "Non-Functional",
      "latitude": -8.89,
      "longitude": 31.3593,
      "averageWalkingDistance": 3.5,
      "lastMaintenance": "2025-03-17T15:00:30.776703",
      "installationYear": "2020-09-23T15:00:30.776707",
      "isProtected": true,
      "isTreated": true,
      "management": "Community"
    },
    {
      "id": 33,
      "chiefdom": "Chief Tafuna",
      "district": "Mbala",
      "sourceName": "Mwinilunga Water Source 33",
      "sourceType": "Spring",
      "waterBodyType": "Groundwater",
      "village": "Chililabombwe",
      "populationServed": 10829,
      "householdsServed": 2409,
      "flowRate": 39178,
      "waterQuality": "Poor",
      "status": "Functional",
      "latitude": -8.8863,
      "longitude": 31.2955,
      "averageWalkingDistance": 3.6,
      "lastMaintenance": "2025-12-07T15:00:30.776716",
      "installationYear": "2016-10-19T15:00:30.776719",
      "isProtected": true,
      "isTreated": false,
      "management": "Community"
    },
    {
      "id": 34,
      "chiefdom": "Chief Tafuna",
      "district": "Mbala",
      "sourceName": "Mufumbwe Water Source 34",
      "sourceType": "Well",
      "waterBodyType": "Groundwater",
      "village": "Gwembe",
      "populationServed": 13164,
      "householdsServed": 2995,
      "flowRate": 48084,
      "waterQuality": "Good",
      "status": "Non-Functional",
      "latitude": -8.8412,
      "longitude": 31.3801,
      "averageWalkingDistance": 4.1,
      "lastMaintenance": "2025-10-16T15:00:30.776728",
      "installationYear": "2023-12-07T15:00:30.776732",
      "isProtected": true,
      "isTreated": false,
      "management": "Community"
    },
    {
      "id": 35,
      "chiefdom": "Chief Tafuna",
      "district": "Mbala",
      "sourceName": "Serenje Water Source 35",
      "sourceType": "Well",
      "waterBodyType": "Groundwater",
      "village": "Sinazongwe",
      "populationServed": 2441,
      "householdsServed": 2969,
      "flowRate": 30295,
      "waterQuality": "Poor",
      "status": "Functional",
      "latitude": -8.7993,
      "longitude": 31.338,
      "averageWalkingDistance": 1.3,
      "lastMaintenance": "2025-11-17T15:00:30.776740",
      "installationYear": "2020-01-26T15:00:30.776744",
      "isProtected": true,
      "isTreated": true,
      "management": "Government"
    },
    {
      "id": 36,
      "chiefdom": "Chief Tafuna",
      "district": "Mbala",
      "sourceName": "Serenje Water Source 36",
      "sourceType": "Piped Water",
      "waterBodyType": "Groundwater",
      "village": "Gwembe",
      "populationServed": 1055,
      "householdsServed": 811,
      "flowRate": 45100,
      "waterQuality": "Excellent",
      "status": "Non-Functional",
      "latitude": -8.8985,
      "longitude": 31.3929,
      "averageWalkingDistance": 3.1,
      "lastMaintenance": "2025-09-23T15:00:30.776753",
      "installationYear": "2022-07-19T15:00:30.776756",
      "isProtected": false,
      "isTreated": false,
      "management": "NGO"
    },
    {
      "id": 37,
      "chiefdom": "Chief Tafuna",
      "district": "Mbala",
      "sourceName": "Katete Water Source 37",
      "sourceType": "Piped Water",
      "waterBodyType": "Groundwater",
      "village": "Mansa",
      "populationServed": 11315,
      "householdsServed": 2091,
      "flowRate": 27953,
      "waterQuality": "Poor",
      "status": "Needs Repair",
      "latitude": -8.7458,
      "longitude": 31.424,
      "averageWalkingDistance": 0.5,
      "lastMaintenance": "2025-09-19T15:00:30.776766",
      "installationYear": "2021-05-15T15:00:30.776769",
      "isProtected": false,
      "isTreated": false,
      "management": "Private"
    },
    {
      "id": 38,
      "chiefdom": "Chief Tafuna",
      "district": "Mbala",
      "sourceName": "Meanwood Water Source 38",
      "sourceType": "Spring",
      "waterBodyType": "Groundwater",
      "village": "Sikanze",
      "populationServed": 9310,
      "householdsServed": 177,
      "flowRate": 9558,
      "waterQuality": "Fair",
      "status": "Functional",
      "latitude": -8.7519,
      "longitude": 31.4307,
      "averageWalkingDistance": 2.7,
      "lastMaintenance": "2025-03-19T15:00:30.776778",
      "installationYear": "2024-10-26T15:00:30.776781",
      "isProtected": true,
      "isTreated": false,
      "management": "Private"
    },
    {
      "id": 39,
      "chiefdom": "Chief Tafuna",
      "district": "Mbala",
      "sourceName": "Mazabuka Water Source 39",
      "sourceType": "Well",
      "waterBodyType": "Groundwater",
      "village": "Gwembe",
      "populationServed": 3703,
      "householdsServed": 1100,
      "flowRate": 1569,
      "waterQuality": "Fair",
      "status": "Functional",
      "latitude": -8.9049,
      "longitude": 31.3332,
      "averageWalkingDistance": 2.5,
      "lastMaintenance": "2025-11-03T15:00:30.776790",
      "installationYear": "2021-04-18T15:00:30.776793",
      "isProtected": true,
      "isTreated": true,
      "management": "NGO"
    },
    {
      "id": 40,
      "chiefdom": "Chief Tafuna",
      "district": "Mbala",
      "sourceName": "Nyimba Water Source 40",
      "sourceType": "Well",
      "waterBodyType": "Groundwater",
      "village": "Sinazongwe",
      "populationServed": 13784,
      "householdsServed": 2548,
      "flowRate": 32006,
      "waterQuality": "Poor",
      "status": "Functional",
      "latitude": -8.776,
      "longitude": 31.2948,
      "averageWalkingDistance": 4.5,
      "lastMaintenance": "2025-11-23T15:00:30.776802",
      "installationYear": "2016-12-02T15:00:30.776805",
      "isProtected": false,
      "isTreated": false,
      "management": "Community"
    },
    {
      "id": 41,
      "chiefdom": "Chief Tafuna",
      "district": "Mbala",
      "sourceName": "Chibombo Water Source 41",
      "sourceType": "Piped Water",
      "waterBodyType": "Groundwater",
      "village": "Mpika",
      "populationServed": 6593,
      "householdsServed": 2223,
      "flowRate": 44486,
      "waterQuality": "Good",
      "status": "Functional",
      "latitude": -8.7892,
      "longitude": 31.3613,
      "averageWalkingDistance": 1.1,
      "lastMaintenance": "2025-02-18T15:00:30.776814",
      "installationYear": "2021-07-04T15:00:30.776818",
      "isProtected": true,
      "isTreated": true,
      "management": "NGO"
    },
    {
      "id": 42,
      "chiefdom": "Chief Tafuna",
      "district": "Mbala",
      "sourceName": "Sesheke Water Source 42",
      "sourceType": "Borehole",
      "waterBodyType": "Groundwater",
      "village": "Kitwe",
      "populationServed": 13601,
      "householdsServed": 1064,
      "flowRate": 19733,
      "waterQuality": "Poor",
      "status": "Non-Functional",
      "latitude": -8.7661,
      "longitude": 31.4316,
      "averageWalkingDistance": 2.0,
      "lastMaintenance": "2025-01-28T15:00:30.776827",
      "installationYear": "2022-02-26T15:00:30.776830",
      "isProtected": false,
      "isTreated": false,
      "management": "Community"
    },
    {
      "id": 43,
      "chiefdom": "Chief Tafuna",
      "district": "Mbala",
      "sourceName": "Mkushi Water Source 43",
      "sourceType": "Borehole",
      "waterBodyType": "Groundwater",
      "village": "Mkushi",
      "populationServed": 14374,
      "householdsServed": 209,
      "flowRate": 36652,
      "waterQuality": "Poor",
      "status": "Functional",
      "latitude": -8.8527,
      "longitude": 31.4271,
      "averageWalkingDistance": 3.6,
      "lastMaintenance": "2025-10-27T15:00:30.776839",
      "installationYear": "2016-03-10T15:00:30.776842",
      "isProtected": true,
      "isTreated": true,
      "management": "Private"
    },
    {
      "id": 44,
      "chiefdom": "Chief Tafuna",
      "district": "Mbala",
      "sourceName": "Lukulu Water Source 44",
      "sourceType": "Well",
      "waterBodyType": "Groundwater",
      "village": "Lukulu",
      "populationServed": 6562,
      "householdsServed": 2347,
      "flowRate": 5834,
      "waterQuality": "Poor",
      "status": "Functional",
      "latitude": -8.8421,
      "longitude": 31.2948,
      "averageWalkingDistance": 2.1,
      "lastMaintenance": "2025-12-19T15:00:30.776851",
      "installationYear": "2021-07-09T15:00:30.776855",
      "isProtected": true,
      "isTreated": false,
      "management": "NGO"
    },
    {
      "id": 45,
      "chiefdom": "Chief Tafuna",
      "district": "Mbala",
      "sourceName": "Mwinilunga Water Source 45",
      "sourceType": "Piped Water",
      "waterBodyType": "Groundwater",
      "village": "Pemba",
      "populationServed": 11011,
      "householdsServed": 2396,
      "flowRate": 22763,
      "waterQuality": "Good",
      "status": "Needs Repair",
      "latitude": -8.8732,
      "longitude": 31.3408,
      "averageWalkingDistance": 2.0,
      "lastMaintenance": "2025-12-13T15:00:30.776864",
      "installationYear": "2024-11-07T15:00:30.776867",
      "isProtected": true,
      "isTreated": false,
      "management": "NGO"
    },
    {
      "id": 46,
      "chiefdom": "Chief Tafuna",
      "district": "Mbala",
      "sourceName": "Mazabuka Water Source 46",
      "sourceType": "Well",
      "waterBodyType": "Groundwater",
      "village": "Mbala",
      "populationServed": 2264,
      "householdsServed": 561,
      "flowRate": 15373,
      "waterQuality": "Poor",
      "status": "Needs Repair",
      "latitude": -8.8841,
      "longitude": 31.2983,
      "averageWalkingDistance": 1.8,
      "lastMaintenance": "2025-08-10T15:00:30.776876",
      "installationYear": "2021-07-22T15:00:30.776879",
      "isProtected": true,
      "isTreated": false,
      "management": "NGO"
    },
    {
      "id": 47,
      "chiefdom": "Chief Tafuna",
      "district": "Mbala",
      "sourceName": "Nyimba Water Source 47",
      "sourceType": "Borehole",
      "waterBodyType": "Groundwater",
      "village": "Livingstone",
      "populationServed": 12003,
      "householdsServed": 104,
      "flowRate": 28611,
      "waterQuality": "Excellent",
      "status": "Non-Functional",
      "latitude": -8.7847,
      "longitude": 31.3071,
      "averageWalkingDistance": 0.9,
      "lastMaintenance": "2025-05-15T15:00:30.776888",
      "installationYear": "2016-08-27T15:00:30.776891",
      "isProtected": true,
      "isTreated": true,
      "management": "Community"
    },
    {
      "id": 48,
      "chiefdom": "Chief Tafuna",
      "district": "Mbala",
      "sourceName": "Ndola Water Source 48",
      "sourceType": "Well",
      "waterBodyType": "Groundwater",
      "village": "Petauke",
      "populationServed": 4845,
      "householdsServed": 608,
      "flowRate": 39703,
      "waterQuality": "Excellent",
      "status": "Functional",
      "latitude": -8.7843,
      "longitude": 31.4604,
      "averageWalkingDistance": 0.7,
      "lastMaintenance": "2025-02-04T15:00:30.776900",
      "installationYear": "2021-10-01T15:00:30.776903",
      "isProtected": true,
      "isTreated": false,
      "management": "Government"
    },
    {
      "id": 49,
      "chiefdom": "Chief Tafuna",
      "district": "Mbala",
      "sourceName": "Shangombo Water Source 49",
      "sourceType": "Borehole",
      "waterBodyType": "Groundwater",
      "village": "Munyumba",
      "populationServed": 4165,
      "householdsServed": 1336,
      "flowRate": 43286,
      "waterQuality": "Excellent",
      "status": "Non-Functional",
      "latitude": -8.9178,
      "longitude": 31.3652,
      "averageWalkingDistance": 2.8,
      "lastMaintenance": "2025-05-14T15:00:30.776912",
      "installationYear": "2017-04-10T15:00:30.776915",
      "isProtected": true,
      "isTreated": false,
      "management": "NGO"
    },
    {
      "id": 50,
      "chiefdom": "Chief Tafuna",
      "district": "Mbala",
      "sourceName": "Petauke Water Source 50",
      "sourceType": "Piped Water",
      "waterBodyType": "Groundwater",
      "village": "Chililabombwe",
      "populationServed": 7414,
      "householdsServed": 2766,
      "flowRate": 12005,
      "waterQuality": "Good",
      "status": "Non-Functional",
      "latitude": -8.8874,
      "longitude": 31.4028,
      "averageWalkingDistance": 0.8,
      "lastMaintenance": "2025-09-14T15:00:30.776924",
      "installationYear": "2017-09-29T15:00:30.776927",
      "isProtected": true,
      "isTreated": true,
      "management": "Government"
    }
  ],
  "waterBodies": [
    {
      "id": 1,
      "chiefdom": "Chief Tafuna",
      "bodyName": "Isoka Stream 1",
      "bodyType": "Lake",
      "waterQuality": "Fair",
      "isProtected": false,
      "usageType": "Multiple",
      "latitude": -8.858,
      "longitude": 31.2724
    },
    {
      "id": 2,
      "chiefdom": "Chief Tafuna",
      "bodyName": "Mporokoso River 2",
      "bodyType": "Dam",
      "waterQuality": "Fair",
      "isProtected": true,
      "usageType": "Irrigation",
      "latitude": -8.8172,
      "longitude": 31.4635
    },
    {
      "id": 3,
      "chiefdom": "Chief Tafuna",
      "bodyName": "Kalomo Dam 3",
      "bodyType": "River",
      "waterQuality": "Good",
      "isProtected": false,
      "usageType": "Irrigation",
      "latitude": -8.7931,
      "longitude": 31.463
    },
    {
      "id": 4,
      "chiefdom": "Chief Tafuna",
      "bodyName": "Lilayi Dam 4",
      "bodyType": "Dam",
      "waterQuality": "Good",
      "isProtected": true,
      "usageType": "Multiple",
      "latitude": -8.9006,
      "longitude": 31.2986
    },
    {
      "id": 5,
      "chiefdom": "Chief Tafuna",
      "bodyName": "Kalomo Stream 5",
      "bodyType": "River",
      "waterQuality": "Fair",
      "isProtected": false,
      "usageType": "Irrigation",
      "latitude": -8.7917,
      "longitude": 31.2752
    },
    {
      "id": 6,
      "chiefdom": "Chief Tafuna",
      "bodyName": "Samfya Stream 6",
      "bodyType": "Dam",
      "waterQuality": "Fair",
      "isProtected": true,
      "usageType": "Irrigation",
      "latitude": -8.7945,
      "longitude": 31.3764
    },
    {
      "id": 7,
      "chiefdom": "Chief Tafuna",
      "bodyName": "Mufumbwe Stream 7",
      "bodyType": "Stream",
      "waterQuality": "Good",
      "isProtected": true,
      "usageType": "Drinking",
      "latitude": -8.9216,
      "longitude": 31.3361
    },
    {
      "id": 8,
      "chiefdom": "Chief Tafuna",
      "bodyName": "Mwembezhi River 8",
      "bodyType": "River",
      "waterQuality": "Poor",
      "isProtected": true,
      "usageType": "Recreation",
      "latitude": -8.9003,
      "longitude": 31.4654
    },
    {
      "id": 9,
      "chiefdom": "Chief Tafuna",
      "bodyName": "Mpanshya River 9",
      "bodyType": "Stream",
      "waterQuality": "Fair",
      "isProtected": true,
      "usageType": "Multiple",
      "latitude": -8.7767,
      "longitude": 31.4206
    },
    {
      "id": 10,
      "chiefdom": "Chief Tafuna",
      "bodyName": "Livingstone Dam 10",
      "bodyType": "River",
      "waterQuality": "Good",
      "isProtected": false,
      "usageType": "Irrigation",
      "latitude": -8.8678,
      "longitude": 31.4219
    }
  ],
  "sanitationFacilities": [
    {
      "id": 1,
      "chiefdom": "Chief Tafuna",
      "facilityName": "Serenje Sanitation 1",
      "facilityType": "Latrine",
      "village": "Mufumbwe",
      "populationServed": 1981,
      "capacity": 450,
      "status": "Functional",
      "latitude": -8.7839,
      "longitude": 31.4277,
      "lastMaintenance": "2025-07-22T15:00:30.776968"
    },
    {
      "id": 2,
      "chiefdom": "Chief Tafuna",
      "facilityName": "Mufulira Sanitation 2",
      "facilityType": "Latrine",
      "village": "Mansa",
      "populationServed": 3876,
      "capacity": 331,
      "status": "Needs Repair",
      "latitude": -8.8475,
      "longitude": 31.3732,
      "lastMaintenance": "2025-09-25T15:00:30.776975"
    },
    {
      "id": 3,
      "chiefdom": "Chief Tafuna",
      "facilityName": "Gwembe Sanitation 3",
      "facilityType": "Latrine",
      "village": "Kaoma",
      "populationServed": 4357,
      "capacity": 382,
      "status": "Needs Repair",
      "latitude": -8.8778,
      "longitude": 31.3548,
      "lastMaintenance": "2025-01-21T15:00:30.776982"
    },
    {
      "id": 4,
      "chiefdom": "Chief Tafuna",
      "facilityName": "Mufumbwe Sanitation 4",
      "facilityType": "Latrine",
      "village": "Isoka",
      "populationServed": 5599,
      "capacity": 135,
      "status": "Needs Repair",
      "latitude": -8.7796,
      "longitude": 31.2802,
      "lastMaintenance": "2025-11-30T15:00:30.776988"
    },
    {
      "id": 5,
      "chiefdom": "Chief Tafuna",
      "facilityName": "Mutumbi Sanitation 5",
      "facilityType": "Septic System",
      "village": "Chama",
      "populationServed": 3211,
      "capacity": 325,
      "status": "Non-Functional",
      "latitude": -8.7596,
      "longitude": 31.3286,
      "lastMaintenance": "2025-05-21T15:00:30.776996"
    },
    {
      "id": 6,
      "chiefdom": "Chief Tafuna",
      "facilityName": "Chalimbana Sanitation 6",
      "facilityType": "Septic System",
      "village": "Kasama",
      "populationServed": 3605,
      "capacity": 419,
      "status": "Needs Repair",
      "latitude": -8.8132,
      "longitude": 31.2847,
      "lastMaintenance": "2025-06-04T15:00:30.777003"
    },
    {
      "id": 7,
      "chiefdom": "Chief Tafuna",
      "facilityName": "Mpanshya Sanitation 7",
      "facilityType": "Septic System",
      "village": "Kanakantapa",
      "populationServed": 2094,
      "capacity": 285,
      "status": "Functional",
      "latitude": -8.9289,
      "longitude": 31.4519,
      "lastMaintenance": "2025-09-05T15:00:30.777010"
    },
    {
      "id": 8,
      "chiefdom": "Chief Tafuna",
      "facilityName": "Samfya Sanitation 8",
      "facilityType": "Latrine",
      "village": "Choma",
      "populationServed": 9494,
      "capacity": 384,
      "status": "Needs Repair",
      "latitude": -8.7695,
      "longitude": 31.3798,
      "lastMaintenance": "2025-04-13T15:00:30.777017"
    },
    {
      "id": 9,
      "chiefdom": "Chief Tafuna",
      "facilityName": "Nakonde Sanitation 9",
      "facilityType": "Public Toilet",
      "village": "Mkushi",
      "populationServed": 8020,
      "capacity": 125,
      "status": "Functional",
      "latitude": -8.9256,
      "longitude": 31.2879,
      "lastMaintenance": "2025-04-26T15:00:30.777024"
    },
    {
      "id": 10,
      "chiefdom": "Chief Tafuna",
      "facilityName": "Mansa Sanitation 10",
      "facilityType": "Latrine",
      "village": "Kitwe",
      "populationServed": 6048,
      "capacity": 492,
      "status": "Functional",
      "latitude": -8.7501,
      "longitude": 31.3308,
      "lastMaintenance": "2025-08-26T15:00:30.777031"
    },
    {
      "id": 11,
      "chiefdom": "Chief Tafuna",
      "facilityName": "Chipata Sanitation 11",
      "facilityType": "Septic System",
      "village": "Pemba",
      "populationServed": 2303,
      "capacity": 287,
      "status": "Functional",
      "latitude": -8.8594,
      "longitude": 31.2985,
      "lastMaintenance": "2025-08-10T15:00:30.777037"
    },
    {
      "id": 12,
      "chiefdom": "Chief Tafuna",
      "facilityName": "Ndola Sanitation 12",
      "facilityType": "Latrine",
      "village": "Nchelenge",
      "populationServed": 7669,
      "capacity": 344,
      "status": "Functional",
      "latitude": -8.8149,
      "longitude": 31.4431,
      "lastMaintenance": "2025-12-24T15:00:30.777044"
    },
    {
      "id": 13,
      "chiefdom": "Chief Tafuna",
      "facilityName": "Mufulira Sanitation 13",
      "facilityType": "Waste Treatment",
      "village": "Kitwe",
      "populationServed": 4763,
      "capacity": 338,
      "status": "Non-Functional",
      "latitude": -8.7902,
      "longitude": 31.4605,
      "lastMaintenance": "2025-06-19T15:00:30.777051"
    },
    {
      "id": 14,
      "chiefdom": "Chief Tafuna",
      "facilityName": "Kitwe Sanitation 14",
      "facilityType": "Public Toilet",
      "village": "Luwingu",
      "populationServed": 9416,
      "capacity": 139,
      "status": "Needs Repair",
      "latitude": -8.8514,
      "longitude": 31.4691,
      "lastMaintenance": "2025-08-03T15:00:30.777058"
    },
    {
      "id": 15,
      "chiefdom": "Chief Tafuna",
      "facilityName": "Palabana Sanitation 15",
      "facilityType": "Septic System",
      "village": "Gwembe",
      "populationServed": 3211,
      "capacity": 130,
      "status": "Non-Functional",
      "latitude": -8.9101,
      "longitude": 31.4666,
      "lastMaintenance": "2026-01-09T15:00:30.777064"
    },
    {
      "id": 16,
      "chiefdom": "Chief Tafuna",
      "facilityName": "Nchelenge Sanitation 16",
      "facilityType": "Septic System",
      "village": "Luwingu",
      "populationServed": 5386,
      "capacity": 423,
      "status": "Functional",
      "latitude": -8.9355,
      "longitude": 31.3088,
      "lastMaintenance": "2025-12-22T15:00:30.777072"
    },
    {
      "id": 17,
      "chiefdom": "Chief Tafuna",
      "facilityName": "Mbala Sanitation 17",
      "facilityType": "Public Toilet",
      "village": "Leopards Hill",
      "populationServed": 8471,
      "capacity": 297,
      "status": "Functional",
      "latitude": -8.7536,
      "longitude": 31.4414,
      "lastMaintenance": "2025-06-26T15:00:30.777080"
    },
    {
      "id": 18,
      "chiefdom": "Chief Tafuna",
      "facilityName": "Katoba Sanitation 18",
      "facilityType": "Waste Treatment",
      "village": "Kalingalinga",
      "populationServed": 2321,
      "capacity": 485,
      "status": "Non-Functional",
      "latitude": -8.9375,
      "longitude": 31.4014,
      "lastMaintenance": "2025-08-08T15:00:30.777087"
    },
    {
      "id": 19,
      "chiefdom": "Chief Tafuna",
      "facilityName": "Sesheke Sanitation 19",
      "facilityType": "Latrine",
      "village": "Shangombo",
      "populationServed": 2492,
      "capacity": 97,
      "status": "Non-Functional",
      "latitude": -8.8632,
      "longitude": 31.2915,
      "lastMaintenance": "2025-10-19T15:00:30.777093"
    },
    {
      "id": 20,
      "chiefdom": "Chief Tafuna",
      "facilityName": "Mbabala Sanitation 20",
      "facilityType": "Public Toilet",
      "village": "Sinda",
      "populationServed": 1966,
      "capacity": 69,
      "status": "Functional",
      "latitude": -8.8627,
      "longitude": 31.3172,
      "lastMaintenance": "2025-03-07T15:00:30.777100"
    },
    {
      "id": 21,
      "chiefdom": "Chief Tafuna",
      "facilityName": "Mbala Sanitation 21",
      "facilityType": "Septic System",
      "village": "Sinda",
      "populationServed": 2517,
      "capacity": 334,
      "status": "Non-Functional",
      "latitude": -8.8793,
      "longitude": 31.2928,
      "lastMaintenance": "2025-09-30T15:00:30.777107"
    },
    {
      "id": 22,
      "chiefdom": "Chief Tafuna",
      "facilityName": "Gwembe Sanitation 22",
      "facilityType": "Latrine",
      "village": "Sinazongwe",
      "populationServed": 3913,
      "capacity": 324,
      "status": "Functional",
      "latitude": -8.8416,
      "longitude": 31.271,
      "lastMaintenance": "2025-12-15T15:00:30.777114"
    },
    {
      "id": 23,
      "chiefdom": "Chief Tafuna",
      "facilityName": "Mporokoso Sanitation 23",
      "facilityType": "Latrine",
      "village": "Senanga",
      "populationServed": 7044,
      "capacity": 469,
      "status": "Functional",
      "latitude": -8.9108,
      "longitude": 31.3593,
      "lastMaintenance": "2025-03-09T15:00:30.777121"
    },
    {
      "id": 24,
      "chiefdom": "Chief Tafuna",
      "facilityName": "Nchelenge Sanitation 24",
      "facilityType": "Public Toilet",
      "village": "Livingstone",
      "populationServed": 825,
      "capacity": 486,
      "status": "Functional",
      "latitude": -8.8403,
      "longitude": 31.3501,
      "lastMaintenance": "2025-07-17T15:00:30.777128"
    },
    {
      "id": 25,
      "chiefdom": "Chief Tafuna",
      "facilityName": "Luangwa Sanitation 25",
      "facilityType": "Latrine",
      "village": "Chililabombwe",
      "populationServed": 7014,
      "capacity": 293,
      "status": "Non-Functional",
      "latitude": -8.8217,
      "longitude": 31.3014,
      "lastMaintenance": "2025-08-10T15:00:30.777134"
    },
    {
      "id": 26,
      "chiefdom": "Chief Tafuna",
      "facilityName": "Mazabuka Sanitation 26",
      "facilityType": "Septic System",
      "village": "Mumbwa",
      "populationServed": 8857,
      "capacity": 451,
      "status": "Non-Functional",
      "latitude": -8.772,
      "longitude": 31.3851,
      "lastMaintenance": "2025-10-05T15:00:30.777141"
    },
    {
      "id": 27,
      "chiefdom": "Chief Tafuna",
      "facilityName": "Vubwi Sanitation 27",
      "facilityType": "Latrine",
      "village": "Chingola",
      "populationServed": 1826,
      "capacity": 359,
      "status": "Non-Functional",
      "latitude": -8.8044,
      "longitude": 31.3669,
      "lastMaintenance": "2025-10-05T15:00:30.777148"
    },
    {
      "id": 28,
      "chiefdom": "Chief Tafuna",
      "facilityName": "Mporokoso Sanitation 28",
      "facilityType": "Latrine",
      "village": "Siavonga",
      "populationServed": 4010,
      "capacity": 140,
      "status": "Non-Functional",
      "latitude": -8.8815,
      "longitude": 31.3208,
      "lastMaintenance": "2025-07-23T15:00:30.777155"
    },
    {
      "id": 29,
      "chiefdom": "Chief Tafuna",
      "facilityName": "Solwezi Sanitation 29",
      "facilityType": "Public Toilet",
      "village": "Lunsemfwa",
      "populationServed": 7024,
      "capacity": 427,
      "status": "Non-Functional",
      "latitude": -8.8976,
      "longitude": 31.3243,
      "lastMaintenance": "2026-01-03T15:00:30.777162"
    },
    {
      "id": 30,
      "chiefdom": "Chief Tafuna",
      "facilityName": "Kasempa Sanitation 30",
      "facilityType": "Waste Treatment",
      "village": "Vubwi",
      "populationServed": 6768,
      "capacity": 311,
      "status": "Needs Repair",
      "latitude": -8.8078,
      "longitude": 31.3828,
      "lastMaintenance": "2025-07-09T15:00:30.777168"
    },
    {
      "id": 31,
      "chiefdom": "Chief Tafuna",
      "facilityName": "Chipapa Sanitation 31",
      "facilityType": "Waste Treatment",
      "village": "Petauke",
      "populationServed": 7183,
      "capacity": 347,
      "status": "Non-Functional",
      "latitude": -8.8705,
      "longitude": 31.4156,
      "lastMaintenance": "2025-11-02T15:00:30.777175"
    },
    {
      "id": 32,
      "chiefdom": "Chief Tafuna",
      "facilityName": "Kabwe Sanitation 32",
      "facilityType": "Septic System",
      "village": "Lukulu",
      "populationServed": 6508,
      "capacity": 65,
      "status": "Needs Repair",
      "latitude": -8.8678,
      "longitude": 31.333,
      "lastMaintenance": "2025-11-21T15:00:30.777182"
    },
    {
      "id": 33,
      "chiefdom": "Chief Tafuna",
      "facilityName": "Leopards Hill Sanitation 33",
      "facilityType": "Public Toilet",
      "village": "Mbabala",
      "populationServed": 5535,
      "capacity": 177,
      "status": "Needs Repair",
      "latitude": -8.826,
      "longitude": 31.2846,
      "lastMaintenance": "2025-02-27T15:00:30.777189"
    },
    {
      "id": 34,
      "chiefdom": "Chief Tafuna",
      "facilityName": "Mufulira Sanitation 34",
      "facilityType": "Septic System",
      "village": "Mambwe",
      "populationServed": 9116,
      "capacity": 66,
      "status": "Needs Repair",
      "latitude": -8.8271,
      "longitude": 31.4662,
      "lastMaintenance": "2025-09-06T15:00:30.777196"
    },
    {
      "id": 35,
      "chiefdom": "Chief Tafuna",
      "facilityName": "Chingola Sanitation 35",
      "facilityType": "Latrine",
      "village": "Makeni",
      "populationServed": 9829,
      "capacity": 263,
      "status": "Needs Repair",
      "latitude": -8.8343,
      "longitude": 31.3096,
      "lastMaintenance": "2025-08-16T15:00:30.777203"
    },
    {
      "id": 36,
      "chiefdom": "Chief Tafuna",
      "facilityName": "Mutumbi Sanitation 36",
      "facilityType": "Septic System",
      "village": "Makeni",
      "populationServed": 1153,
      "capacity": 370,
      "status": "Non-Functional",
      "latitude": -8.8528,
      "longitude": 31.4156,
      "lastMaintenance": "2025-08-11T15:00:30.777210"
    },
    {
      "id": 37,
      "chiefdom": "Chief Tafuna",
      "facilityName": "Munyumba Sanitation 37",
      "facilityType": "Septic System",
      "village": "Chalimbana",
      "populationServed": 8221,
      "capacity": 95,
      "status": "Needs Repair",
      "latitude": -8.7873,
      "longitude": 31.4097,
      "lastMaintenance": "2025-05-11T15:00:30.777217"
    },
    {
      "id": 38,
      "chiefdom": "Chief Tafuna",
      "facilityName": "Katoba Sanitation 38",
      "facilityType": "Latrine",
      "village": "Lundazi",
      "populationServed": 4594,
      "capacity": 173,
      "status": "Needs Repair",
      "latitude": -8.8064,
      "longitude": 31.3229,
      "lastMaintenance": "2025-03-31T15:00:30.777224"
    },
    {
      "id": 39,
      "chiefdom": "Chief Tafuna",
      "facilityName": "Shangombo Sanitation 39",
      "facilityType": "Latrine",
      "village": "Kalulushi",
      "populationServed": 1833,
      "capacity": 292,
      "status": "Non-Functional",
      "latitude": -8.8689,
      "longitude": 31.3545,
      "lastMaintenance": "2025-11-06T15:00:30.777231"
    },
    {
      "id": 40,
      "chiefdom": "Chief Tafuna",
      "facilityName": "Kaputa Sanitation 40",
      "facilityType": "Latrine",
      "village": "Samfya",
      "populationServed": 1868,
      "capacity": 467,
      "status": "Non-Functional",
      "latitude": -8.8735,
      "longitude": 31.4056,
      "lastMaintenance": "2026-01-04T15:00:30.777238"
    },
    {
      "id": 41,
      "chiefdom": "Chief Tafuna",
      "facilityName": "Serenje Sanitation 41",
      "facilityType": "Latrine",
      "village": "Chalala",
      "populationServed": 1530,
      "capacity": 431,
      "status": "Non-Functional",
      "latitude": -8.7846,
      "longitude": 31.3733,
      "lastMaintenance": "2025-05-21T15:00:30.777245"
    },
    {
      "id": 42,
      "chiefdom": "Chief Tafuna",
      "facilityName": "Chisamba Sanitation 42",
      "facilityType": "Septic System",
      "village": "Mongu",
      "populationServed": 9475,
      "capacity": 306,
      "status": "Functional",
      "latitude": -8.8474,
      "longitude": 31.3759,
      "lastMaintenance": "2025-06-24T15:00:30.777252"
    },
    {
      "id": 43,
      "chiefdom": "Chief Tafuna",
      "facilityName": "Mbala Sanitation 43",
      "facilityType": "Septic System",
      "village": "Chililabombwe",
      "populationServed": 6374,
      "capacity": 480,
      "status": "Non-Functional",
      "latitude": -8.8021,
      "longitude": 31.4363,
      "lastMaintenance": "2025-09-23T15:00:30.777259"
    },
    {
      "id": 44,
      "chiefdom": "Chief Tafuna",
      "facilityName": "Chipata Sanitation 44",
      "facilityType": "Septic System",
      "village": "Chinsali",
      "populationServed": 5849,
      "capacity": 270,
      "status": "Non-Functional",
      "latitude": -8.7473,
      "longitude": 31.4468,
      "lastMaintenance": "2025-02-18T15:00:30.777266"
    },
    {
      "id": 45,
      "chiefdom": "Chief Tafuna",
      "facilityName": "Ndola Sanitation 45",
      "facilityType": "Waste Treatment",
      "village": "Munyumba",
      "populationServed": 5794,
      "capacity": 197,
      "status": "Functional",
      "latitude": -8.8939,
      "longitude": 31.3228,
      "lastMaintenance": "2025-02-21T15:00:30.777273"
    },
    {
      "id": 46,
      "chiefdom": "Chief Tafuna",
      "facilityName": "Mambwe Sanitation 46",
      "facilityType": "Waste Treatment",
      "village": "Shimabala",
      "populationServed": 5373,
      "capacity": 424,
      "status": "Needs Repair",
      "latitude": -8.7713,
      "longitude": 31.3649,
      "lastMaintenance": "2025-07-21T15:00:30.777280"
    },
    {
      "id": 47,
      "chiefdom": "Chief Tafuna",
      "facilityName": "Siavonga Sanitation 47",
      "facilityType": "Latrine",
      "village": "Shimabala",
      "populationServed": 4536,
      "capacity": 258,
      "status": "Needs Repair",
      "latitude": -8.8701,
      "longitude": 31.4577,
      "lastMaintenance": "2025-02-04T15:00:30.777286"
    },
    {
      "id": 48,
      "chiefdom": "Chief Tafuna",
      "facilityName": "Samfya Sanitation 48",
      "facilityType": "Septic System",
      "village": "Mbabala",
      "populationServed": 2061,
      "capacity": 432,
      "status": "Functional",
      "latitude": -8.8004,
      "longitude": 31.4112,
      "lastMaintenance": "2025-05-23T15:00:30.777293"
    },
    {
      "id": 49,
      "chiefdom": "Chief Tafuna",
      "facilityName": "Shimabala Sanitation 49",
      "facilityType": "Latrine",
      "village": "Sikanze",
      "populationServed": 3638,
      "capacity": 166,
      "status": "Functional",
      "latitude": -8.7794,
      "longitude": 31.287,
      "lastMaintenance": "2025-06-18T15:00:30.777300"
    },
    {
      "id": 50,
      "chiefdom": "Chief Tafuna",
      "facilityName": "Chadiza Sanitation 50",
      "facilityType": "Septic System",
      "village": "Sinazongwe",
      "populationServed": 9425,
      "capacity": 105,
      "status": "Functional",
      "latitude": -8.8411,
      "longitude": 31.3094,
      "lastMaintenance": "2025-04-09T15:00:30.777307"
    }
  ],
  "waterAccessAreas": [
    {
      "id": 1,
      "chiefdom": "Chief Tafuna",
      "areaName": "Chipata Access 1",
      "population": 7421,
      "householdsWithAccess": 863,
      "accessRate": 48.4,
      "averageDistance": 7.8,
      "waterQuality": "Fair",
      "latitude": -8.8584,
      "longitude": 31.3981
    },
    {
      "id": 2,
      "chiefdom": "Chief Tafuna",
      "areaName": "Kasempa Access 2",
      "population": 6021,
      "householdsWithAccess": 674,
      "accessRate": 62.4,
      "averageDistance": 4.3,
      "waterQuality": "Poor",
      "latitude": -8.9106,
      "longitude": 31.3289
    },
    {
      "id": 3,
      "chiefdom": "Chief Tafuna",
      "areaName": "Chingola Access 3",
      "population": 10532,
      "householdsWithAccess": 1444,
      "accessRate": 41.8,
      "averageDistance": 3.2,
      "waterQuality": "Good",
      "latitude": -8.9204,
      "longitude": 31.4498
    },
    {
      "id": 4,
      "chiefdom": "Chief Tafuna",
      "areaName": "Kaunga Access 4",
      "population": 5893,
      "householdsWithAccess": 1796,
      "accessRate": 55.0,
      "averageDistance": 2.5,
      "waterQuality": "Good",
      "latitude": -8.7693,
      "longitude": 31.3514
    },
    {
      "id": 5,
      "chiefdom": "Chief Tafuna",
      "areaName": "Kalabo Access 5",
      "population": 11891,
      "householdsWithAccess": 1754,
      "accessRate": 41.2,
      "averageDistance": 2.3,
      "waterQuality": "Good",
      "latitude": -8.7708,
      "longitude": 31.3755
    },
    {
      "id": 6,
      "chiefdom": "Chief Tafuna",
      "areaName": "Gwembe Access 6",
      "population": 4264,
      "householdsWithAccess": 580,
      "accessRate": 74.8,
      "averageDistance": 7.0,
      "waterQuality": "Excellent",
      "latitude": -8.8121,
      "longitude": 31.401
    },
    {
      "id": 7,
      "chiefdom": "Chief Tafuna",
      "areaName": "Kaputa Access 7",
      "population": 2713,
      "householdsWithAccess": 553,
      "accessRate": 57.1,
      "averageDistance": 6.2,
      "waterQuality": "Fair",
      "latitude": -8.834,
      "longitude": 31.3825
    },
    {
      "id": 8,
      "chiefdom": "Chief Tafuna",
      "areaName": "Luwingu Access 8",
      "population": 7742,
      "householdsWithAccess": 345,
      "accessRate": 45.3,
      "averageDistance": 0.5,
      "waterQuality": "Fair",
      "latitude": -8.9048,
      "longitude": 31.4353
    },
    {
      "id": 9,
      "chiefdom": "Chief Tafuna",
      "areaName": "Pemba Access 9",
      "population": 5092,
      "householdsWithAccess": 1753,
      "accessRate": 87.0,
      "averageDistance": 5.2,
      "waterQuality": "Fair",
      "latitude": -8.9243,
      "longitude": 31.3246
    },
    {
      "id": 10,
      "chiefdom": "Chief Tafuna",
      "areaName": "Katoba Access 10",
      "population": 3540,
      "householdsWithAccess": 818,
      "accessRate": 87.9,
      "averageDistance": 1.8,
      "waterQuality": "Poor",
      "latitude": -8.8961,
      "longitude": 31.3179
    },
    {
      "id": 11,
      "chiefdom": "Chief Tafuna",
      "areaName": "Chilanga Access 11",
      "population": 1365,
      "householdsWithAccess": 1642,
      "accessRate": 84.6,
      "averageDistance": 5.0,
      "waterQuality": "Good",
      "latitude": -8.769,
      "longitude": 31.3499
    },
    {
      "id": 12,
      "chiefdom": "Chief Tafuna",
      "areaName": "Mpanshya Access 12",
      "population": 3984,
      "householdsWithAccess": 1694,
      "accessRate": 47.4,
      "averageDistance": 3.5,
      "waterQuality": "Fair",
      "latitude": -8.9178,
      "longitude": 31.4689
    },
    {
      "id": 13,
      "chiefdom": "Chief Tafuna",
      "areaName": "Petauke Access 13",
      "population": 8002,
      "householdsWithAccess": 306,
      "accessRate": 90.6,
      "averageDistance": 0.9,
      "waterQuality": "Fair",
      "latitude": -8.7951,
      "longitude": 31.4676
    },
    {
      "id": 14,
      "chiefdom": "Chief Tafuna",
      "areaName": "Mbabala Access 14",
      "population": 11840,
      "householdsWithAccess": 1486,
      "accessRate": 57.0,
      "averageDistance": 2.9,
      "waterQuality": "Excellent",
      "latitude": -8.8958,
      "longitude": 31.2776
    },
    {
      "id": 15,
      "chiefdom": "Chief Tafuna",
      "areaName": "Sinda Access 15",
      "population": 3028,
      "householdsWithAccess": 1397,
      "accessRate": 41.9,
      "averageDistance": 2.6,
      "waterQuality": "Excellent",
      "latitude": -8.7536,
      "longitude": 31.4561
    },
    {
      "id": 16,
      "chiefdom": "Chief Tafuna",
      "areaName": "Chibombo Access 16",
      "population": 7528,
      "householdsWithAccess": 1642,
      "accessRate": 79.3,
      "averageDistance": 0.8,
      "waterQuality": "Excellent",
      "latitude": -8.7531,
      "longitude": 31.4048
    },
    {
      "id": 17,
      "chiefdom": "Chief Tafuna",
      "areaName": "Mbala Access 17",
      "population": 2607,
      "householdsWithAccess": 1148,
      "accessRate": 94.2,
      "averageDistance": 2.2,
      "waterQuality": "Excellent",
      "latitude": -8.799,
      "longitude": 31.4009
    },
    {
      "id": 18,
      "chiefdom": "Chief Tafuna",
      "areaName": "Isoka Access 18",
      "population": 1960,
      "householdsWithAccess": 1745,
      "accessRate": 58.5,
      "averageDistance": 4.3,
      "waterQuality": "Poor",
      "latitude": -8.7482,
      "longitude": 31.2982
    },
    {
      "id": 19,
      "chiefdom": "Chief Tafuna",
      "areaName": "Samfya Access 19",
      "population": 9334,
      "householdsWithAccess": 819,
      "accessRate": 59.4,
      "averageDistance": 2.2,
      "waterQuality": "Fair",
      "latitude": -8.8714,
      "longitude": 31.3802
    },
    {
      "id": 20,
      "chiefdom": "Chief Tafuna",
      "areaName": "Kabompo Access 20",
      "population": 3619,
      "householdsWithAccess": 1581,
      "accessRate": 57.8,
      "averageDistance": 4.4,
      "waterQuality": "Poor",
      "latitude": -8.8918,
      "longitude": 31.2975
    },
    {
      "id": 21,
      "chiefdom": "Chief Tafuna",
      "areaName": "Kalabo Access 21",
      "population": 9118,
      "householdsWithAccess": 1645,
      "accessRate": 82.0,
      "averageDistance": 3.2,
      "waterQuality": "Excellent",
      "latitude": -8.7722,
      "longitude": 31.2988
    },
    {
      "id": 22,
      "chiefdom": "Chief Tafuna",
      "areaName": "Nakonde Access 22",
      "population": 6665,
      "householdsWithAccess": 1216,
      "accessRate": 95.0,
      "averageDistance": 7.5,
      "waterQuality": "Good",
      "latitude": -8.7464,
      "longitude": 31.3945
    },
    {
      "id": 23,
      "chiefdom": "Chief Tafuna",
      "areaName": "Mwinilunga Access 23",
      "population": 7971,
      "householdsWithAccess": 1395,
      "accessRate": 62.0,
      "averageDistance": 3.2,
      "waterQuality": "Poor",
      "latitude": -8.8936,
      "longitude": 31.2798
    },
    {
      "id": 24,
      "chiefdom": "Chief Tafuna",
      "areaName": "Lukulu Access 24",
      "population": 9661,
      "householdsWithAccess": 1241,
      "accessRate": 85.2,
      "averageDistance": 0.8,
      "waterQuality": "Poor",
      "latitude": -8.7783,
      "longitude": 31.3663
    },
    {
      "id": 25,
      "chiefdom": "Chief Tafuna",
      "areaName": "Kasempa Access 25",
      "population": 9210,
      "householdsWithAccess": 1689,
      "accessRate": 87.6,
      "averageDistance": 1.1,
      "waterQuality": "Poor",
      "latitude": -8.777,
      "longitude": 31.4655
    },
    {
      "id": 26,
      "chiefdom": "Chief Tafuna",
      "areaName": "Chalimbana Access 26",
      "population": 6120,
      "householdsWithAccess": 1274,
      "accessRate": 81.3,
      "averageDistance": 1.9,
      "waterQuality": "Fair",
      "latitude": -8.7579,
      "longitude": 31.4621
    },
    {
      "id": 27,
      "chiefdom": "Chief Tafuna",
      "areaName": "Petauke Access 27",
      "population": 3044,
      "householdsWithAccess": 1835,
      "accessRate": 72.1,
      "averageDistance": 1.6,
      "waterQuality": "Poor",
      "latitude": -8.8239,
      "longitude": 31.3583
    },
    {
      "id": 28,
      "chiefdom": "Chief Tafuna",
      "areaName": "Mansa Access 28",
      "population": 4149,
      "householdsWithAccess": 627,
      "accessRate": 54.0,
      "averageDistance": 1.0,
      "waterQuality": "Fair",
      "latitude": -8.9173,
      "longitude": 31.4686
    },
    {
      "id": 29,
      "chiefdom": "Chief Tafuna",
      "areaName": "Mkushi Access 29",
      "population": 1855,
      "householdsWithAccess": 1464,
      "accessRate": 80.4,
      "averageDistance": 6.1,
      "waterQuality": "Excellent",
      "latitude": -8.7949,
      "longitude": 31.4006
    },
    {
      "id": 30,
      "chiefdom": "Chief Tafuna",
      "areaName": "Mutumbi Access 30",
      "population": 2288,
      "householdsWithAccess": 1769,
      "accessRate": 45.8,
      "averageDistance": 6.4,
      "waterQuality": "Poor",
      "latitude": -8.9088,
      "longitude": 31.3326
    },
    {
      "id": 31,
      "chiefdom": "Chief Tafuna",
      "areaName": "Leopards Hill Access 31",
      "population": 6505,
      "householdsWithAccess": 1154,
      "accessRate": 41.3,
      "averageDistance": 6.6,
      "waterQuality": "Fair",
      "latitude": -8.8557,
      "longitude": 31.4498
    },
    {
      "id": 32,
      "chiefdom": "Chief Tafuna",
      "areaName": "Lilayi Access 32",
      "population": 5105,
      "householdsWithAccess": 422,
      "accessRate": 91.9,
      "averageDistance": 5.1,
      "waterQuality": "Good",
      "latitude": -8.7833,
      "longitude": 31.4562
    },
    {
      "id": 33,
      "chiefdom": "Chief Tafuna",
      "areaName": "Chilanga Access 33",
      "population": 1573,
      "householdsWithAccess": 1348,
      "accessRate": 66.2,
      "averageDistance": 3.4,
      "waterQuality": "Excellent",
      "latitude": -8.8088,
      "longitude": 31.3443
    },
    {
      "id": 34,
      "chiefdom": "Chief Tafuna",
      "areaName": "Mbala Access 34",
      "population": 5286,
      "householdsWithAccess": 1802,
      "accessRate": 85.7,
      "averageDistance": 3.5,
      "waterQuality": "Excellent",
      "latitude": -8.7575,
      "longitude": 31.3435
    },
    {
      "id": 35,
      "chiefdom": "Chief Tafuna",
      "areaName": "Palabana Access 35",
      "population": 8958,
      "householdsWithAccess": 1703,
      "accessRate": 44.3,
      "averageDistance": 6.3,
      "waterQuality": "Fair",
      "latitude": -8.8125,
      "longitude": 31.4045
    },
    {
      "id": 36,
      "chiefdom": "Chief Tafuna",
      "areaName": "Chadiza Access 36",
      "population": 5292,
      "householdsWithAccess": 1556,
      "accessRate": 57.4,
      "averageDistance": 2.8,
      "waterQuality": "Poor",
      "latitude": -8.9158,
      "longitude": 31.4399
    },
    {
      "id": 37,
      "chiefdom": "Chief Tafuna",
      "areaName": "Kaoma Access 37",
      "population": 9518,
      "householdsWithAccess": 699,
      "accessRate": 76.8,
      "averageDistance": 5.2,
      "waterQuality": "Poor",
      "latitude": -8.8432,
      "longitude": 31.4672
    },
    {
      "id": 38,
      "chiefdom": "Chief Tafuna",
      "areaName": "Nchelenge Access 38",
      "population": 1594,
      "householdsWithAccess": 376,
      "accessRate": 48.1,
      "averageDistance": 7.2,
      "waterQuality": "Excellent",
      "latitude": -8.8542,
      "longitude": 31.3763
    },
    {
      "id": 39,
      "chiefdom": "Chief Tafuna",
      "areaName": "Mufumbwe Access 39",
      "population": 4097,
      "householdsWithAccess": 1221,
      "accessRate": 50.4,
      "averageDistance": 3.9,
      "waterQuality": "Good",
      "latitude": -8.8956,
      "longitude": 31.2878
    },
    {
      "id": 40,
      "chiefdom": "Chief Tafuna",
      "areaName": "Livingstone Access 40",
      "population": 8561,
      "householdsWithAccess": 849,
      "accessRate": 82.5,
      "averageDistance": 6.5,
      "waterQuality": "Good",
      "latitude": -8.8042,
      "longitude": 31.3316
    },
    {
      "id": 41,
      "chiefdom": "Chief Tafuna",
      "areaName": "Ndola Access 41",
      "population": 11812,
      "householdsWithAccess": 490,
      "accessRate": 54.5,
      "averageDistance": 5.4,
      "waterQuality": "Fair",
      "latitude": -8.8129,
      "longitude": 31.2915
    },
    {
      "id": 42,
      "chiefdom": "Chief Tafuna",
      "areaName": "Kanakantapa Access 42",
      "population": 4481,
      "householdsWithAccess": 351,
      "accessRate": 54.6,
      "averageDistance": 3.2,
      "waterQuality": "Fair",
      "latitude": -8.7468,
      "longitude": 31.3834
    },
    {
      "id": 43,
      "chiefdom": "Chief Tafuna",
      "areaName": "Mwembezhi Access 43",
      "population": 2498,
      "householdsWithAccess": 337,
      "accessRate": 41.6,
      "averageDistance": 1.5,
      "waterQuality": "Poor",
      "latitude": -8.8367,
      "longitude": 31.4404
    },
    {
      "id": 44,
      "chiefdom": "Chief Tafuna",
      "areaName": "Mpongwe Access 44",
      "population": 6529,
      "householdsWithAccess": 1238,
      "accessRate": 47.8,
      "averageDistance": 6.2,
      "waterQuality": "Good",
      "latitude": -8.7715,
      "longitude": 31.4313
    },
    {
      "id": 45,
      "chiefdom": "Chief Tafuna",
      "areaName": "Mbabala Access 45",
      "population": 7646,
      "householdsWithAccess": 1590,
      "accessRate": 70.9,
      "averageDistance": 2.2,
      "waterQuality": "Good",
      "latitude": -8.7726,
      "longitude": 31.4678
    },
    {
      "id": 46,
      "chiefdom": "Chief Tafuna",
      "areaName": "Mbabala Access 46",
      "population": 8541,
      "householdsWithAccess": 337,
      "accessRate": 59.8,
      "averageDistance": 0.7,
      "waterQuality": "Excellent",
      "latitude": -8.804,
      "longitude": 31.41
    },
    {
      "id": 47,
      "chiefdom": "Chief Tafuna",
      "areaName": "Senanga Access 47",
      "population": 6021,
      "householdsWithAccess": 794,
      "accessRate": 67.3,
      "averageDistance": 7.7,
      "waterQuality": "Excellent",
      "latitude": -8.7906,
      "longitude": 31.4169
    },
    {
      "id": 48,
      "chiefdom": "Chief Tafuna",
      "areaName": "Mufulira Access 48",
      "population": 11757,
      "householdsWithAccess": 400,
      "accessRate": 83.4,
      "averageDistance": 5.3,
      "waterQuality": "Excellent",
      "latitude": -8.8736,
      "longitude": 31.4124
    },
    {
      "id": 49,
      "chiefdom": "Chief Tafuna",
      "areaName": "Sikanze Access 49",
      "population": 9100,
      "householdsWithAccess": 1803,
      "accessRate": 77.7,
      "averageDistance": 7.9,
      "waterQuality": "Excellent",
      "latitude": -8.8037,
      "longitude": 31.4596
    },
    {
      "id": 50,
      "chiefdom": "Chief Tafuna",
      "areaName": "Chingola Access 50",
      "population": 4781,
      "householdsWithAccess": 530,
      "accessRate": 41.7,
      "averageDistance": 8.0,
      "waterQuality": "Poor",
      "latitude": -8.9378,
      "longitude": 31.274
    }
  ]
}