{
  "healthFacilities": [
    {
      "id": 1,
      "chiefdom": "Chief Monze",
      "district": "Monze",
      "facilityName": "Mpanshya Health 1",
      "facilityType": "Clinic",
      "village": "Kasempa",
      "catchmentPopulation": 8473,
      "numberOfBeds": 55,
      "numberOfDoctors": 7,
      "numberOfNurses": 25,
      "outpatientsPerMonth": 2865,
      "servicesOffered": "General, Emergency, Maternity",
      "status": "Renovation",
      "latitude": -16.2057,
      "longitude": 27.449,
      "averageWalkingDistance": 3.7,
      "lastRenovation": "2025-06-19T15:00:30.863068"
    },
    {
      "id": 2,
      "chiefdom": "Chief Monze",
      "district": "Monze",
      "facilityName": "Nyimba Health 2",
      "facilityType": "Clinic",
      "village": "Mkushi",
      "catchmentPopulation": 28840,
      "numberOfBeds": 69,
      "numberOfDoctors": 13,
      "numberOfNurses": 9,
      "outpatientsPerMonth": 3838,
      "servicesOffered": "General, Emergency, Maternity",
      "status": "Renovation",
      "latitude": -16.2471,
      "longitude": 27.5529,
      "averageWalkingDistance": 8.1,
      "lastRenovation": "2024-01-25T15:00:30.863077"
    },
    {
      "id": 3,
      "chiefdom": "Chief Monze",
      "district": "Monze",
      "facilityName": "Mbabala Health 3",
      "facilityType": "Hospital",
      "village": "Chingola",
      "catchmentPopulation": 10991,
      "numberOfBeds": 104,
      "numberOfDoctors": 13,
      "numberOfNurses": 15,
      "outpatientsPerMonth": 1080,
      "servicesOffered": "General, Emergency, Maternity",
      "status": "Operational",
      "latitude": -16.1942,
      "longitude": 27.4098,
      "averageWalkingDistance": 8.4,
      "lastRenovation": "2024-03-26T15:00:30.863086"
    },
    {
      "id": 4,
      "chiefdom": "Chief Monze",
      "district": "Monze",
      "facilityName": "Kaputa Health 4",
      "facilityType": "Health Post",
      "village": "Kaunga",
      "catchmentPopulation": 6954,
      "numberOfBeds": 138,
      "numberOfDoctors": 13,
      "numberOfNurses": 33,
      "outpatientsPerMonth": 946,
      "servicesOffered": "General, Emergency, Maternity",
      "status": "Operational",
      "latitude": -16.1938,
      "longitude": 27.4006,
      "averageWalkingDistance": 14.7,
      "lastRenovation": "2025-12-27T15:00:30.863094"
    },
    {
      "id": 5,
      "chiefdom": "Chief Monze",
      "district": "Monze",
      "facilityName": "Leopards Hill Health 5",
      "facilityType": "Clinic",
      "village": "Petauke",
      "catchmentPopulation": 26114,
      "numberOfBeds": 112,
      "numberOfDoctors": 7,
      "numberOfNurses": 10,
      "outpatientsPerMonth": 3947,
      "servicesOffered": "General, Emergency, Maternity",
      "status": "Renovation",
      "latitude": -16.3096,
      "longitude": 27.3801,
      "averageWalkingDistance": 5.0,
      "lastRenovation": "2024-09-01T15:00:30.863103"
    },
    {
      "id": 6,
      "chiefdom": "Chief Monze",
      "district": "Monze",
      "facilityName": "Zambezi Health 6",
      "facilityType": "Clinic",
      "village": "Kaputa",
      "catchmentPopulation": 14543,
      "numberOfBeds": 31,
      "numberOfDoctors": 1,
      "numberOfNurses": 31,
      "outpatientsPerMonth": 3424,
      "servicesOffered": "General, Emergency, Maternity",
      "status": "Operational",
      "latitude": -16.2237,
      "longitude": 27.5421,
      "averageWalkingDistance": 4.3,
      "lastRenovation": "2025-11-25T15:00:30.863111"
    },
    {
      "id": 7,
      "chiefdom": "Chief Monze",
      "district": "Monze",
      "facilityName": "Livingstone Health 7",
      "facilityType": "Hospital",
      "village": "Mazabuka",
      "catchmentPopulation": 28709,
      "numberOfBeds": 132,
      "numberOfDoctors": 12,
      "numberOfNurses": 19,
      "outpatientsPerMonth": 2326,
      "servicesOffered": "General, Emergency, Maternity",
      "status": "Operational",
      "latitude": -16.3679,
      "longitude": 27.4884,
      "averageWalkingDistance": 5.5,
      "lastRenovation": "2025-07-06T15:00:30.863120"
    },
    {
      "id": 8,
      "chiefdom": "Chief Monze",
      "district": "Monze",
      "facilityName": "Sesheke Health 8",
      "facilityType": "Clinic",
      "village": "Mazabuka",
      "catchmentPopulation": 8637,
      "numberOfBeds": 176,
      "numberOfDoctors": 1,
      "numberOfNurses": 39,
      "outpatientsPerMonth": 1620,
      "servicesOffered": "General, Emergency, Maternity",
      "status": "Limited",
      "latitude": -16.3366,
      "longitude": 27.5431,
      "averageWalkingDistance": 5.1,
      "lastRenovation": "2024-03-23T15:00:30.863128"
    },
    {
      "id": 9,
      "chiefdom": "Chief Monze",
      "district": "Monze",
      "facilityName": "Sinazongwe Health 9",
      "facilityType": "Hospital",
      "village": "Sesheke",
      "catchmentPopulation": 24130,
      "numberOfBeds": 149,
      "numberOfDoctors": 7,
      "numberOfNurses": 44,
      "outpatientsPerMonth": 2534,
      "servicesOffered": "General, Emergency, Maternity",
      "status": "Renovation",
      "latitude": -16.2408,
      "longitude": 27.5732,
      "averageWalkingDistance": 2.8,
      "lastRenovation": "2025-10-31T15:00:30.863136"
    },
    {
      "id": 10,
      "chiefdom": "Chief Monze",
      "district": "Monze",
      "facilityName": "Kasempa Health 10",
      "facilityType": "Hospital",
      "village": "Lunsemfwa",
      "catchmentPopulation": 5002,
      "numberOfBeds": 174,
      "numberOfDoctors": 2,
      "numberOfNurses": 7,
      "outpatientsPerMonth": 1333,
      "servicesOffered": "General, Emergency, Maternity",
      "status": "Operational",
      "latitude": -16.3695,
      "longitude": 27.3882,
      "averageWalkingDistance": 4.9,
      "lastRenovation": "2024-05-25T15:00:30.863145"
    },
    {
      "id": 11,
      "chiefdom": "Chief Monze",
      "district": "Monze",
      "facilityName": "Kasama Health 11",
      "facilityType": "Clinic",
      "village": "Kapiri",
      "catchmentPopulation": 22098,
      "numberOfBeds": 153,
      "numberOfDoctors": 2,
      "numberOfNurses": 9,
      "outpatientsPerMonth": 2159,
      "servicesOffered": "General, Emergency, Maternity",
      "status": "Limited",
      "latitude": -16.3678,
      "longitude": 27.4725,
      "averageWalkingDistance": 13.0,
      "lastRenovation": "2025-05-09T15:00:30.863153"
    },
    {
      "id": 12,
      "chiefdom": "Chief Monze",
      "district": "Monze",
      "facilityName": "Mufulira Health 12",
      "facilityType": "Health Post",
      "village": "Kawambwa",
      "catchmentPopulation": 24129,
      "numberOfBeds": 25,
      "numberOfDoctors": 13,
      "numberOfNurses": 35,
      "outpatientsPerMonth": 1636,
      "servicesOffered": "General, Emergency, Maternity",
      "status": "Renovation",
      "latitude": -16.1959,
      "longitude": 27.4328,
      "averageWalkingDistance": 8.0,
      "lastRenovation": "2026-01-04T15:00:30.863162"
    },
    {
      "id": 13,
      "chiefdom": "Chief Monze",
      "district": "Monze",
      "facilityName": "Siavonga Health 13",
      "facilityType": "Hospital",
      "village": "Mbala",
      "catchmentPopulation": 7245,
      "numberOfBeds": 88,
      "numberOfDoctors": 6,
      "numberOfNurses": 7,
      "outpatientsPerMonth": 1452,
      "servicesOffered": "General, Emergency, Maternity",
      "status": "Renovation",
      "latitude": -16.2643,
      "longitude": 27.4285,
      "averageWalkingDistance": 12.9,
      "lastRenovation": "2025-05-29T15:00:30.863170"
    },
    {
      "id": 14,
      "chiefdom": "Chief Monze",
      "district": "Monze",
      "facilityName": "Munyumba Health 14",
      "facilityType": "Clinic",
      "village": "Luangwa",
      "catchmentPopulation": 28242,
      "numberOfBeds": 38,
      "numberOfDoctors": 11,
      "numberOfNurses": 41,
      "outpatientsPerMonth": 1638,
      "servicesOffered": "General, Emergency, Maternity",
      "status": "Limited",
      "latitude": -16.2144,
      "longitude": 27.5622,
      "averageWalkingDistance": 8.9,
      "lastRenovation": "2025-08-22T15:00:30.863179"
    },
    {
      "id": 15,
      "chiefdom": "Chief Monze",
      "district": "Monze",
      "facilityName": "Kalulushi Health 15",
      "facilityType": "Hospital",
      "village": "Palabana",
      "catchmentPopulation": 9623,
      "numberOfBeds": 161,
      "numberOfDoctors": 5,
      "numberOfNurses": 38,
      "outpatientsPerMonth": 633,
      "servicesOffered": "General, Emergency, Maternity",
      "status": "Limited",
      "latitude": -16.3208,
      "longitude": 27.3969,
      "averageWalkingDistance": 4.8,
      "lastRenovation": "2025-09-28T15:00:30.863188"
    },
    {
      "id": 16,
      "chiefdom": "Chief Monze",
      "district": "Monze",
      "facilityName": "Kafue Riverside Health 16",
      "facilityType": "Hospital",
      "village": "Kafue Riverside",
      "catchmentPopulation": 10007,
      "numberOfBeds": 125,
      "numberOfDoctors": 15,
      "numberOfNurses": 16,
      "outpatientsPerMonth": 1668,
      "servicesOffered": "General, Emergency, Maternity",
      "status": "Operational",
      "latitude": -16.3789,
      "longitude": 27.5104,
      "averageWalkingDistance": 13.6,
      "lastRenovation": "2024-08-04T15:00:30.863196"
    },
    {
      "id": 17,
      "chiefdom": "Chief Monze",
      "district": "Monze",
      "facilityName": "Sinazongwe Health 17",
      "facilityType": "Hospital",
      "village": "Mbabala",
      "catchmentPopulation": 21358,
      "numberOfBeds": 24,
      "numberOfDoctors": 6,
      "numberOfNurses": 14,
      "outpatientsPerMonth": 2977,
      "servicesOffered": "General, Emergency, Maternity",
      "status": "Operational",
      "latitude": -16.3194,
      "longitude": 27.4054,
      "averageWalkingDistance": 6.5,
      "lastRenovation": "2025-05-25T15:00:30.863205"
    },
    {
      "id": 18,
      "chiefdom": "Chief Monze",
      "district": "Monze",
      "facilityName": "Kafue Riverside Health 18",
      "facilityType": "Clinic",
      "village": "Kasempa",
      "catchmentPopulation": 14839,
      "numberOfBeds": 99,
      "numberOfDoctors": 2,
      "numberOfNurses": 15,
      "outpatientsPerMonth": 1995,
      "servicesOffered": "General, Emergency, Maternity",
      "status": "Operational",
      "latitude": -16.361,
      "longitude": 27.473,
      "averageWalkingDistance": 10.0,
      "lastRenovation": "2025-03-09T15:00:30.863215"
    },
    {
      "id": 19,
      "chiefdom": "Chief Monze",
      "district": "Monze",
      "facilityName": "Munyumba Health 19",
      "facilityType": "Health Post",
      "village": "Chalimbana",
      "catchmentPopulation": 18668,
      "numberOfBeds": 58,
      "numberOfDoctors": 8,
      "numberOfNurses": 8,
      "outpatientsPerMonth": 1698,
      "servicesOffered": "General, Emergency, Maternity",
      "status": "Renovation",
      "latitude": -16.3764,
      "longitude": 27.4241,
      "averageWalkingDistance": 9.4,
      "lastRenovation": "2024-02-03T15:00:30.863224"
    },
    {
      "id": 20,
      "chiefdom": "Chief Monze",
      "district": "Monze",
      "facilityName": "Luangwa Health 20",
      "facilityType": "Hospital",
      "village": "Kalulushi",
      "catchmentPopulation": 24024,
      "numberOfBeds": 130,
      "numberOfDoctors": 14,
      "numberOfNurses": 21,
      "outpatientsPerMonth": 790,
      "servicesOffered": "General, Emergency, Maternity",
      "status": "Renovation",
      "latitude": -16.3211,
      "longitude": 27.4856,
      "averageWalkingDistance": 5.8,
      "lastRenovation": "2025-07-13T15:00:30.863232"
    },
    {
      "id": 21,
      "chiefdom": "Chief Monze",
      "district": "Monze",
      "facilityName": "Ndola Health 21",
      "facilityType": "Hospital",
      "village": "Sikanze",
      "catchmentPopulation": 13584,
      "numberOfBeds": 56,
      "numberOfDoctors": 3,
      "numberOfNurses": 10,
      "outpatientsPerMonth": 3672,
      "servicesOffered": "General, Emergency, Maternity",
      "status": "Limited",
      "latitude": -16.3581,
      "longitude": 27.3985,
      "averageWalkingDistance": 6.9,
      "lastRenovation": "2026-01-12T15:00:30.863241"
    },
    {
      "id": 22,
      "chiefdom": "Chief Monze",
      "district": "Monze",
      "facilityName": "Katete Health 22",
      "facilityType": "Clinic",
      "village": "Nchelenge",
      "catchmentPopulation": 27233,
      "numberOfBeds": 35,
      "numberOfDoctors": 14,
      "numberOfNurses": 17,
      "outpatientsPerMonth": 731,
      "servicesOffered": "General, Emergency, Maternity",
      "status": "Operational",
      "latitude": -16.323,
      "longitude": 27.5319,
      "averageWalkingDistance": 4.0,
      "lastRenovation": "2025-12-29T15:00:30.863249"
    },
    {
      "id": 23,
      "chiefdom": "Chief Monze",
      "district": "Monze",
      "facilityName": "Monze Health 23",
      "facilityType": "Health Post",
      "village": "Palabana",
      "catchmentPopulation": 20298,
      "numberOfBeds": 41,
      "numberOfDoctors": 2,
      "numberOfNurses": 11,
      "outpatientsPerMonth": 574,
      "servicesOffered": "General, Emergency, Maternity",
      "status": "Operational",
      "latitude": -16.3746,
      "longitude": 27.453,
      "averageWalkingDistance": 9.3,
      "lastRenovation": "2025-08-26T15:00:30.863258"
    },
    {
      "id": 24,
      "chiefdom": "Chief Monze",
      "district": "Monze",
      "facilityName": "Chalimbana Health 24",
      "facilityType": "Health Post",
      "village": "Mufumbwe",
      "catchmentPopulation": 17527,
      "numberOfBeds": 88,
      "numberOfDoctors": 14,
      "numberOfNurses": 8,
      "outpatientsPerMonth": 2013,
      "servicesOffered": "General, Emergency, Maternity",
      "status": "Renovation",
      "latitude": -16.2926,
      "longitude": 27.4796,
      "averageWalkingDistance": 8.3,
      "lastRenovation": "2024-12-11T15:00:30.863266"
    },
    {
      "id": 25,
      "chiefdom": "Chief Monze",
      "district": "Monze",
      "facilityName": "Mwinilunga Health 25",
      "facilityType": "Clinic",
      "village": "Chipapa",
      "catchmentPopulation": 20851,
      "numberOfBeds": 141,
      "numberOfDoctors": 7,
      "numberOfNurses": 42,
      "outpatientsPerMonth": 3077,
      "servicesOffered": "General, Emergency, Maternity",
      "status": "Renovation",
      "latitude": -16.3757,
      "longitude": 27.5713,
      "averageWalkingDistance": 9.1,
      "lastRenovation": "2025-03-31T15:00:30.863274"
    },
    {
      "id": 26,
      "chiefdom": "Chief Monze",
      "district": "Monze",
      "facilityName": "Kasempa Health 26",
      "facilityType": "Health Post",
      "village": "Chainda",
      "catchmentPopulation": 28905,
      "numberOfBeds": 108,
      "numberOfDoctors": 8,
      "numberOfNurses": 11,
      "outpatientsPerMonth": 888,
      "servicesOffered": "General, Emergency, Maternity",
      "status": "Renovation",
      "latitude": -16.3308,
      "longitude": 27.4752,
      "averageWalkingDistance": 4.0,
      "lastRenovation": "2025-04-07T15:00:30.863283"
    },
    {
      "id": 27,
      "chiefdom": "Chief Monze",
      "district": "Monze",
      "facilityName": "Monze Health 27",
      "facilityType": "Hospital",
      "village": "Chama",
      "catchmentPopulation": 27614,
      "numberOfBeds": 33,
      "numberOfDoctors": 5,
      "numberOfNurses": 46,
      "outpatientsPerMonth": 1869,
      "servicesOffered": "General, Emergency, Maternity",
      "status": "Renovation",
      "latitude": -16.2967,
      "longitude": 27.5563,
      "averageWalkingDistance": 4.6,
      "lastRenovation": "2025-06-23T15:00:30.863291"
    },
    {
      "id": 28,
      "chiefdom": "Chief Monze",
      "district": "Monze",
      "facilityName": "Mambwe Health 28",
      "facilityType": "Hospital",
      "village": "Sesheke",
      "catchmentPopulation": 5803,
      "numberOfBeds": 52,
      "numberOfDoctors": 14,
      "numberOfNurses": 20,
      "outpatientsPerMonth": 2247,
      "servicesOffered": "General, Emergency, Maternity",
      "status": "Limited",
      "latitude": -16.2346,
      "longitude": 27.4407,
      "averageWalkingDistance": 7.8,
      "lastRenovation": "2024-08-06T15:00:30.863299"
    },
    {
      "id": 29,
      "chiefdom": "Chief Monze",
      "district": "Monze",
      "facilityName": "Chama Health 29",
      "facilityType": "Health Post",
      "village": "Chalala",
      "catchmentPopulation": 5442,
      "numberOfBeds": 167,
      "numberOfDoctors": 2,
      "numberOfNurses": 40,
      "outpatientsPerMonth": 3893,
      "servicesOffered": "General, Emergency, Maternity",
      "status": "Operational",
      "latitude": -16.3579,
      "longitude": 27.5416,
      "averageWalkingDistance": 12.6,
      "lastRenovation": "2025-09-01T15:00:30.863308"
    },
    {
      "id": 30,
      "chiefdom": "Chief Monze",
      "district": "Monze",
      "facilityName": "Mpongwe Health 30",
      "facilityType": "Health Post",
      "village": "Zambezi",
      "catchmentPopulation": 13171,
      "numberOfBeds": 41,
      "numberOfDoctors": 9,
      "numberOfNurses": 30,
      "outpatientsPerMonth": 2547,
      "servicesOffered": "General, Emergency, Maternity",
      "status": "Renovation",
      "latitude": -16.193,
      "longitude": 27.5187,
      "averageWalkingDistance": 13.7,
      "lastRenovation": "2024-09-20T15:00:30.863316"
    },
    {
      "id": 31,
      "chiefdom": "Chief Monze",
      "district": "Monze",
      "facilityName": "Kabompo Health 31",
      "facilityType": "Hospital",
      "village": "Mpika",
      "catchmentPopulation": 19354,
      "numberOfBeds": 198,
      "numberOfDoctors": 4,
      "numberOfNurses": 47,
      "outpatientsPerMonth": 1389,
      "servicesOffered": "General, Emergency, Maternity",
      "status": "Renovation",
      "latitude": -16.1878,
      "longitude": 27.5581,
      "averageWalkingDistance": 8.3,
      "lastRenovation": "2024-03-09T15:00:30.863325"
    },
    {
      "id": 32,
      "chiefdom": "Chief Monze",
      "district": "Monze",
      "facilityName": "Mumbwa Health 32",
      "facilityType": "Health Post",
      "village": "Sinda",
      "catchmentPopulation": 17163,
      "numberOfBeds": 170,
      "numberOfDoctors": 9,
      "numberOfNurses": 48,
      "outpatientsPerMonth": 3151,
      "servicesOffered": "General, Emergency, Maternity",
      "status": "Limited",
      "latitude": -16.1855,
      "longitude": 27.5021,
      "averageWalkingDistance": 10.4,
      "lastRenovation": "2024-12-20T15:00:30.863333"
    },
    {
      "id": 33,
      "chiefdom": "Chief Monze",
      "district": "Monze",
      "facilityName": "Mambwe Health 33",
      "facilityType": "Health Post",
      "village": "Katoba",
      "catchmentPopulation": 18754,
      "numberOfBeds": 78,
      "numberOfDoctors": 11,
      "numberOfNurses": 38,
      "outpatientsPerMonth": 2750,
      "servicesOffered": "General, Emergency, Maternity",
      "status": "Operational",
      "latitude": -16.3103,
      "longitude": 27.5139,
      "averageWalkingDistance": 11.4,
      "lastRenovation": "2025-12-15T15:00:30.863342"
    },
    {
      "id": 34,
      "chiefdom": "Chief Monze",
      "district": "Monze",
      "facilityName": "Chingola Health 34",
      "facilityType": "Clinic",
      "village": "Sesheke",
      "catchmentPopulation": 22683,
      "numberOfBeds": 145,
      "numberOfDoctors": 8,
      "numberOfNurses": 46,
      "outpatientsPerMonth": 1535,
      "servicesOffered": "General, Emergency, Maternity",
      "status": "Limited",
      "latitude": -16.1968,
      "longitude": 27.4852,
      "averageWalkingDistance": 8.1,
      "lastRenovation": "2024-12-06T15:00:30.863350"
    },
    {
      "id": 35,
      "chiefdom": "Chief Monze",
      "district": "Monze",
      "facilityName": "Lunsemfwa Health 35",
      "facilityType": "Hospital",
      "village": "Solwezi",
      "catchmentPopulation": 14742,
      "numberOfBeds": 160,
      "numberOfDoctors": 1,
      "numberOfNurses": 25,
      "outpatientsPerMonth": 3209,
      "servicesOffered": "General, Emergency, Maternity",
      "status": "Operational",
      "latitude": -16.2923,
      "longitude": 27.548,
      "averageWalkingDistance": 5.4,
      "lastRenovation": "2024-12-17T15:00:30.863359"
    },
    {
      "id": 36,
      "chiefdom": "Chief Monze",
      "district": "Monze",
      "facilityName": "Gwembe Health 36",
      "facilityType": "Health Post",
      "village": "Chilanga",
      "catchmentPopulation": 11341,
      "numberOfBeds": 175,
      "numberOfDoctors": 3,
      "numberOfNurses": 29,
      "outpatientsPerMonth": 2487,
      "servicesOffered": "General, Emergency, Maternity",
      "status": "Operational",
      "latitude": -16.2472,
      "longitude": 27.5626,
      "averageWalkingDistance": 6.0,
      "lastRenovation": "2024-07-30T15:00:30.863368"
    },
    {
      "id": 37,
      "chiefdom": "Chief Monze",
      "district": "Monze",
      "facilityName": "Senanga Health 37",
      "facilityType": "Hospital",
      "village": "Mutumbi",
      "catchmentPopulation": 6307,
      "numberOfBeds": 165,
      "numberOfDoctors": 8,
      "numberOfNurses": 20,
      "outpatientsPerMonth": 2439,
      "servicesOffered": "General, Emergency, Maternity",
      "status": "Renovation",
      "latitude": -16.3255,
      "longitude": 27.5423,
      "averageWalkingDistance": 13.4,
      "lastRenovation": "2024-10-22T15:00:30.863376"
    },
    {
      "id": 38,
      "chiefdom": "Chief Monze",
      "district": "Monze",
      "facilityName": "Mpanshya Health 38",
      "facilityType": "Clinic",
      "village": "Makeni",
      "catchmentPopulation": 26752,
      "numberOfBeds": 190,
      "numberOfDoctors": 8,
      "numberOfNurses": 5,
      "outpatientsPerMonth": 1241,
      "servicesOffered": "General, Emergency, Maternity",
      "status": "Limited",
      "latitude": -16.3663,
      "longitude": 27.406,
      "averageWalkingDistance": 3.5,
      "lastRenovation": "2025-06-05T15:00:30.863384"
    },
    {
      "id": 39,
      "chiefdom": "Chief Monze",
      "district": "Monze",
      "facilityName": "Kabwe Health 39",
      "facilityType": "Hospital",
      "village": "Mongu",
      "catchmentPopulation": 18714,
      "numberOfBeds": 38,
      "numberOfDoctors": 13,
      "numberOfNurses": 24,
      "outpatientsPerMonth": 2356,
      "servicesOffered": "General, Emergency, Maternity",
      "status": "Operational",
      "latitude": -16.1914,
      "longitude": 27.4301,
      "averageWalkingDistance": 3.8,
      "lastRenovation": "2025-08-25T15:00:30.863393"
    },
    {
      "id": 40,
      "chiefdom": "Chief Monze",
      "district": "Monze",
      "facilityName": "Siavonga Health 40",
      "facilityType": "Clinic",
      "village": "Chilanga",
      "catchmentPopulation": 15383,
      "numberOfBeds": 99,
      "numberOfDoctors": 7,
      "numberOfNurses": 25,
      "outpatientsPerMonth": 2803,
      "servicesOffered": "General, Emergency, Maternity",
      "status": "Operational",
      "latitude": -16.3505,
      "longitude": 27.5618,
      "averageWalkingDistance": 4.8,
      "lastRenovation": "2025-02-23T15:00:30.863401"
    },
    {
      "id": 41,
      "chiefdom": "Chief Monze",
      "district": "Monze",
      "facilityName": "Mpika Health 41",
      "facilityType": "Clinic",
      "village": "Chalala",
      "catchmentPopulation": 22932,
      "numberOfBeds": 192,
      "numberOfDoctors": 6,
      "numberOfNurses": 33,
      "outpatientsPerMonth": 3394,
      "servicesOffered": "General, Emergency, Maternity",
      "status": "Limited",
      "latitude": -16.3554,
      "longitude": 27.5334,
      "averageWalkingDistance": 12.9,
      "lastRenovation": "2025-02-15T15:00:30.863409"
    },
    {
      "id": 42,
      "chiefdom": "Chief Monze",
      "district": "Monze",
      "facilityName": "Sinazongwe Health 42",
      "facilityType": "Clinic",
      "village": "Samfya",
      "catchmentPopulation": 28030,
      "numberOfBeds": 121,
      "numberOfDoctors": 9,
      "numberOfNurses": 39,
      "outpatientsPerMonth": 996,
      "servicesOffered": "General, Emergency, Maternity",
      "status": "Limited",
      "latitude": -16.1934,
      "longitude": 27.4784,
      "averageWalkingDistance": 13.0,
      "lastRenovation": "2024-07-17T15:00:30.863423"
    },
    {
      "id": 43,
      "chiefdom": "Chief Monze",
      "district": "Monze",
      "facilityName": "Mwembezhi Health 43",
      "facilityType": "Clinic",
      "village": "Mwinilunga",
      "catchmentPopulation": 5250,
      "numberOfBeds": 121,
      "numberOfDoctors": 10,
      "numberOfNurses": 36,
      "outpatientsPerMonth": 2546,
      "servicesOffered": "General, Emergency, Maternity",
      "status": "Operational",
      "latitude": -16.3458,
      "longitude": 27.4123,
      "averageWalkingDistance": 4.5,
      "lastRenovation": "2024-10-25T15:00:30.863432"
    },
    {
      "id": 44,
      "chiefdom": "Chief Monze",
      "district": "Monze",
      "facilityName": "Kabompo Health 44",
      "facilityType": "Hospital",
      "village": "Munyumba",
      "catchmentPopulation": 6147,
      "numberOfBeds": 137,
      "numberOfDoctors": 14,
      "numberOfNurses": 11,
      "outpatientsPerMonth": 3824,
      "servicesOffered": "General, Emergency, Maternity",
      "status": "Limited",
      "latitude": -16.2127,
      "longitude": 27.4763,
      "averageWalkingDistance": 8.0,
      "lastRenovation": "2025-05-13T15:00:30.863441"
    },
    {
      "id": 45,
      "chiefdom": "Chief Monze",
      "district": "Monze",
      "facilityName": "Nyimba Health 45",
      "facilityType": "Health Post",
      "village": "Katoba",
      "catchmentPopulation": 25344,
      "numberOfBeds": 127,
      "numberOfDoctors": 8,
      "numberOfNurses": 37,
      "outpatientsPerMonth": 3233,
      "servicesOffered": "General, Emergency, Maternity",
      "status": "Operational",
      "latitude": -16.2525,
      "longitude": 27.538,
      "averageWalkingDistance": 7.1,
      "lastRenovation": "2024-08-30T15:00:30.863449"
    },
    {
      "id": 46,
      "chiefdom": "Chief Monze",
      "district": "Monze",
      "facilityName": "Kabompo Health 46",
      "facilityType": "Hospital",
      "village": "Katete",
      "catchmentPopulation": 21135,
      "numberOfBeds": 107,
      "numberOfDoctors": 15,
      "numberOfNurses": 45,
      "outpatientsPerMonth": 710,
      "servicesOffered": "General, Emergency, Maternity",
      "status": "Renovation",
      "latitude": -16.2051,
      "longitude": 27.5794,
      "averageWalkingDistance": 4.4,
      "lastRenovation": "2025-01-20T15:00:30.863457"
    },
    {
      "id": 47,
      "chiefdom": "Chief Monze",
      "district": "Monze",
      "facilityName": "Ngwerere Health 47",
      "facilityType": "Health Post",
      "village": "Pemba",
      "catchmentPopulation": 18107,
      "numberOfBeds": 107,
      "numberOfDoctors": 7,
      "numberOfNurses": 29,
      "outpatientsPerMonth": 676,
      "servicesOffered": "General, Emergency, Maternity",
      "status": "Operational",
      "latitude": -16.3365,
      "longitude": 27.461,
      "averageWalkingDistance": 9.8,
      "lastRenovation": "2024-04-08T15:00:30.863466"
    },
    {
      "id": 48,
      "chiefdom": "Chief Monze",
      "district": "Monze",
      "facilityName": "Sinazongwe Health 48",
      "facilityType": "Hospital",
      "village": "Chama",
      "catchmentPopulation": 19074,
      "numberOfBeds": 45,
      "numberOfDoctors": 3,
      "numberOfNurses": 32,
      "outpatientsPerMonth": 1997,
      "servicesOffered": "General, Emergency, Maternity",
      "status": "Operational",
      "latitude": -16.2939,
      "longitude": 27.3893,
      "averageWalkingDistance": 5.6,
      "lastRenovation": "2024-09-15T15:00:30.863475"
    },
    {
      "id": 49,
      "chiefdom": "Chief Monze",
      "district": "Monze",
      "facilityName": "Petauke Health 49",
      "facilityType": "Hospital",
      "village": "Monze",
      "catchmentPopulation": 26691,
      "numberOfBeds": 64,
      "numberOfDoctors": 12,
      "numberOfNurses": 25,
      "outpatientsPerMonth": 2368,
      "servicesOffered": "General, Emergency, Maternity",
      "status": "Renovation",
      "latitude": -16.1806,
      "longitude": 27.4727,
      "averageWalkingDistance": 4.6,
      "lastRenovation": "2024-01-23T15:00:30.863483"
    },
    {
      "id": 50,
      "chiefdom": "Chief Monze",
      "district": "Monze",
      "facilityName": "Mansa Health 50",
      "facilityType": "Clinic",
      "village": "Mongu",
      "catchmentPopulation": 26907,
      "numberOfBeds": 84,
      "numberOfDoctors": 6,
      "numberOfNurses": 45,
      "outpatientsPerMonth": 2321,
      "servicesOffered": "General, Emergency, Maternity",
      "status": "Renovation",
      "latitude": -16.3104,
      "longitude": 27.4133,
      "averageWalkingDistance": 3.2,
      "lastRenovation": "2024-05-29T15:00:30.863492"
    }
  ],
  "educationFacilities": [
    {
      "id": 1,
      "chiefdom": "Chief Monze",
      "district": "Monze",
      "facilityName": "Chadiza School 1",
      "facilityType": "Community School",
      "village": "Gwembe",
      "enrolledStudents": 1115,
      "capacity": 393,
      "numberOfTeachers": 17,
      "numberOfClassrooms": 8,
      "pupilTeacherRatio": 55,
      "passRate": 62.0,
      "status": "Operational",
      "latitude": -16.3305,
      "longitude": 27.4966,
      "averageDistance": 2.5,
      "lastInspection": "2025-03-04T15:00:30.863502"
    },
    {
      "id": 2,
      "chiefdom": "Chief Monze",
      "district": "Monze",
      "facilityName": "Mkushi School 2",
      "facilityType": "Secondary School",
      "village": "Sinazongwe",
      "enrolledStudents": 675,
      "capacity": 910,
      "numberOfTeachers": 41,
      "numberOfClassrooms": 19,
      "pupilTeacherRatio": 49,
      "passRate": 70.3,
      "status": "Operational",
      "latitude": -16.2998,
      "longitude": 27.5101,
      "averageDistance": 6.6,
      "lastInspection": "2025-12-31T15:00:30.863512"
    },
    {
      "id": 3,
      "chiefdom": "Chief Monze",
      "district": "Monze",
      "facilityName": "Katete School 3",
      "facilityType": "Primary School",
      "village": "Mazabuka",
      "enrolledStudents": 301,
      "capacity": 822,
      "numberOfTeachers": 38,
      "numberOfClassrooms": 25,
      "pupilTeacherRatio": 26,
      "passRate": 89.7,
      "status": "Operational",
      "latitude": -16.3475,
      "longitude": 27.393,
      "averageDistance": 1.5,
      "lastInspection": "2025-05-05T15:00:30.863521"
    },
    {
      "id": 4,
      "chiefdom": "Chief Monze",
      "district": "Monze",
      "facilityName": "Mkushi School 4",
      "facilityType": "Secondary School",
      "village": "Kaputa",
      "enrolledStudents": 474,
      "capacity": 1295,
      "numberOfTeachers": 14,
      "numberOfClassrooms": 8,
      "pupilTeacherRatio": 48,
      "passRate": 85.7,
      "status": "Operational",
      "latitude": -16.3119,
      "longitude": 27.3946,
      "averageDistance": 5.8,
      "lastInspection": "2025-02-14T15:00:30.863530"
    },
    {
      "id": 5,
      "chiefdom": "Chief Monze",
      "district": "Monze",
      "facilityName": "Sinda School 5",
      "facilityType": "Primary School",
      "village": "Lukulu",
      "enrolledStudents": 597,
      "capacity": 1011,
      "numberOfTeachers": 27,
      "numberOfClassrooms": 9,
      "pupilTeacherRatio": 27,
      "passRate": 76.3,
      "status": "Overcrowded",
      "latitude": -16.3149,
      "longitude": 27.3841,
      "averageDistance": 8.8,
      "lastInspection": "2025-07-31T15:00:30.863539"
    },
    {
      "id": 6,
      "chiefdom": "Chief Monze",
      "district": "Monze",
      "facilityName": "Petauke School 6",
      "facilityType": "Secondary School",
      "village": "Zambezi",
      "enrolledStudents": 771,
      "capacity": 1153,
      "numberOfTeachers": 14,
      "numberOfClassrooms": 25,
      "pupilTeacherRatio": 51,
      "passRate": 83.9,
      "status": "Overcrowded",
      "latitude": -16.1943,
      "longitude": 27.3857,
      "averageDistance": 3.3,
      "lastInspection": "2025-12-26T15:00:30.863548"
    },
    {
      "id": 7,
      "chiefdom": "Chief Monze",
      "district": "Monze",
      "facilityName": "Nakonde School 7",
      "facilityType": "Community School",
      "village": "Ndola",
      "enrolledStudents": 645,
      "capacity": 724,
      "numberOfTeachers": 25,
      "numberOfClassrooms": 16,
      "pupilTeacherRatio": 50,
      "passRate": 77.1,
      "status": "Operational",
      "latitude": -16.2703,
      "longitude": 27.5758,
      "averageDistance": 4.7,
      "lastInspection": "2025-10-10T15:00:30.863557"
    },
    {
      "id": 8,
      "chiefdom": "Chief Monze",
      "district": "Monze",
      "facilityName": "Nakonde School 8",
      "facilityType": "Community School",
      "village": "Mpongwe",
      "enrolledStudents": 902,
      "capacity": 1127,
      "numberOfTeachers": 27,
      "numberOfClassrooms": 9,
      "pupilTeacherRatio": 33,
      "passRate": 90.6,
      "status": "Operational",
      "latitude": -16.3728,
      "longitude": 27.5269,
      "averageDistance": 1.3,
      "lastInspection": "2025-04-23T15:00:30.863566"
    },
    {
      "id": 9,
      "chiefdom": "Chief Monze",
      "district": "Monze",
      "facilityName": "Chadiza School 9",
      "facilityType": "Primary School",
      "village": "Chibombo",
      "enrolledStudents": 465,
      "capacity": 377,
      "numberOfTeachers": 21,
      "numberOfClassrooms": 13,
      "pupilTeacherRatio": 46,
      "passRate": 89.2,
      "status": "Operational",
      "latitude": -16.3115,
      "longitude": 27.3885,
      "averageDistance": 9.3,
      "lastInspection": "2025-05-02T15:00:30.863575"
    },
    {
      "id": 10,
      "chiefdom": "Chief Monze",
      "district": "Monze",
      "facilityName": "Chalimbana School 10",
      "facilityType": "Secondary School",
      "village": "Mufulira",
      "enrolledStudents": 720,
      "capacity": 977,
      "numberOfTeachers": 42,
      "numberOfClassrooms": 10,
      "pupilTeacherRatio": 38,
      "passRate": 88.6,
      "status": "Operational",
      "latitude": -16.3223,
      "longitude": 27.3848,
      "averageDistance": 1.8,
      "lastInspection": "2025-04-09T15:00:30.863584"
    },
    {
      "id": 11,
      "chiefdom": "Chief Monze",
      "district": "Monze",
      "facilityName": "Mufumbwe School 11",
      "facilityType": "Secondary School",
      "village": "Sesheke",
      "enrolledStudents": 686,
      "capacity": 1277,
      "numberOfTeachers": 25,
      "numberOfClassrooms": 10,
      "pupilTeacherRatio": 49,
      "passRate": 73.2,
      "status": "Operational",
      "latitude": -16.1893,
      "longitude": 27.5026,
      "averageDistance": 7.6,
      "lastInspection": "2025-05-06T15:00:30.863593"
    },
    {
      "id": 12,
      "chiefdom": "Chief Monze",
      "district": "Monze",
      "facilityName": "Chongwe Central School 12",
      "facilityType": "Community School",
      "village": "Shangombo",
      "enrolledStudents": 779,
      "capacity": 475,
      "numberOfTeachers": 29,
      "numberOfClassrooms": 19,
      "pupilTeacherRatio": 49,
      "passRate": 86.8,
      "status": "Overcrowded",
      "latitude": -16.1837,
      "longitude": 27.412,
      "averageDistance": 5.1,
      "lastInspection": "2025-10-22T15:00:30.863602"
    },
    {
      "id": 13,
      "chiefdom": "Chief Monze",
      "district": "Monze",
      "facilityName": "Chibombo School 13",
      "facilityType": "Secondary School",
      "village": "Mongu",
      "enrolledStudents": 944,
      "capacity": 306,
      "numberOfTeachers": 13,
      "numberOfClassrooms": 23,
      "pupilTeacherRatio": 31,
      "passRate": 66.5,
      "status": "Overcrowded",
      "latitude": -16.2652,
      "longitude": 27.4048,
      "averageDistance": 3.0,
      "lastInspection": "2025-11-21T15:00:30.863612"
    },
    {
      "id": 14,
      "chiefdom": "Chief Monze",
      "district": "Monze",
      "facilityName": "Lundazi School 14",
      "facilityType": "Primary School",
      "village": "Katoba",
      "enrolledStudents": 747,
      "capacity": 1081,
      "numberOfTeachers": 42,
      "numberOfClassrooms": 26,
      "pupilTeacherRatio": 44,
      "passRate": 79.4,
      "status": "Overcrowded",
      "latitude": -16.2757,
      "longitude": 27.4912,
      "averageDistance": 8.7,
      "lastInspection": "2026-01-14T15:00:30.863620"
    },
    {
      "id": 15,
      "chiefdom": "Chief Monze",
      "district": "Monze",
      "facilityName": "Nakatindi School 15",
      "facilityType": "Secondary School",
      "village": "Leopards Hill",
      "enrolledStudents": 361,
      "capacity": 788,
      "numberOfTeachers": 25,
      "numberOfClassrooms": 15,
      "pupilTeacherRatio": 33,
      "passRate": 75.0,
      "status": "Overcrowded",
      "latitude": -16.2484,
      "longitude": 27.5131,
      "averageDistance": 9.5,
      "lastInspection": "2025-04-14T15:00:30.863630"
    },
    {
      "id": 16,
      "chiefdom": "Chief Monze",
      "district": "Monze",
      "facilityName": "Isoka School 16",
      "facilityType": "Secondary School",
      "village": "Palabana",
      "enrolledStudents": 551,
      "capacity": 533,
      "numberOfTeachers": 24,
      "numberOfClassrooms": 17,
      "pupilTeacherRatio": 43,
      "passRate": 66.3,
      "status": "Overcrowded",
      "latitude": -16.2676,
      "longitude": 27.5197,
      "averageDistance": 1.1,
      "lastInspection": "2025-03-19T15:00:30.863639"
    },
    {
      "id": 17,
      "chiefdom": "Chief Monze",
      "district": "Monze",
      "facilityName": "Nyimba School 17",
      "facilityType": "Community School",
      "village": "Lunsemfwa",
      "enrolledStudents": 414,
      "capacity": 478,
      "numberOfTeachers": 13,
      "numberOfClassrooms": 19,
      "pupilTeacherRatio": 48,
      "passRate": 81.5,
      "status": "Operational",
      "latitude": -16.2969,
      "longitude": 27.4944,
      "averageDistance": 4.7,
      "lastInspection": "2025-12-01T15:00:30.863648"
    },
    {
      "id": 18,
      "chiefdom": "Chief Monze",
      "district": "Monze",
      "facilityName": "Mpika School 18",
      "facilityType": "Community School",
      "village": "Senanga",
      "enrolledStudents": 213,
      "capacity": 832,
      "numberOfTeachers": 40,
      "numberOfClassrooms": 26,
      "pupilTeacherRatio": 35,
      "passRate": 77.7,
      "status": "Overcrowded",
      "latitude": -16.3411,
      "longitude": 27.469,
      "averageDistance": 6.2,
      "lastInspection": "2025-04-26T15:00:30.863657"
    },
    {
      "id": 19,
      "chiefdom": "Chief Monze",
      "district": "Monze",
      "facilityName": "Chilanga School 19",
      "facilityType": "Community School",
      "village": "Nyimba",
      "enrolledStudents": 1154,
      "capacity": 358,
      "numberOfTeachers": 33,
      "numberOfClassrooms": 18,
      "pupilTeacherRatio": 39,
      "passRate": 66.6,
      "status": "Overcrowded",
      "latitude": -16.2702,
      "longitude": 27.4985,
      "averageDistance": 1.2,
      "lastInspection": "2025-06-30T15:00:30.863666"
    },
    {
      "id": 20,
      "chiefdom": "Chief Monze",
      "district": "Monze",
      "facilityName": "Katete School 20",
      "facilityType": "Secondary School",
      "village": "Chongwe Central",
      "enrolledStudents": 453,
      "capacity": 1233,
      "numberOfTeachers": 49,
      "numberOfClassrooms": 8,
      "pupilTeacherRatio": 51,
      "passRate": 64.1,
      "status": "Overcrowded",
      "latitude": -16.2546,
      "longitude": 27.5582,
      "averageDistance": 3.8,
      "lastInspection": "2025-11-14T15:00:30.863675"
    },
    {
      "id": 21,
      "chiefdom": "Chief Monze",
      "district": "Monze",
      "facilityName": "Chililabombwe School 21",
      "facilityType": "Secondary School",
      "village": "Kanakantapa",
      "enrolledStudents": 368,
      "capacity": 618,
      "numberOfTeachers": 38,
      "numberOfClassrooms": 19,
      "pupilTeacherRatio": 33,
      "passRate": 69.2,
      "status": "Operational",
      "latitude": -16.1841,
      "longitude": 27.443,
      "averageDistance": 6.8,
      "lastInspection": "2025-08-29T15:00:30.863683"
    },
    {
      "id": 22,
      "chiefdom": "Chief Monze",
      "district": "Monze",
      "facilityName": "Isoka School 22",
      "facilityType": "Secondary School",
      "village": "Chainda",
      "enrolledStudents": 421,
      "capacity": 848,
      "numberOfTeachers": 34,
      "numberOfClassrooms": 26,
      "pupilTeacherRatio": 32,
      "passRate": 73.8,
      "status": "Operational",
      "latitude": -16.3394,
      "longitude": 27.5176,
      "averageDistance": 3.8,
      "lastInspection": "2025-11-16T15:00:30.863693"
    },
    {
      "id": 23,
      "chiefdom": "Chief Monze",
      "district": "Monze",
      "facilityName": "Mbabala School 23",
      "facilityType": "Primary School",
      "village": "Serenje",
      "enrolledStudents": 279,
      "capacity": 1249,
      "numberOfTeachers": 16,
      "numberOfClassrooms": 29,
      "pupilTeacherRatio": 37,
      "passRate": 84.9,
      "status": "Operational",
      "latitude": -16.2225,
      "longitude": 27.5204,
      "averageDistance": 1.2,
      "lastInspection": "2025-09-21T15:00:30.863702"
    },
    {
      "id": 24,
      "chiefdom": "Chief Monze",
      "district": "Monze",
      "facilityName": "Solwezi School 24",
      "facilityType": "Secondary School",
      "village": "Kasama",
      "enrolledStudents": 400,
      "capacity": 1109,
      "numberOfTeachers": 8,
      "numberOfClassrooms": 25,
      "pupilTeacherRatio": 50,
      "passRate": 82.9,
      "status": "Operational",
      "latitude": -16.2527,
      "longitude": 27.5304,
      "averageDistance": 5.1,
      "lastInspection": "2025-05-02T15:00:30.863711"
    },
    {
      "id": 25,
      "chiefdom": "Chief Monze",
      "district": "Monze",
      "facilityName": "Lukulu School 25",
      "facilityType": "Primary School",
      "village": "Chibombo",
      "enrolledStudents": 531,
      "capacity": 1441,
      "numberOfTeachers": 23,
      "numberOfClassrooms": 10,
      "pupilTeacherRatio": 50,
      "passRate": 63.8,
      "status": "Operational",
      "latitude": -16.3308,
      "longitude": 27.5096,
      "averageDistance": 3.1,
      "lastInspection": "2025-12-11T15:00:30.863720"
    },
    {
      "id": 26,
      "chiefdom": "Chief Monze",
      "district": "Monze",
      "facilityName": "Chainda School 26",
      "facilityType": "Community School",
      "village": "Makeni",
      "enrolledStudents": 1086,
      "capacity": 939,
      "numberOfTeachers": 43,
      "numberOfClassrooms": 25,
      "pupilTeacherRatio": 29,
      "passRate": 85.6,
      "status": "Overcrowded",
      "latitude": -16.2883,
      "longitude": 27.4254,
      "averageDistance": 1.1,
      "lastInspection": "2025-07-03T15:00:30.863730"
    },
    {
      "id": 27,
      "chiefdom": "Chief Monze",
      "district": "Monze",
      "facilityName": "Chipapa School 27",
      "facilityType": "Community School",
      "village": "Siavonga",
      "enrolledStudents": 395,
      "capacity": 1159,
      "numberOfTeachers": 18,
      "numberOfClassrooms": 27,
      "pupilTeacherRatio": 26,
      "passRate": 63.1,
      "status": "Overcrowded",
      "latitude": -16.334,
      "longitude": 27.4546,
      "averageDistance": 4.8,
      "lastInspection": "2025-05-24T15:00:30.863738"
    },
    {
      "id": 28,
      "chiefdom": "Chief Monze",
      "district": "Monze",
      "facilityName": "Mambwe School 28",
      "facilityType": "Community School",
      "village": "Palabana",
      "enrolledStudents": 955,
      "capacity": 1164,
      "numberOfTeachers": 30,
      "numberOfClassrooms": 11,
      "pupilTeacherRatio": 32,
      "passRate": 89.5,
      "status": "Operational",
      "latitude": -16.3417,
      "longitude": 27.4259,
      "averageDistance": 4.7,
      "lastInspection": "2025-06-17T15:00:30.863747"
    },
    {
      "id": 29,
      "chiefdom": "Chief Monze",
      "district": "Monze",
      "facilityName": "Mkushi School 29",
      "facilityType": "Secondary School",
      "village": "Nakonde",
      "enrolledStudents": 877,
      "capacity": 1256,
      "numberOfTeachers": 18,
      "numberOfClassrooms": 13,
      "pupilTeacherRatio": 35,
      "passRate": 78.6,
      "status": "Operational",
      "latitude": -16.1982,
      "longitude": 27.3991,
      "averageDistance": 5.2,
      "lastInspection": "2025-05-24T15:00:30.863756"
    },
    {
      "id": 30,
      "chiefdom": "Chief Monze",
      "district": "Monze",
      "facilityName": "Mbabala School 30",
      "facilityType": "Community School",
      "village": "Nakonde",
      "enrolledStudents": 938,
      "capacity": 1205,
      "numberOfTeachers": 28,
      "numberOfClassrooms": 9,
      "pupilTeacherRatio": 38,
      "passRate": 73.6,
      "status": "Overcrowded",
      "latitude": -16.2455,
      "longitude": 27.546,
      "averageDistance": 3.8,
      "lastInspection": "2026-01-11T15:00:30.863765"
    },
    {
      "id": 31,
      "chiefdom": "Chief Monze",
      "district": "Monze",
      "facilityName": "Gwembe School 31",
      "facilityType": "Community School",
      "village": "Kapiri",
      "enrolledStudents": 934,
      "capacity": 1212,
      "numberOfTeachers": 16,
      "numberOfClassrooms": 20,
      "pupilTeacherRatio": 35,
      "passRate": 91.2,
      "status": "Overcrowded",
      "latitude": -16.2543,
      "longitude": 27.5052,
      "averageDistance": 2.1,
      "lastInspection": "2025-01-29T15:00:30.863774"
    },
    {
      "id": 32,
      "chiefdom": "Chief Monze",
      "district": "Monze",
      "facilityName": "Shimabala School 32",
      "facilityType": "Community School",
      "village": "Shangombo",
      "enrolledStudents": 395,
      "capacity": 994,
      "numberOfTeachers": 15,
      "numberOfClassrooms": 29,
      "pupilTeacherRatio": 54,
      "passRate": 71.4,
      "status": "Operational",
      "latitude": -16.3435,
      "longitude": 27.3869,
      "averageDistance": 8.0,
      "lastInspection": "2025-07-26T15:00:30.863783"
    },
    {
      "id": 33,
      "chiefdom": "Chief Monze",
      "district": "Monze",
      "facilityName": "Samfya School 33",
      "facilityType": "Community School",
      "village": "Chingola",
      "enrolledStudents": 1152,
      "capacity": 465,
      "numberOfTeachers": 32,
      "numberOfClassrooms": 9,
      "pupilTeacherRatio": 26,
      "passRate": 85.4,
      "status": "Operational",
      "latitude": -16.1933,
      "longitude": 27.4063,
      "averageDistance": 3.4,
      "lastInspection": "2025-12-17T15:00:30.863792"
    },
    {
      "id": 34,
      "chiefdom": "Chief Monze",
      "district": "Monze",
      "facilityName": "Mazabuka School 34",
      "facilityType": "Community School",
      "village": "Mumbwa",
      "enrolledStudents": 206,
      "capacity": 320,
      "numberOfTeachers": 29,
      "numberOfClassrooms": 28,
      "pupilTeacherRatio": 40,
      "passRate": 76.9,
      "status": "Operational",
      "latitude": -16.3588,
      "longitude": 27.4341,
      "averageDistance": 5.4,
      "lastInspection": "2025-10-28T15:00:30.863801"
    },
    {
      "id": 35,
      "chiefdom": "Chief Monze",
      "district": "Monze",
      "facilityName": "Mwinilunga School 35",
      "facilityType": "Community School",
      "village": "Kasama",
      "enrolledStudents": 267,
      "capacity": 942,
      "numberOfTeachers": 22,
      "numberOfClassrooms": 9,
      "pupilTeacherRatio": 52,
      "passRate": 89.3,
      "status": "Operational",
      "latitude": -16.1978,
      "longitude": 27.4461,
      "averageDistance": 1.7,
      "lastInspection": "2025-02-24T15:00:30.863810"
    },
    {
      "id": 36,
      "chiefdom": "Chief Monze",
      "district": "Monze",
      "facilityName": "Kanakantapa School 36",
      "facilityType": "Community School",
      "village": "Kaputa",
      "enrolledStudents": 1104,
      "capacity": 872,
      "numberOfTeachers": 16,
      "numberOfClassrooms": 7,
      "pupilTeacherRatio": 35,
      "passRate": 79.5,
      "status": "Overcrowded",
      "latitude": -16.2984,
      "longitude": 27.5306,
      "averageDistance": 7.9,
      "lastInspection": "2025-04-03T15:00:30.863819"
    },
    {
      "id": 37,
      "chiefdom": "Chief Monze",
      "district": "Monze",
      "facilityName": "Mwinilunga School 37",
      "facilityType": "Secondary School",
      "village": "Kalulushi",
      "enrolledStudents": 660,
      "capacity": 403,
      "numberOfTeachers": 23,
      "numberOfClassrooms": 26,
      "pupilTeacherRatio": 37,
      "passRate": 84.5,
      "status": "Operational",
      "latitude": -16.355,
      "longitude": 27.4264,
      "averageDistance": 7.3,
      "lastInspection": "2025-11-26T15:00:30.863828"
    },
    {
      "id": 38,
      "chiefdom": "Chief Monze",
      "district": "Monze",
      "facilityName": "Kabwe School 38",
      "facilityType": "Community School",
      "village": "Mpanshya",
      "enrolledStudents": 483,
      "capacity": 344,
      "numberOfTeachers": 40,
      "numberOfClassrooms": 30,
      "pupilTeacherRatio": 33,
      "passRate": 64.3,
      "status": "Operational",
      "latitude": -16.2894,
      "longitude": 27.4024,
      "averageDistance": 4.2,
      "lastInspection": "2025-12-11T15:00:30.863837"
    },
    {
      "id": 39,
      "chiefdom": "Chief Monze",
      "district": "Monze",
      "facilityName": "Luanshya School 39",
      "facilityType": "Secondary School",
      "village": "Mbabala",
      "enrolledStudents": 269,
      "capacity": 1189,
      "numberOfTeachers": 32,
      "numberOfClassrooms": 17,
      "pupilTeacherRatio": 36,
      "passRate": 93.2,
      "status": "Operational",
      "latitude": -16.2309,
      "longitude": 27.5032,
      "averageDistance": 6.4,
      "lastInspection": "2025-03-26T15:00:30.863846"
    },
    {
      "id": 40,
      "chiefdom": "Chief Monze",
      "district": "Monze",
      "facilityName": "Chipata School 40",
      "facilityType": "Community School",
      "village": "Chililabombwe",
      "enrolledStudents": 1119,
      "capacity": 1204,
      "numberOfTeachers": 11,
      "numberOfClassrooms": 20,
      "pupilTeacherRatio": 34,
      "passRate": 92.1,
      "status": "Operational",
      "latitude": -16.2993,
      "longitude": 27.5631,
      "averageDistance": 7.2,
      "lastInspection": "2025-03-27T15:00:30.863855"
    },
    {
      "id": 41,
      "chiefdom": "Chief Monze",
      "district": "Monze",
      "facilityName": "Chipapa School 41",
      "facilityType": "Primary School",
      "village": "Makeni",
      "enrolledStudents": 333,
      "capacity": 1168,
      "numberOfTeachers": 18,
      "numberOfClassrooms": 15,
      "pupilTeacherRatio": 31,
      "passRate": 72.8,
      "status": "Overcrowded",
      "latitude": -16.2642,
      "longitude": 27.4685,
      "averageDistance": 6.9,
      "lastInspection": "2025-07-25T15:00:30.863864"
    },
    {
      "id": 42,
      "chiefdom": "Chief Monze",
      "district": "Monze",
      "facilityName": "Kanakantapa School 42",
      "facilityType": "Primary School",
      "village": "Chama",
      "enrolledStudents": 315,
      "capacity": 1394,
      "numberOfTeachers": 38,
      "numberOfClassrooms": 28,
      "pupilTeacherRatio": 53,
      "passRate": 85.6,
      "status": "Overcrowded",
      "latitude": -16.3024,
      "longitude": 27.4767,
      "averageDistance": 6.9,
      "lastInspection": "2025-01-26T15:00:30.863876"
    },
    {
      "id": 43,
      "chiefdom": "Chief Monze",
      "district": "Monze",
      "facilityName": "Nakatindi School 43",
      "facilityType": "Secondary School",
      "village": "Chilanga",
      "enrolledStudents": 667,
      "capacity": 377,
      "numberOfTeachers": 41,
      "numberOfClassrooms": 7,
      "pupilTeacherRatio": 28,
      "passRate": 60.0,
      "status": "Overcrowded",
      "latitude": -16.2621,
      "longitude": 27.5436,
      "averageDistance": 6.7,
      "lastInspection": "2025-08-19T15:00:30.863885"
    },
    {
      "id": 44,
      "chiefdom": "Chief Monze",
      "district": "Monze",
      "facilityName": "Chipapa School 44",
      "facilityType": "Secondary School",
      "village": "Ngwerere",
      "enrolledStudents": 401,
      "capacity": 721,
      "numberOfTeachers": 22,
      "numberOfClassrooms": 14,
      "pupilTeacherRatio": 32,
      "passRate": 85.4,
      "status": "Operational",
      "latitude": -16.3554,
      "longitude": 27.4931,
      "averageDistance": 7.9,
      "lastInspection": "2025-12-14T15:00:30.863893"
    },
    {
      "id": 45,
      "chiefdom": "Chief Monze",
      "district": "Monze",
      "facilityName": "Kaputa School 45",
      "facilityType": "Secondary School",
      "village": "Luangwa",
      "enrolledStudents": 359,
      "capacity": 453,
      "numberOfTeachers": 12,
      "numberOfClassrooms": 17,
      "pupilTeacherRatio": 29,
      "passRate": 66.6,
      "status": "Overcrowded",
      "latitude": -16.3327,
      "longitude": 27.4283,
      "averageDistance": 6.3,
      "lastInspection": "2026-01-08T15:00:30.863903"
    },
    {
      "id": 46,
      "chiefdom": "Chief Monze",
      "district": "Monze",
      "facilityName": "Ngwerere School 46",
      "facilityType": "Primary School",
      "village": "Chongwe Central",
      "enrolledStudents": 482,
      "capacity": 1437,
      "numberOfTeachers": 9,
      "numberOfClassrooms": 23,
      "pupilTeacherRatio": 34,
      "passRate": 69.5,
      "status": "Operational",
      "latitude": -16.2357,
      "longitude": 27.392,
      "averageDistance": 2.5,
      "lastInspection": "2025-03-20T15:00:30.863912"
    },
    {
      "id": 47,
      "chiefdom": "Chief Monze",
      "district": "Monze",
      "facilityName": "Munyumba School 47",
      "facilityType": "Secondary School",
      "village": "Palabana",
      "enrolledStudents": 957,
      "capacity": 1307,
      "numberOfTeachers": 11,
      "numberOfClassrooms": 18,
      "pupilTeacherRatio": 43,
      "passRate": 67.3,
      "status": "Overcrowded",
      "latitude": -16.2188,
      "longitude": 27.4406,
      "averageDistance": 3.3,
      "lastInspection": "2026-01-13T15:00:30.863920"
    },
    {
      "id": 48,
      "chiefdom": "Chief Monze",
      "district": "Monze",
      "facilityName": "Mporokoso School 48",
      "facilityType": "Community School",
      "village": "Mwembezhi",
      "enrolledStudents": 606,
      "capacity": 1096,
      "numberOfTeachers": 39,
      "numberOfClassrooms": 27,
      "pupilTeacherRatio": 41,
      "passRate": 90.7,
      "status": "Operational",
      "latitude": -16.2817,
      "longitude": 27.4231,
      "averageDistance": 1.2,
      "lastInspection": "2025-05-14T15:00:30.863929"
    },
    {
      "id": 49,
      "chiefdom": "Chief Monze",
      "district": "Monze",
      "facilityName": "Luwingu School 49",
      "facilityType": "Primary School",
      "village": "Katoba",
      "enrolledStudents": 661,
      "capacity": 667,
      "numberOfTeachers": 25,
      "numberOfClassrooms": 20,
      "pupilTeacherRatio": 37,
      "passRate": 66.0,
      "status": "Operational",
      "latitude": -16.3149,
      "longitude": 27.4952,
      "averageDistance": 5.6,
      "lastInspection": "2025-12-20T15:00:30.863938"
    },
    {
      "id": 50,
      "chiefdom": "Chief Monze",
      "district": "Monze",
      "facilityName": "Kapiri School 50",
      "facilityType": "Primary School",
      "village": "Solwezi",
      "enrolledStudents": 228,
      "capacity": 1215,
      "numberOfTeachers": 48,
      "numberOfClassrooms": 19,
      "pupilTeacherRatio": 40,
      "passRate": 66.8,
      "status": "Overcrowded",
      "latitude": -16.2963,
      "longitude": 27.5052,
      "averageDistance": 1.2,
      "lastInspection": "2026-01-18T15:00:30.863946"
    }
  ],
  "coverageAreas": [
    {
      "id": 1,
      "chiefdom": "Chief Monze",
      "areaName": "Sikanze Coverage 1",
      "population": 10285,
      "numberOfHealthFacilities": 5,
      "numberOfSchools": 8,
      "averageDistanceToHealth": 16.0,
      "averageDistanceToSchool": 2.1,
      "coverageQuality": "Poor",
      "latitude": -16.2961,
      "longitude": 27.5471
    },
    {
      "id": 2,
      "chiefdom": "Chief Monze",
      "areaName": "Chipata Coverage 2",
      "population": 12737,
      "numberOfHealthFacilities": 3,
      "numberOfSchools": 6,
      "averageDistanceToHealth": 10.9,
      "averageDistanceToSchool": 8.0,
      "coverageQuality": "Good",
      "latitude": -16.2886,
      "longitude": 27.4871
    },
    {
      "id": 3,
      "chiefdom": "Chief Monze",
      "areaName": "Mpanshya Coverage 3",
      "population": 9710,
      "numberOfHealthFacilities": 4,
      "numberOfSchools": 2,
      "averageDistanceToHealth": 19.7,
      "averageDistanceToSchool": 1.2,
      "coverageQuality": "Adequate",
      "latitude": -16.323,
      "longitude": 27.5345
    },
    {
      "id": 4,
      "chiefdom": "Chief Monze",
      "areaName": "Makeni Coverage 4",
      "population": 14196,
      "numberOfHealthFacilities": 3,
      "numberOfSchools": 4,
      "averageDistanceToHealth": 3.2,
      "averageDistanceToSchool": 3.1,
      "coverageQuality": "Poor",
      "latitude": -16.3474,
      "longitude": 27.4605
    },
    {
      "id": 5,
      "chiefdom": "Chief Monze",
      "areaName": "Livingstone Coverage 5",
      "population": 2855,
      "numberOfHealthFacilities": 4,
      "numberOfSchools": 4,
      "averageDistanceToHealth": 15.3,
      "averageDistanceToSchool": 11.0,
      "coverageQuality": "Adequate",
      "latitude": -16.2181,
      "longitude": 27.5443
    },
    {
      "id": 6,
      "chiefdom": "Chief Monze",
      "areaName": "Chongwe Central Coverage 6",
      "population": 14496,
      "numberOfHealthFacilities": 1,
      "numberOfSchools": 2,
      "averageDistanceToHealth": 11.3,
      "averageDistanceToSchool": 8.9,
      "coverageQuality": "Adequate",
      "latitude": -16.2358,
      "longitude": 27.4469
    },
    {
      "id": 7,
      "chiefdom": "Chief Monze",
      "areaName": "Kasama Coverage 7",
      "population": 14346,
      "numberOfHealthFacilities": 1,
      "numberOfSchools": 8,
      "averageDistanceToHealth": 15.1,
      "averageDistanceToSchool": 2.7,
      "coverageQuality": "Critical",
      "latitude": -16.2062,
      "longitude": 27.4121
    },
    {
      "id": 8,
      "chiefdom": "Chief Monze",
      "areaName": "Kitwe Coverage 8",
      "population": 10998,
      "numberOfHealthFacilities": 2,
      "numberOfSchools": 5,
      "averageDistanceToHealth": 5.0,
      "averageDistanceToSchool": 4.9,
      "coverageQuality": "Adequate",
      "latitude": -16.2354,
      "longitude": 27.5341
    },
    {
      "id": 9,
      "chiefdom": "Chief Monze",
      "areaName": "Kawambwa Coverage 9",
      "population": 5385,
      "numberOfHealthFacilities": 1,
      "numberOfSchools": 1,
      "averageDistanceToHealth": 19.5,
      "averageDistanceToSchool": 6.2,
      "coverageQuality": "Good",
      "latitude": -16.3491,
      "longitude": 27.5444
    },
    {
      "id": 10,
      "chiefdom": "Chief Monze",
      "areaName": "Chongwe Central Coverage 10",
      "population": 14819,
      "numberOfHealthFacilities": 4,
      "numberOfSchools": 4,
      "averageDistanceToHealth": 7.8,
      "averageDistanceToSchool": 2.7,
      "coverageQuality": "Poor",
      "latitude": -16.3462,
      "longitude": 27.4832
    },
    {
      "id": 11,
      "chiefdom": "Chief Monze",
      "areaName": "Mufulira Coverage 11",
      "population": 9029,
      "numberOfHealthFacilities": 2,
      "numberOfSchools": 3,
      "averageDistanceToHealth": 5.7,
      "averageDistanceToSchool": 6.1,
      "coverageQuality": "Critical",
      "latitude": -16.2318,
      "longitude": 27.5309
    },
    {
      "id": 12,
      "chiefdom": "Chief Monze",
      "areaName": "Meanwood Coverage 12",
      "population": 2988,
      "numberOfHealthFacilities": 2,
      "numberOfSchools": 3,
      "averageDistanceToHealth": 10.9,
      "averageDistanceToSchool": 11.4,
      "coverageQuality": "Adequate",
      "latitude": -16.3777,
      "longitude": 27.4273
    },
    {
      "id": 13,
      "chiefdom": "Chief Monze",
      "areaName": "Shimabala Coverage 13",
      "population": 3143,
      "numberOfHealthFacilities": 4,
      "numberOfSchools": 3,
      "averageDistanceToHealth": 3.1,
      "averageDistanceToSchool": 5.6,
      "coverageQuality": "Critical",
      "latitude": -16.3358,
      "longitude": 27.483
    },
    {
      "id": 14,
      "chiefdom": "Chief Monze",
      "areaName": "Kawambwa Coverage 14",
      "population": 8933,
      "numberOfHealthFacilities": 2,
      "numberOfSchools": 5,
      "averageDistanceToHealth": 3.6,
      "averageDistanceToSchool": 11.1,
      "coverageQuality": "Poor",
      "latitude": -16.2591,
      "longitude": 27.4727
    },
    {
      "id": 15,
      "chiefdom": "Chief Monze",
      "areaName": "Meanwood Coverage 15",
      "population": 7361,
      "numberOfHealthFacilities": 2,
      "numberOfSchools": 4,
      "averageDistanceToHealth": 6.6,
      "averageDistanceToSchool": 8.4,
      "coverageQuality": "Critical",
      "latitude": -16.3054,
      "longitude": 27.4177
    },
    {
      "id": 16,
      "chiefdom": "Chief Monze",
      "areaName": "Chilanga Coverage 16",
      "population": 9051,
      "numberOfHealthFacilities": 2,
      "numberOfSchools": 1,
      "averageDistanceToHealth": 5.3,
      "averageDistanceToSchool": 10.9,
      "coverageQuality": "Adequate",
      "latitude": -16.3139,
      "longitude": 27.5011
    },
    {
      "id": 17,
      "chiefdom": "Chief Monze",
      "areaName": "Kalingalinga Coverage 17",
      "population": 3771,
      "numberOfHealthFacilities": 1,
      "numberOfSchools": 5,
      "averageDistanceToHealth": 9.2,
      "averageDistanceToSchool": 2.4,
      "coverageQuality": "Poor",
      "latitude": -16.1978,
      "longitude": 27.4559
    },
    {
      "id": 18,
      "chiefdom": "Chief Monze",
      "areaName": "Sinda Coverage 18",
      "population": 2053,
      "numberOfHealthFacilities": 3,
      "numberOfSchools": 7,
      "averageDistanceToHealth": 19.4,
      "averageDistanceToSchool": 9.9,
      "coverageQuality": "Adequate",
      "latitude": -16.2876,
      "longitude": 27.3833
    },
    {
      "id": 19,
      "chiefdom": "Chief Monze",
      "areaName": "Ngwerere Coverage 19",
      "population": 10638,
      "numberOfHealthFacilities": 5,
      "numberOfSchools": 5,
      "averageDistanceToHealth": 15.0,
      "averageDistanceToSchool": 2.9,
      "coverageQuality": "Critical",
      "latitude": -16.2814,
      "longitude": 27.5135
    },
    {
      "id": 20,
      "chiefdom": "Chief Monze",
      "areaName": "Ndola Coverage 20",
      "population": 10720,
      "numberOfHealthFacilities": 2,
      "numberOfSchools": 6,
      "averageDistanceToHealth": 16.6,
      "averageDistanceToSchool": 6.6,
      "coverageQuality": "Adequate",
      "latitude": -16.2884,
      "longitude": 27.4423
    },
    {
      "id": 21,
      "chiefdom": "Chief Monze",
      "areaName": "Ndola Coverage 21",
      "population": 14779,
      "numberOfHealthFacilities": 2,
      "numberOfSchools": 2,
      "averageDistanceToHealth": 13.6,
      "averageDistanceToSchool": 9.2,
      "coverageQuality": "Good",
      "latitude": -16.218,
      "longitude": 27.4255
    },
    {
      "id": 22,
      "chiefdom": "Chief Monze",
      "areaName": "Mkushi Coverage 22",
      "population": 3101,
      "numberOfHealthFacilities": 4,
      "numberOfSchools": 8,
      "averageDistanceToHealth": 7.1,
      "averageDistanceToSchool": 1.0,
      "coverageQuality": "Good",
      "latitude": -16.3709,
      "longitude": 27.5231
    },
    {
      "id": 23,
      "chiefdom": "Chief Monze",
      "areaName": "Gwembe Coverage 23",
      "population": 2548,
      "numberOfHealthFacilities": 5,
      "numberOfSchools": 8,
      "averageDistanceToHealth": 9.6,
      "averageDistanceToSchool": 1.2,
      "coverageQuality": "Critical",
      "latitude": -16.2424,
      "longitude": 27.5522
    },
    {
      "id": 24,
      "chiefdom": "Chief Monze",
      "areaName": "Ngwerere Coverage 24",
      "population": 8428,
      "numberOfHealthFacilities": 5,
      "numberOfSchools": 6,
      "averageDistanceToHealth": 5.5,
      "averageDistanceToSchool": 6.5,
      "coverageQuality": "Critical",
      "latitude": -16.1846,
      "longitude": 27.4352
    },
    {
      "id": 25,
      "chiefdom": "Chief Monze",
      "areaName": "Kalulushi Coverage 25",
      "population": 3505,
      "numberOfHealthFacilities": 4,
      "numberOfSchools": 8,
      "averageDistanceToHealth": 11.0,
      "averageDistanceToSchool": 2.1,
      "coverageQuality": "Poor",
      "latitude": -16.3408,
      "longitude": 27.4227
    },
    {
      "id": 26,
      "chiefdom": "Chief Monze",
      "areaName": "Mansa Coverage 26",
      "population": 6374,
      "numberOfHealthFacilities": 4,
      "numberOfSchools": 6,
      "averageDistanceToHealth": 5.8,
      "averageDistanceToSchool": 2.5,
      "coverageQuality": "Good",
      "latitude": -16.335,
      "longitude": 27.4446
    },
    {
      "id": 27,
      "chiefdom": "Chief Monze",
      "areaName": "Kaunga Coverage 27",
      "population": 6196,
      "numberOfHealthFacilities": 4,
      "numberOfSchools": 6,
      "averageDistanceToHealth": 9.7,
      "averageDistanceToSchool": 8.4,
      "coverageQuality": "Critical",
      "latitude": -16.2738,
      "longitude": 27.5484
    },
    {
      "id": 28,
      "chiefdom": "Chief Monze",
      "areaName": "Mufumbwe Coverage 28",
      "population": 13894,
      "numberOfHealthFacilities": 5,
      "numberOfSchools": 8,
      "averageDistanceToHealth": 5.5,
      "averageDistanceToSchool": 7.7,
      "coverageQuality": "Critical",
      "latitude": -16.371,
      "longitude": 27.4844
    },
    {
      "id": 29,
      "chiefdom": "Chief Monze",
      "areaName": "Kalingalinga Coverage 29",
      "population": 14988,
      "numberOfHealthFacilities": 4,
      "numberOfSchools": 6,
      "averageDistanceToHealth": 8.7,
      "averageDistanceToSchool": 4.2,
      "coverageQuality": "Poor",
      "latitude": -16.2101,
      "longitude": 27.432
    },
    {
      "id": 30,
      "chiefdom": "Chief Monze",
      "areaName": "Chingola Coverage 30",
      "population": 3137,
      "numberOfHealthFacilities": 5,
      "numberOfSchools": 2,
      "averageDistanceToHealth": 18.3,
      "averageDistanceToSchool": 9.3,
      "coverageQuality": "Good",
      "latitude": -16.3441,
      "longitude": 27.4032
    },
    {
      "id": 31,
      "chiefdom": "Chief Monze",
      "areaName": "Chilanga Coverage 31",
      "population": 14946,
      "numberOfHealthFacilities": 3,
      "numberOfSchools": 4,
      "averageDistanceToHealth": 8.9,
      "averageDistanceToSchool": 4.8,
      "coverageQuality": "Adequate",
      "latitude": -16.3399,
      "longitude": 27.5514
    },
    {
      "id": 32,
      "chiefdom": "Chief Monze",
      "areaName": "Ngwerere Coverage 32",
      "population": 14337,
      "numberOfHealthFacilities": 5,
      "numberOfSchools": 2,
      "averageDistanceToHealth": 11.8,
      "averageDistanceToSchool": 9.2,
      "coverageQuality": "Adequate",
      "latitude": -16.1908,
      "longitude": 27.393
    },
    {
      "id": 33,
      "chiefdom": "Chief Monze",
      "areaName": "Mambwe Coverage 33",
      "population": 7047,
      "numberOfHealthFacilities": 2,
      "numberOfSchools": 7,
      "averageDistanceToHealth": 18.8,
      "averageDistanceToSchool": 10.4,
      "coverageQuality": "Poor",
      "latitude": -16.358,
      "longitude": 27.4029
    },
    {
      "id": 34,
      "chiefdom": "Chief Monze",
      "areaName": "Mbala Coverage 34",
      "population": 11288,
      "numberOfHealthFacilities": 4,
      "numberOfSchools": 3,
      "averageDistanceToHealth": 8.4,
      "averageDistanceToSchool": 6.7,
      "coverageQuality": "Critical",
      "latitude": -16.3751,
      "longitude": 27.501
    },
    {
      "id": 35,
      "chiefdom": "Chief Monze",
      "areaName": "Nyimba Coverage 35",
      "population": 11854,
      "numberOfHealthFacilities": 2,
      "numberOfSchools": 1,
      "averageDistanceToHealth": 7.3,
      "averageDistanceToSchool": 7.0,
      "coverageQuality": "Adequate",
      "latitude": -16.3002,
      "longitude": 27.3973
    },
    {
      "id": 36,
      "chiefdom": "Chief Monze",
      "areaName": "Chililabombwe Coverage 36",
      "population": 2820,
      "numberOfHealthFacilities": 3,
      "numberOfSchools": 2,
      "averageDistanceToHealth": 10.5,
      "averageDistanceToSchool": 2.2,
      "coverageQuality": "Critical",
      "latitude": -16.3748,
      "longitude": 27.3953
    },
    {
      "id": 37,
      "chiefdom": "Chief Monze",
      "areaName": "Sinazongwe Coverage 37",
      "population": 2181,
      "numberOfHealthFacilities": 4,
      "numberOfSchools": 7,
      "averageDistanceToHealth": 19.9,
      "averageDistanceToSchool": 10.0,
      "coverageQuality": "Poor",
      "latitude": -16.2291,
      "longitude": 27.4669
    },
    {
      "id": 38,
      "chiefdom": "Chief Monze",
      "areaName": "Kasempa Coverage 38",
      "population": 10655,
      "numberOfHealthFacilities": 2,
      "numberOfSchools": 1,
      "averageDistanceToHealth": 2.8,
      "averageDistanceToSchool": 1.6,
      "coverageQuality": "Poor",
      "latitude": -16.2323,
      "longitude": 27.4405
    },
    {
      "id": 39,
      "chiefdom": "Chief Monze",
      "areaName": "Chilanga Coverage 39",
      "population": 4560,
      "numberOfHealthFacilities": 1,
      "numberOfSchools": 5,
      "averageDistanceToHealth": 4.7,
      "averageDistanceToSchool": 4.6,
      "coverageQuality": "Good",
      "latitude": -16.2676,
      "longitude": 27.4969
    },
    {
      "id": 40,
      "chiefdom": "Chief Monze",
      "areaName": "Chililabombwe Coverage 40",
      "population": 2686,
      "numberOfHealthFacilities": 5,
      "numberOfSchools": 8,
      "averageDistanceToHealth": 3.5,
      "averageDistanceToSchool": 11.9,
      "coverageQuality": "Poor",
      "latitude": -16.2381,
      "longitude": 27.3891
    },
    {
      "id": 41,
      "chiefdom": "Chief Monze",
      "areaName": "Shangombo Coverage 41",
      "population": 5425,
      "numberOfHealthFacilities": 5,
      "numberOfSchools": 6,
      "averageDistanceToHealth": 17.8,
      "averageDistanceToSchool": 8.3,
      "coverageQuality": "Critical",
      "latitude": -16.184,
      "longitude": 27.5656
    },
    {
      "id": 42,
      "chiefdom": "Chief Monze",
      "areaName": "Chisamba Coverage 42",
      "population": 9600,
      "numberOfHealthFacilities": 4,
      "numberOfSchools": 6,
      "averageDistanceToHealth": 13.7,
      "averageDistanceToSchool": 2.5,
      "coverageQuality": "Good",
      "latitude": -16.2419,
      "longitude": 27.5425
    },
    {
      "id": 43,
      "chiefdom": "Chief Monze",
      "areaName": "Livingstone Coverage 43",
      "population": 10030,
      "numberOfHealthFacilities": 5,
      "numberOfSchools": 3,
      "averageDistanceToHealth": 16.2,
      "averageDistanceToSchool": 3.4,
      "coverageQuality": "Poor",
      "latitude": -16.1814,
      "longitude": 27.5211
    },
    {
      "id": 44,
      "chiefdom": "Chief Monze",
      "areaName": "Shangombo Coverage 44",
      "population": 11845,
      "numberOfHealthFacilities": 5,
      "numberOfSchools": 6,
      "averageDistanceToHealth": 16.3,
      "averageDistanceToSchool": 8.7,
      "coverageQuality": "Poor",
      "latitude": -16.2892,
      "longitude": 27.4725
    },
    {
      "id": 45,
      "chiefdom": "Chief Monze",
      "areaName": "Luanshya Coverage 45",
      "population": 12999,
      "numberOfHealthFacilities": 2,
      "numberOfSchools": 2,
      "averageDistanceToHealth": 5.7,
      "averageDistanceToSchool": 4.8,
      "coverageQuality": "Good",
      "latitude": -16.3719,
      "longitude": 27.5287
    },
    {
      "id": 46,
      "chiefdom": "Chief Monze",
      "areaName": "Sikanze Coverage 46",
      "population": 3834,
      "numberOfHealthFacilities": 1,
      "numberOfSchools": 8,
      "averageDistanceToHealth": 10.9,
      "averageDistanceToSchool": 8.0,
      "coverageQuality": "Good",
      "latitude": -16.3232,
      "longitude": 27.4736
    },
    {
      "id": 47,
      "chiefdom": "Chief Monze",
      "areaName": "Kaoma Coverage 47",
      "population": 6809,
      "numberOfHealthFacilities": 2,
      "numberOfSchools": 4,
      "averageDistanceToHealth": 4.6,
      "averageDistanceToSchool": 3.8,
      "coverageQuality": "Adequate",
      "latitude": -16.2086,
      "longitude": 27.3934
    },
    {
      "id": 48,
      "chiefdom": "Chief Monze",
      "areaName": "Siavonga Coverage 48",
      "population": 8930,
      "numberOfHealthFacilities": 4,
      "numberOfSchools": 5,
      "averageDistanceToHealth": 17.0,
      "averageDistanceToSchool": 9.8,
      "coverageQuality": "Good",
      "latitude": -16.2568,
      "longitude": 27.5735
    },
    {
      "id": 49,
      "chiefdom": "Chief Monze",
      "areaName": "Chongwe Central Coverage 49",
      "population": 7850,
      "numberOfHealthFacilities": 1,
      "numberOfSchools": 6,
      "averageDistanceToHealth": 15.0,
      "averageDistanceToSchool": 9.2,
      "coverageQuality": "Adequate",
      "latitude": -16.1976,
      "longitude": 27.5278
    },
    {
      "id": 50,
      "chiefdom": "Chief Monze",
      "areaName": "Kalabo Coverage 50",
      "population": 9543,
      "numberOfHealthFacilities": 1,
      "numberOfSchools": 2,
      "averageDistanceToHealth": 15.1,
      "averageDistanceToSchool": 8.3,
      "coverageQuality": "Critical",
      "latitude": -16.3053,
      "longitude": 27.48
    }
  ]
}