{
  "populationDemographics": {
    "id": 1,
    "chiefdom": "Chief Monze",
    "district": "Monze",
    "province": "Southern",
    "totalPopulation": 56855,
    "numberOfVillages": 32,
    "numberOfHouseholds": 16770,
    "malePopulation": 26877,
    "femalePopulation": 34917,
    "youthPopulation": 32975,
    "elderlyPopulation": 4378,
    "populationDensity": 56.8,
    "censusDate": "2025-08-07T15:00:30.862512"
  },
  "villages": [
    {
      "id": 1,
      "name": "Chongwe Central 1",
      "chiefdom": "Chief Monze",
      "population": 1170,
      "numberOfHouseholds": 2843,
      "villageHead": "Mr. James Chanda",
      "latitude": -16.2918,
      "longitude": 27.4251,
      "distanceToNearestHospital": 12.8,
      "distanceToNearestSchool": 10.3,
      "primaryEconomicActivity": "Farming",
      "hasElectricity": false,
      "hasCleanWater": true
    },
    {
      "id": 2,
      "name": "Kafue Riverside 1",
      "chiefdom": "Chief Monze",
      "population": 5680,
      "numberOfHouseholds": 751,
      "villageHead": "Mr. John Banda",
      "latitude": -16.1889,
      "longitude": 27.4269,
      "distanceToNearestHospital": 17.8,
      "distanceToNearestSchool": 8.3,
      "primaryEconomicActivity": "Mining",
      "hasElectricity": false,
      "hasCleanWater": true
    },
    {
      "id": 3,
      "name": "Munyumba 1",
      "chiefdom": "Chief Monze",
      "population": 7434,
      "numberOfHouseholds": 1301,
      "villageHead": "Mrs. Catherine Kasonde",
      "latitude": -16.301,
      "longitude": 27.5791,
      "distanceToNearestHospital": 12.2,
      "distanceToNearestSchool": 9.6,
      "primaryEconomicActivity": "Mining",
      "hasElectricity": false,
      "hasCleanWater": true
    },
    {
      "id": 4,
      "name": "Kalingalinga 1",
      "chiefdom": "Chief Monze",
      "population": 805,
      "numberOfHouseholds": 2689,
      "villageHead": "Mr. James Chanda",
      "latitude": -16.2575,
      "longitude": 27.437,
      "distanceToNearestHospital": 4.1,
      "distanceToNearestSchool": 11.9,
      "primaryEconomicActivity": "Services",
      "hasElectricity": true,
      "hasCleanWater": true
    },
    {
      "id": 5,
      "name": "Chilanga 1",
      "chiefdom": "Chief Monze",
      "population": 4891,
      "numberOfHouseholds": 2962,
      "villageHead": "Mr. Anthony Mulenga",
      "latitude": -16.3277,
      "longitude": 27.4581,
      "distanceToNearestHospital": 2.4,
      "distanceToNearestSchool": 4.2,
      "primaryEconomicActivity": "Services",
      "hasElectricity": false,
      "hasCleanWater": false
    },
    {
      "id": 6,
      "name": "Makeni 1",
      "chiefdom": "Chief Monze",
      "population": 11987,
      "numberOfHouseholds": 999,
      "villageHead": "Mrs. Rose Mwila",
      "latitude": -16.3281,
      "longitude": 27.4435,
      "distanceToNearestHospital": 16.5,
      "distanceToNearestSchool": 11.2,
      "primaryEconomicActivity": "Farming",
      "hasElectricity": true,
      "hasCleanWater": false
    },
    {
      "id": 7,
      "name": "Ngwerere 1",
      "chiefdom": "Chief Monze",
      "population": 11221,
      "numberOfHouseholds": 2534,
      "villageHead": "Mr. David Mwale",
      "latitude": -16.3127,
      "longitude": 27.4952,
      "distanceToNearestHospital": 23.9,
      "distanceToNearestSchool": 7.1,
      "primaryEconomicActivity": "Fishing",
      "hasElectricity": true,
      "hasCleanWater": true
    },
    {
      "id": 8,
      "name": "Lilayi 1",
      "chiefdom": "Chief Monze",
      "population": 9568,
      "numberOfHouseholds": 1327,
      "villageHead": "Mr. Richard Zimba",
      "latitude": -16.2496,
      "longitude": 27.4746,
      "distanceToNearestHospital": 14.1,
      "distanceToNearestSchool": 4.9,
      "primaryEconomicActivity": "Fishing",
      "hasElectricity": true,
      "hasCleanWater": false
    },
    {
      "id": 9,
      "name": "Palabana 1",
      "chiefdom": "Chief Monze",
      "population": 4378,
      "numberOfHouseholds": 1782,
      "villageHead": "Mr. Richard Zimba",
      "latitude": -16.3618,
      "longitude": 27.3963,
      "distanceToNearestHospital": 22.3,
      "distanceToNearestSchool": 1.1,
      "primaryEconomicActivity": "Services",
      "hasElectricity": true,
      "hasCleanWater": true
    },
    {
      "id": 10,
      "name": "Chainda 1",
      "chiefdom": "Chief Monze",
      "population": 7219,
      "numberOfHouseholds": 781,
      "villageHead": "Mrs. Margaret Musonda",
      "latitude": -16.3581,
      "longitude": 27.4236,
      "distanceToNearestHospital": 14.3,
      "distanceToNearestSchool": 2.2,
      "primaryEconomicActivity": "Trading",
      "hasElectricity": true,
      "hasCleanWater": true
    },
    {
      "id": 11,
      "name": "Meanwood 1",
      "chiefdom": "Chief Monze",
      "population": 13012,
      "numberOfHouseholds": 2546,
      "villageHead": "Mrs. Sarah Mumba",
      "latitude": -16.1888,
      "longitude": 27.4529,
      "distanceToNearestHospital": 11.5,
      "distanceToNearestSchool": 1.6,
      "primaryEconomicActivity": "Farming",
      "hasElectricity": false,
      "hasCleanWater": true
    },
    {
      "id": 12,
      "name": "Leopards Hill 1",
      "chiefdom": "Chief Monze",
      "population": 14381,
      "numberOfHouseholds": 2655,
      "villageHead": "Mr. David Mwale",
      "latitude": -16.2802,
      "longitude": 27.4969,
      "distanceToNearestHospital": 20.5,
      "distanceToNearestSchool": 9.8,
      "primaryEconomicActivity": "Services",
      "hasElectricity": true,
      "hasCleanWater": true
    },
    {
      "id": 13,
      "name": "Chalala 1",
      "chiefdom": "Chief Monze",
      "population": 10376,
      "numberOfHouseholds": 345,
      "villageHead": "Mr. Steven Daka",
      "latitude": -16.2906,
      "longitude": 27.5761,
      "distanceToNearestHospital": 21.0,
      "distanceToNearestSchool": 7.3,
      "primaryEconomicActivity": "Trading",
      "hasElectricity": true,
      "hasCleanWater": false
    },
    {
      "id": 14,
      "name": "Sikanze 1",
      "chiefdom": "Chief Monze",
      "population": 1283,
      "numberOfHouseholds": 325,
      "villageHead": "Mr. Andrew Sichone",
      "latitude": -16.2979,
      "longitude": 27.4642,
      "distanceToNearestHospital": 3.1,
      "distanceToNearestSchool": 1.8,
      "primaryEconomicActivity": "Farming",
      "hasElectricity": true,
      "hasCleanWater": true
    },
    {
      "id": 15,
      "name": "Nyimba 1",
      "chiefdom": "Chief Monze",
      "population": 9712,
      "numberOfHouseholds": 2723,
      "villageHead": "Mrs. Catherine Kasonde",
      "latitude": -16.2249,
      "longitude": 27.3949,
      "distanceToNearestHospital": 14.6,
      "distanceToNearestSchool": 5.8,
      "primaryEconomicActivity": "Services",
      "hasElectricity": true,
      "hasCleanWater": false
    },
    {
      "id": 16,
      "name": "Luangwa 1",
      "chiefdom": "Chief Monze",
      "population": 2643,
      "numberOfHouseholds": 789,
      "villageHead": "Mrs. Grace Tembo",
      "latitude": -16.3603,
      "longitude": 27.4785,
      "distanceToNearestHospital": 24.0,
      "distanceToNearestSchool": 7.0,
      "primaryEconomicActivity": "Mining",
      "hasElectricity": true,
      "hasCleanWater": true
    },
    {
      "id": 17,
      "name": "Mpanshya 1",
      "chiefdom": "Chief Monze",
      "population": 9381,
      "numberOfHouseholds": 2490,
      "villageHead": "Mr. Robert Ngoma",
      "latitude": -16.181,
      "longitude": 27.5495,
      "distanceToNearestHospital": 18.3,
      "distanceToNearestSchool": 9.8,
      "primaryEconomicActivity": "Trading",
      "hasElectricity": true,
      "hasCleanWater": true
    },
    {
      "id": 18,
      "name": "Mutumbi 1",
      "chiefdom": "Chief Monze",
      "population": 5319,
      "numberOfHouseholds": 496,
      "villageHead": "Mr. David Mwale",
      "latitude": -16.2445,
      "longitude": 27.5161,
      "distanceToNearestHospital": 23.3,
      "distanceToNearestSchool": 10.6,
      "primaryEconomicActivity": "Farming",
      "hasElectricity": true,
      "hasCleanWater": false
    },
    {
      "id": 19,
      "name": "Kanakantapa 1",
      "chiefdom": "Chief Monze",
      "population": 7991,
      "numberOfHouseholds": 2495,
      "villageHead": "Mrs. Mary Phiri",
      "latitude": -16.2246,
      "longitude": 27.5648,
      "distanceToNearestHospital": 22.1,
      "distanceToNearestSchool": 0.9,
      "primaryEconomicActivity": "Fishing",
      "hasElectricity": true,
      "hasCleanWater": true
    },
    {
      "id": 20,
      "name": "Mwembezhi 1",
      "chiefdom": "Chief Monze",
      "population": 5070,
      "numberOfHouseholds": 1772,
      "villageHead": "Mrs. Rose Mwila",
      "latitude": -16.1992,
      "longitude": 27.4173,
      "distanceToNearestHospital": 7.1,
      "distanceToNearestSchool": 4.1,
      "primaryEconomicActivity": "Services",
      "hasElectricity": true,
      "hasCleanWater": true
    },
    {
      "id": 21,
      "name": "Shimabala 1",
      "chiefdom": "Chief Monze",
      "population": 1094,
      "numberOfHouseholds": 2133,
      "villageHead": "Mr. Patrick Zulu",
      "latitude": -16.2688,
      "longitude": 27.4681,
      "distanceToNearestHospital": 7.8,
      "distanceToNearestSchool": 7.1,
      "primaryEconomicActivity": "Services",
      "hasElectricity": false,
      "hasCleanWater": true
    },
    {
      "id": 22,
      "name": "Chisamba 1",
      "chiefdom": "Chief Monze",
      "population": 4863,
      "numberOfHouseholds": 2027,
      "villageHead": "Mrs. Mary Phiri",
      "latitude": -16.3752,
      "longitude": 27.419,
      "distanceToNearestHospital": 20.0,
      "distanceToNearestSchool": 8.7,
      "primaryEconomicActivity": "Fishing",
      "hasElectricity": false,
      "hasCleanWater": false
    },
    {
      "id": 23,
      "name": "Katoba 1",
      "chiefdom": "Chief Monze",
      "population": 3891,
      "numberOfHouseholds": 2250,
      "villageHead": "Mr. Lawrence Kapasa",
      "latitude": -16.302,
      "longitude": 27.412,
      "distanceToNearestHospital": 3.4,
      "distanceToNearestSchool": 3.9,
      "primaryEconomicActivity": "Mining",
      "hasElectricity": false,
      "hasCleanWater": true
    },
    {
      "id": 24,
      "name": "Kaunga 1",
      "chiefdom": "Chief Monze",
      "population": 13794,
      "numberOfHouseholds": 1019,
      "villageHead": "Mr. James Chanda",
      "latitude": -16.2434,
      "longitude": 27.4737,
      "distanceToNearestHospital": 18.8,
      "distanceToNearestSchool": 3.4,
      "primaryEconomicActivity": "Services",
      "hasElectricity": true,
      "hasCleanWater": true
    },
    {
      "id": 25,
      "name": "Chipapa 1",
      "chiefdom": "Chief Monze",
      "population": 10065,
      "numberOfHouseholds": 2818,
      "villageHead": "Mrs. Helen Kalaba",
      "latitude": -16.2201,
      "longitude": 27.5285,
      "distanceToNearestHospital": 20.4,
      "distanceToNearestSchool": 4.2,
      "primaryEconomicActivity": "Mining",
      "hasElectricity": true,
      "hasCleanWater": false
    },
    {
      "id": 26,
      "name": "Nakatindi 1",
      "chiefdom": "Chief Monze",
      "population": 4158,
      "numberOfHouseholds": 2600,
      "villageHead": "Mr. Joseph Lungu",
      "latitude": -16.3359,
      "longitude": 27.4356,
      "distanceToNearestHospital": 9.6,
      "distanceToNearestSchool": 5.7,
      "primaryEconomicActivity": "Fishing",
      "hasElectricity": true,
      "hasCleanWater": true
    },
    {
      "id": 27,
      "name": "Mbabala 1",
      "chiefdom": "Chief Monze",
      "population": 4304,
      "numberOfHouseholds": 667,
      "villageHead": "Mr. Joseph Lungu",
      "latitude": -16.3684,
      "longitude": 27.4063,
      "distanceToNearestHospital": 6.9,
      "distanceToNearestSchool": 9.0,
      "primaryEconomicActivity": "Fishing",
      "hasElectricity": true,
      "hasCleanWater": true
    },
    {
      "id": 28,
      "name": "Chalimbana 1",
      "chiefdom": "Chief Monze",
      "population": 6169,
      "numberOfHouseholds": 827,
      "villageHead": "Mr. George Nkonde",
      "latitude": -16.2138,
      "longitude": 27.5498,
      "distanceToNearestHospital": 24.5,
      "distanceToNearestSchool": 7.1,
      "primaryEconomicActivity": "Trading",
      "hasElectricity": true,
      "hasCleanWater": true
    },
    {
      "id": 29,
      "name": "Kapiri 1",
      "chiefdom": "Chief Monze",
      "population": 8845,
      "numberOfHouseholds": 2712,
      "villageHead": "Mr. Steven Daka",
      "latitude": -16.3196,
      "longitude": 27.4125,
      "distanceToNearestHospital": 21.5,
      "distanceToNearestSchool": 3.1,
      "primaryEconomicActivity": "Services",
      "hasElectricity": true,
      "hasCleanWater": true
    },
    {
      "id": 30,
      "name": "Lunsemfwa 1",
      "chiefdom": "Chief Monze",
      "population": 1688,
      "numberOfHouseholds": 1912,
      "villageHead": "Mrs. Agnes Mbewe",
      "latitude": -16.2177,
      "longitude": 27.502,
      "distanceToNearestHospital": 16.3,
      "distanceToNearestSchool": 8.5,
      "primaryEconomicActivity": "Trading",
      "hasElectricity": false,
      "hasCleanWater": true
    },
    {
      "id": 31,
      "name": "Mumbwa 1",
      "chiefdom": "Chief Monze",
      "population": 13453,
      "numberOfHouseholds": 1647,
      "villageHead": "Mrs. Alice Mwansa",
      "latitude": -16.1972,
      "longitude": 27.4398,
      "distanceToNearestHospital": 15.5,
      "distanceToNearestSchool": 1.2,
      "primaryEconomicActivity": "Services",
      "hasElectricity": true,
      "hasCleanWater": false
    },
    {
      "id": 32,
      "name": "Kasempa 1",
      "chiefdom": "Chief Monze",
      "population": 3469,
      "numberOfHouseholds": 1923,
      "villageHead": "Mr. Anthony Mulenga",
      "latitude": -16.3316,
      "longitude": 27.401,
      "distanceToNearestHospital": 2.1,
      "distanceToNearestSchool": 8.8,
      "primaryEconomicActivity": "Services",
      "hasElectricity": false,
      "hasCleanWater": true
    },
    {
      "id": 33,
      "name": "Mufumbwe 1",
      "chiefdom": "Chief Monze",
      "population": 14100,
      "numberOfHouseholds": 1316,
      "villageHead": "Mrs. Mary Phiri",
      "latitude": -16.37,
      "longitude": 27.4901,
      "distanceToNearestHospital": 23.5,
      "distanceToNearestSchool": 6.6,
      "primaryEconomicActivity": "Trading",
      "hasElectricity": true,
      "hasCleanWater": true
    },
    {
      "id": 34,
      "name": "Kabwe 1",
      "chiefdom": "Chief Monze",
      "population": 2726,
      "numberOfHouseholds": 1574,
      "villageHead": "Mrs. Patricia Chilufya",
      "latitude": -16.2476,
      "longitude": 27.4338,
      "distanceToNearestHospital": 20.6,
      "distanceToNearestSchool": 2.3,
      "primaryEconomicActivity": "Trading",
      "hasElectricity": true,
      "hasCleanWater": true
    },
    {
      "id": 35,
      "name": "Chibombo 1",
      "chiefdom": "Chief Monze",
      "population": 5802,
      "numberOfHouseholds": 2038,
      "villageHead": "Mrs. Helen Kalaba",
      "latitude": -16.2328,
      "longitude": 27.4316,
      "distanceToNearestHospital": 21.3,
      "distanceToNearestSchool": 1.8,
      "primaryEconomicActivity": "Fishing",
      "hasElectricity": true,
      "hasCleanWater": true
    },
    {
      "id": 36,
      "name": "Mkushi 1",
      "chiefdom": "Chief Monze",
      "population": 5073,
      "numberOfHouseholds": 1628,
      "villageHead": "Mrs. Florence Mwanza",
      "latitude": -16.2848,
      "longitude": 27.5642,
      "distanceToNearestHospital": 4.8,
      "distanceToNearestSchool": 6.1,
      "primaryEconomicActivity": "Trading",
      "hasElectricity": true,
      "hasCleanWater": true
    },
    {
      "id": 37,
      "name": "Serenje 1",
      "chiefdom": "Chief Monze",
      "population": 13100,
      "numberOfHouseholds": 314,
      "villageHead": "Mr. Francis Chipanga",
      "latitude": -16.2692,
      "longitude": 27.558,
      "distanceToNearestHospital": 24.3,
      "distanceToNearestSchool": 8.5,
      "primaryEconomicActivity": "Fishing",
      "hasElectricity": false,
      "hasCleanWater": true
    },
    {
      "id": 38,
      "name": "Mpika 1",
      "chiefdom": "Chief Monze",
      "population": 1308,
      "numberOfHouseholds": 1147,
      "villageHead": "Mrs. Sarah Mumba",
      "latitude": -16.2952,
      "longitude": 27.5562,
      "distanceToNearestHospital": 3.9,
      "distanceToNearestSchool": 2.2,
      "primaryEconomicActivity": "Services",
      "hasElectricity": true,
      "hasCleanWater": true
    },
    {
      "id": 39,
      "name": "Nakonde 1",
      "chiefdom": "Chief Monze",
      "population": 2334,
      "numberOfHouseholds": 2824,
      "villageHead": "Mr. David Mwale",
      "latitude": -16.2425,
      "longitude": 27.5474,
      "distanceToNearestHospital": 7.3,
      "distanceToNearestSchool": 3.5,
      "primaryEconomicActivity": "Services",
      "hasElectricity": true,
      "hasCleanWater": false
    },
    {
      "id": 40,
      "name": "Isoka 1",
      "chiefdom": "Chief Monze",
      "population": 7589,
      "numberOfHouseholds": 491,
      "villageHead": "Mrs. Catherine Kasonde",
      "latitude": -16.2699,
      "longitude": 27.4172,
      "distanceToNearestHospital": 5.0,
      "distanceToNearestSchool": 1.5,
      "primaryEconomicActivity": "Farming",
      "hasElectricity": true,
      "hasCleanWater": true
    },
    {
      "id": 41,
      "name": "Chinsali 1",
      "chiefdom": "Chief Monze",
      "population": 11164,
      "numberOfHouseholds": 2236,
      "villageHead": "Mrs. Elizabeth Mutale",
      "latitude": -16.1839,
      "longitude": 27.5318,
      "distanceToNearestHospital": 16.9,
      "distanceToNearestSchool": 9.2,
      "primaryEconomicActivity": "Trading",
      "hasElectricity": true,
      "hasCleanWater": false
    },
    {
      "id": 42,
      "name": "Kasama 1",
      "chiefdom": "Chief Monze",
      "population": 10896,
      "numberOfHouseholds": 1160,
      "villageHead": "Mrs. Agnes Mbewe",
      "latitude": -16.3146,
      "longitude": 27.5266,
      "distanceToNearestHospital": 17.2,
      "distanceToNearestSchool": 10.1,
      "primaryEconomicActivity": "Mining",
      "hasElectricity": true,
      "hasCleanWater": true
    },
    {
      "id": 43,
      "name": "Mbala 1",
      "chiefdom": "Chief Monze",
      "population": 1901,
      "numberOfHouseholds": 699,
      "villageHead": "Mr. Francis Chipanga",
      "latitude": -16.2728,
      "longitude": 27.4251,
      "distanceToNearestHospital": 24.2,
      "distanceToNearestSchool": 4.3,
      "primaryEconomicActivity": "Mining",
      "hasElectricity": true,
      "hasCleanWater": true
    },
    {
      "id": 44,
      "name": "Luwingu 1",
      "chiefdom": "Chief Monze",
      "population": 11515,
      "numberOfHouseholds": 1005,
      "villageHead": "Mr. Joseph Lungu",
      "latitude": -16.3228,
      "longitude": 27.4796,
      "distanceToNearestHospital": 22.9,
      "distanceToNearestSchool": 2.1,
      "primaryEconomicActivity": "Services",
      "hasElectricity": true,
      "hasCleanWater": false
    },
    {
      "id": 45,
      "name": "Mporokoso 1",
      "chiefdom": "Chief Monze",
      "population": 13220,
      "numberOfHouseholds": 2886,
      "villageHead": "Mrs. Alice Mwansa",
      "latitude": -16.2754,
      "longitude": 27.4959,
      "distanceToNearestHospital": 22.6,
      "distanceToNearestSchool": 2.9,
      "primaryEconomicActivity": "Mining",
      "hasElectricity": true,
      "hasCleanWater": false
    },
    {
      "id": 46,
      "name": "Kawambwa 1",
      "chiefdom": "Chief Monze",
      "population": 3101,
      "numberOfHouseholds": 2926,
      "villageHead": "Mr. William Chisenga",
      "latitude": -16.2385,
      "longitude": 27.5369,
      "distanceToNearestHospital": 8.0,
      "distanceToNearestSchool": 2.7,
      "primaryEconomicActivity": "Fishing",
      "hasElectricity": true,
      "hasCleanWater": true
    },
    {
      "id": 47,
      "name": "Mansa 1",
      "chiefdom": "Chief Monze",
      "population": 2340,
      "numberOfHouseholds": 2043,
      "villageHead": "Mr. Richard Zimba",
      "latitude": -16.1833,
      "longitude": 27.4815,
      "distanceToNearestHospital": 22.4,
      "distanceToNearestSchool": 6.1,
      "primaryEconomicActivity": "Trading",
      "hasElectricity": true,
      "hasCleanWater": true
    },
    {
      "id": 48,
      "name": "Samfya 1",
      "chiefdom": "Chief Monze",
      "population": 7496,
      "numberOfHouseholds": 1918,
      "villageHead": "Mrs. Agnes Mbewe",
      "latitude": -16.1914,
      "longitude": 27.5146,
      "distanceToNearestHospital": 7.7,
      "distanceToNearestSchool": 3.8,
      "primaryEconomicActivity": "Trading",
      "hasElectricity": false,
      "hasCleanWater": true
    },
    {
      "id": 49,
      "name": "Nchelenge 1",
      "chiefdom": "Chief Monze",
      "population": 13777,
      "numberOfHouseholds": 481,
      "villageHead": "Mr. Emmanuel Ngulube",
      "latitude": -16.3556,
      "longitude": 27.4157,
      "distanceToNearestHospital": 2.5,
      "distanceToNearestSchool": 8.5,
      "primaryEconomicActivity": "Trading",
      "hasElectricity": true,
      "hasCleanWater": true
    },
    {
      "id": 50,
      "name": "Kaputa 1",
      "chiefdom": "Chief Monze",
      "population": 11037,
      "numberOfHouseholds": 1630,
      "villageHead": "Mr. Vincent Hachipuka",
      "latitude": -16.2999,
      "longitude": 27.5679,
      "distanceToNearestHospital": 16.3,
      "distanceToNearestSchool": 10.5,
      "primaryEconomicActivity": "Fishing",
      "hasElectricity": false,
      "hasCleanWater": true
    }
  ],
  "infrastructure": [
    {
      "id": 1,
      "chiefdom": "Chief Monze",
      "facilityName": "Mbabala Facility 1",
      "facilityType": "Clinic",
      "village": "Shimabala",
      "capacity": 983,
      "currentUsage": 687,
      "status": "Needs Repair",
      "latitude": -16.2527,
      "longitude": 27.5317,
      "lastMaintenance": "2025-11-11T15:00:30.862717"
    },
    {
      "id": 2,
      "chiefdom": "Chief Monze",
      "facilityName": "Mpongwe Facility 2",
      "facilityType": "Secondary School",
      "village": "Serenje",
      "capacity": 1310,
      "currentUsage": 301,
      "status": "Operational",
      "latitude": -16.1857,
      "longitude": 27.4672,
      "lastMaintenance": "2025-10-16T15:00:30.862725"
    },
    {
      "id": 3,
      "chiefdom": "Chief Monze",
      "facilityName": "Kalingalinga Facility 3",
      "facilityType": "Hospital",
      "village": "Kalingalinga",
      "capacity": 793,
      "currentUsage": 372,
      "status": "Under Construction",
      "latitude": -16.2551,
      "longitude": 27.4288,
      "lastMaintenance": "2025-04-30T15:00:30.862732"
    },
    {
      "id": 4,
      "chiefdom": "Chief Monze",
      "facilityName": "Mansa Facility 4",
      "facilityType": "Secondary School",
      "village": "Shimabala",
      "capacity": 979,
      "currentUsage": 882,
      "status": "Needs Repair",
      "latitude": -16.2906,
      "longitude": 27.4061,
      "lastMaintenance": "2025-11-27T15:00:30.862739"
    },
    {
      "id": 5,
      "chiefdom": "Chief Monze",
      "facilityName": "Kabwe Facility 5",
      "facilityType": "Clinic",
      "village": "Katete",
      "capacity": 176,
      "currentUsage": 392,
      "status": "Under Construction",
      "latitude": -16.2035,
      "longitude": 27.58,
      "lastMaintenance": "2025-07-06T15:00:30.862746"
    },
    {
      "id": 6,
      "chiefdom": "Chief Monze",
      "facilityName": "Zambezi Facility 6",
      "facilityType": "Clinic",
      "village": "Sikanze",
      "capacity": 978,
      "currentUsage": 798,
      "status": "Operational",
      "latitude": -16.3231,
      "longitude": 27.4582,
      "lastMaintenance": "2025-05-14T15:00:30.862753"
    },
    {
      "id": 7,
      "chiefdom": "Chief Monze",
      "facilityName": "Mpongwe Facility 7",
      "facilityType": "Primary School",
      "village": "Leopards Hill",
      "capacity": 437,
      "currentUsage": 1520,
      "status": "Operational",
      "latitude": -16.2381,
      "longitude": 27.4194,
      "lastMaintenance": "2025-04-23T15:00:30.862760"
    },
    {
      "id": 8,
      "chiefdom": "Chief Monze",
      "facilityName": "Isoka Facility 8",
      "facilityType": "Hospital",
      "village": "Isoka",
      "capacity": 1240,
      "currentUsage": 1243,
      "status": "Operational",
      "latitude": -16.3541,
      "longitude": 27.4487,
      "lastMaintenance": "2025-04-07T15:00:30.862767"
    },
    {
      "id": 9,
      "chiefdom": "Chief Monze",
      "facilityName": "Mongu Facility 9",
      "facilityType": "Primary School",
      "village": "Kabwe",
      "capacity": 385,
      "currentUsage": 128,
      "status": "Needs Repair",
      "latitude": -16.2491,
      "longitude": 27.4382,
      "lastMaintenance": "2025-05-01T15:00:30.862774"
    },
    {
      "id": 10,
      "chiefdom": "Chief Monze",
      "facilityName": "Sesheke Facility 10",
      "facilityType": "Clinic",
      "village": "Sesheke",
      "capacity": 1446,
      "currentUsage": 1067,
      "status": "Needs Repair",
      "latitude": -16.2666,
      "longitude": 27.5438,
      "lastMaintenance": "2026-01-09T15:00:30.862781"
    },
    {
      "id": 11,
      "chiefdom": "Chief Monze",
      "facilityName": "Gwembe Facility 11",
      "facilityType": "Secondary School",
      "village": "Chipata",
      "capacity": 69,
      "currentUsage": 958,
      "status": "Operational",
      "latitude": -16.1932,
      "longitude": 27.4693,
      "lastMaintenance": "2025-11-23T15:00:30.862788"
    },
    {
      "id": 12,
      "chiefdom": "Chief Monze",
      "facilityName": "Chililabombwe Facility 12",
      "facilityType": "Clinic",
      "village": "Siavonga",
      "capacity": 219,
      "currentUsage": 687,
      "status": "Needs Repair",
      "latitude": -16.3329,
      "longitude": 27.4067,
      "lastMaintenance": "2025-06-19T15:00:30.862795"
    },
    {
      "id": 13,
      "chiefdom": "Chief Monze",
      "facilityName": "Nakonde Facility 13",
      "facilityType": "Secondary School",
      "village": "Kalomo",
      "capacity": 1375,
      "currentUsage": 601,
      "status": "Under Construction",
      "latitude": -16.2337,
      "longitude": 27.5513,
      "lastMaintenance": "2025-07-13T15:00:30.862802"
    },
    {
      "id": 14,
      "chiefdom": "Chief Monze",
      "facilityName": "Mwembezhi Facility 14",
      "facilityType": "Water Source",
      "village": "Vubwi",
      "capacity": 372,
      "currentUsage": 422,
      "status": "Needs Repair",
      "latitude": -16.191,
      "longitude": 27.3875,
      "lastMaintenance": "2025-07-11T15:00:30.862809"
    },
    {
      "id": 15,
      "chiefdom": "Chief Monze",
      "facilityName": "Mpika Facility 15",
      "facilityType": "Secondary School",
      "village": "Nyimba",
      "capacity": 660,
      "currentUsage": 1349,
      "status": "Needs Repair",
      "latitude": -16.27,
      "longitude": 27.4046,
      "lastMaintenance": "2025-08-19T15:00:30.862816"
    },
    {
      "id": 16,
      "chiefdom": "Chief Monze",
      "facilityName": "Chipapa Facility 16",
      "facilityType": "Clinic",
      "village": "Nakatindi",
      "capacity": 247,
      "currentUsage": 896,
      "status": "Under Construction",
      "latitude": -16.365,
      "longitude": 27.5633,
      "lastMaintenance": "2025-10-06T15:00:30.862823"
    },
    {
      "id": 17,
      "chiefdom": "Chief Monze",
      "facilityName": "Mumbwa Facility 17",
      "facilityType": "Hospital",
      "village": "Mpika",
      "capacity": 1102,
      "currentUsage": 1131,
      "status": "Needs Repair",
      "latitude": -16.2124,
      "longitude": 27.516,
      "lastMaintenance": "2025-04-07T15:00:30.862829"
    },
    {
      "id": 18,
      "chiefdom": "Chief Monze",
      "facilityName": "Palabana Facility 18",
      "facilityType": "Primary School",
      "village": "Mbabala",
      "capacity": 295,
      "currentUsage": 42,
      "status": "Operational",
      "latitude": -16.3637,
      "longitude": 27.4451,
      "lastMaintenance": "2025-12-07T15:00:30.862837"
    },
    {
      "id": 19,
      "chiefdom": "Chief Monze",
      "facilityName": "Gwembe Facility 19",
      "facilityType": "Primary School",
      "village": "Chalimbana",
      "capacity": 556,
      "currentUsage": 1124,
      "status": "Under Construction",
      "latitude": -16.259,
      "longitude": 27.4411,
      "lastMaintenance": "2025-10-01T15:00:30.862844"
    },
    {
      "id": 20,
      "chiefdom": "Chief Monze",
      "facilityName": "Siavonga Facility 20",
      "facilityType": "Primary School",
      "village": "Shimabala",
      "capacity": 311,
      "currentUsage": 701,
      "status": "Operational",
      "latitude": -16.2319,
      "longitude": 27.509,
      "lastMaintenance": "2025-02-23T15:00:30.862851"
    },
    {
      "id": 21,
      "chiefdom": "Chief Monze",
      "facilityName": "Kabompo Facility 21",
      "facilityType": "Secondary School",
      "village": "Sinda",
      "capacity": 343,
      "currentUsage": 378,
      "status": "Under Construction",
      "latitude": -16.2726,
      "longitude": 27.4692,
      "lastMaintenance": "2025-06-21T15:00:30.862858"
    },
    {
      "id": 22,
      "chiefdom": "Chief Monze",
      "facilityName": "Palabana Facility 22",
      "facilityType": "Clinic",
      "village": "Kalingalinga",
      "capacity": 969,
      "currentUsage": 598,
      "status": "Under Construction",
      "latitude": -16.3673,
      "longitude": 27.4237,
      "lastMaintenance": "2025-05-10T15:00:30.862865"
    },
    {
      "id": 23,
      "chiefdom": "Chief Monze",
      "facilityName": "Mumbwa Facility 23",
      "facilityType": "Clinic",
      "village": "Kabompo",
      "capacity": 478,
      "currentUsage": 932,
      "status": "Needs Repair",
      "latitude": -16.3782,
      "longitude": 27.3858,
      "lastMaintenance": "2025-08-26T15:00:30.862872"
    },
    {
      "id": 24,
      "chiefdom": "Chief Monze",
      "facilityName": "Kitwe Facility 24",
      "facilityType": "Primary School",
      "village": "Pemba",
      "capacity": 958,
      "currentUsage": 1507,
      "status": "Operational",
      "latitude": -16.286,
      "longitude": 27.46,
      "lastMaintenance": "2026-01-02T15:00:30.862879"
    },
    {
      "id": 25,
      "chiefdom": "Chief Monze",
      "facilityName": "Mufumbwe Facility 25",
      "facilityType": "Primary School",
      "village": "Mufumbwe",
      "capacity": 1135,
      "currentUsage": 481,
      "status": "Under Construction",
      "latitude": -16.241,
      "longitude": 27.4554,
      "lastMaintenance": "2025-06-11T15:00:30.862885"
    },
    {
      "id": 26,
      "chiefdom": "Chief Monze",
      "facilityName": "Mpika Facility 26",
      "facilityType": "Clinic",
      "village": "Shimabala",
      "capacity": 725,
      "currentUsage": 678,
      "status": "Under Construction",
      "latitude": -16.3498,
      "longitude": 27.4449,
      "lastMaintenance": "2025-04-01T15:00:30.862893"
    },
    {
      "id": 27,
      "chiefdom": "Chief Monze",
      "facilityName": "Pemba Facility 27",
      "facilityType": "Primary School",
      "village": "Pemba",
      "capacity": 935,
      "currentUsage": 620,
      "status": "Needs Repair",
      "latitude": -16.2557,
      "longitude": 27.5739,
      "lastMaintenance": "2025-10-10T15:00:30.862900"
    },
    {
      "id": 28,
      "chiefdom": "Chief Monze",
      "facilityName": "Palabana Facility 28",
      "facilityType": "Clinic",
      "village": "Nakonde",
      "capacity": 937,
      "currentUsage": 753,
      "status": "Operational",
      "latitude": -16.3467,
      "longitude": 27.447,
      "lastMaintenance": "2025-12-10T15:00:30.862907"
    },
    {
      "id": 29,
      "chiefdom": "Chief Monze",
      "facilityName": "Mazabuka Facility 29",
      "facilityType": "Primary School",
      "village": "Chongwe Central",
      "capacity": 296,
      "currentUsage": 1456,
      "status": "Operational",
      "latitude": -16.2463,
      "longitude": 27.533,
      "lastMaintenance": "2025-03-15T15:00:30.862913"
    },
    {
      "id": 30,
      "chiefdom": "Chief Monze",
      "facilityName": "Chama Facility 30",
      "facilityType": "Primary School",
      "village": "Chinsali",
      "capacity": 908,
      "currentUsage": 353,
      "status": "Needs Repair",
      "latitude": -16.1931,
      "longitude": 27.5227,
      "lastMaintenance": "2025-11-17T15:00:30.862920"
    },
    {
      "id": 31,
      "chiefdom": "Chief Monze",
      "facilityName": "Nyimba Facility 31",
      "facilityType": "Clinic",
      "village": "Mambwe",
      "capacity": 1016,
      "currentUsage": 112,
      "status": "Operational",
      "latitude": -16.2879,
      "longitude": 27.4778,
      "lastMaintenance": "2025-08-01T15:00:30.862927"
    },
    {
      "id": 32,
      "chiefdom": "Chief Monze",
      "facilityName": "Sikanze Facility 32",
      "facilityType": "Primary School",
      "village": "Nakatindi",
      "capacity": 811,
      "currentUsage": 1104,
      "status": "Needs Repair",
      "latitude": -16.3498,
      "longitude": 27.4439,
      "lastMaintenance": "2025-03-24T15:00:30.862934"
    },
    {
      "id": 33,
      "chiefdom": "Chief Monze",
      "facilityName": "Mumbwa Facility 33",
      "facilityType": "Primary School",
      "village": "Mpika",
      "capacity": 1172,
      "currentUsage": 688,
      "status": "Needs Repair",
      "latitude": -16.2642,
      "longitude": 27.5749,
      "lastMaintenance": "2025-11-02T15:00:30.862941"
    },
    {
      "id": 34,
      "chiefdom": "Chief Monze",
      "facilityName": "Chingola Facility 34",
      "facilityType": "Water Source",
      "village": "Chama",
      "capacity": 1120,
      "currentUsage": 1329,
      "status": "Operational",
      "latitude": -16.2352,
      "longitude": 27.3963,
      "lastMaintenance": "2025-08-15T15:00:30.862948"
    },
    {
      "id": 35,
      "chiefdom": "Chief Monze",
      "facilityName": "Monze Facility 35",
      "facilityType": "Water Source",
      "village": "Monze",
      "capacity": 1286,
      "currentUsage": 1444,
      "status": "Operational",
      "latitude": -16.3727,
      "longitude": 27.4068,
      "lastMaintenance": "2025-05-11T15:00:30.862954"
    },
    {
      "id": 36,
      "chiefdom": "Chief Monze",
      "facilityName": "Chama Facility 36",
      "facilityType": "Clinic",
      "village": "Kalulushi",
      "capacity": 436,
      "currentUsage": 1308,
      "status": "Needs Repair",
      "latitude": -16.267,
      "longitude": 27.402,
      "lastMaintenance": "2025-12-12T15:00:30.862961"
    },
    {
      "id": 37,
      "chiefdom": "Chief Monze",
      "facilityName": "Kafue Riverside Facility 37",
      "facilityType": "Secondary School",
      "village": "Mporokoso",
      "capacity": 401,
      "currentUsage": 784,
      "status": "Under Construction",
      "latitude": -16.3263,
      "longitude": 27.4249,
      "lastMaintenance": "2025-10-22T15:00:30.862968"
    },
    {
      "id": 38,
      "chiefdom": "Chief Monze",
      "facilityName": "Chinsali Facility 38",
      "facilityType": "Water Source",
      "village": "Leopards Hill",
      "capacity": 483,
      "currentUsage": 1562,
      "status": "Operational",
      "latitude": -16.2764,
      "longitude": 27.5197,
      "lastMaintenance": "2025-08-18T15:00:30.862975"
    },
    {
      "id": 39,
      "chiefdom": "Chief Monze",
      "facilityName": "Sinazongwe Facility 39",
      "facilityType": "Primary School",
      "village": "Lundazi",
      "capacity": 190,
      "currentUsage": 357,
      "status": "Needs Repair",
      "latitude": -16.3541,
      "longitude": 27.5707,
      "lastMaintenance": "2026-01-08T15:00:30.862982"
    },
    {
      "id": 40,
      "chiefdom": "Chief Monze",
      "facilityName": "Livingstone Facility 40",
      "facilityType": "Water Source",
      "village": "Kalulushi",
      "capacity": 899,
      "currentUsage": 1238,
      "status": "Needs Repair",
      "latitude": -16.2442,
      "longitude": 27.5546,
      "lastMaintenance": "2025-05-25T15:00:30.862988"
    },
    {
      "id": 41,
      "chiefdom": "Chief Monze",
      "facilityName": "Makeni Facility 41",
      "facilityType": "Hospital",
      "village": "Luwingu",
      "capacity": 235,
      "currentUsage": 1445,
      "status": "Under Construction",
      "latitude": -16.1824,
      "longitude": 27.452,
      "lastMaintenance": "2025-08-16T15:00:30.862995"
    },
    {
      "id": 42,
      "chiefdom": "Chief Monze",
      "facilityName": "Mufulira Facility 42",
      "facilityType": "Hospital",
      "village": "Sikanze",
      "capacity": 862,
      "currentUsage": 1147,
      "status": "Under Construction",
      "latitude": -16.2003,
      "longitude": 27.4725,
      "lastMaintenance": "2025-06-08T15:00:30.863002"
    },
    {
      "id": 43,
      "chiefdom": "Chief Monze",
      "facilityName": "Kalabo Facility 43",
      "facilityType": "Secondary School",
      "village": "Leopards Hill",
      "capacity": 972,
      "currentUsage": 681,
      "status": "Operational",
      "latitude": -16.369,
      "longitude": 27.5391,
      "lastMaintenance": "2025-11-09T15:00:30.863009"
    },
    {
      "id": 44,
      "chiefdom": "Chief Monze",
      "facilityName": "Chama Facility 44",
      "facilityType": "Clinic",
      "village": "Mambwe",
      "capacity": 1303,
      "currentUsage": 831,
      "status": "Under Construction",
      "latitude": -16.1856,
      "longitude": 27.3915,
      "lastMaintenance": "2025-07-04T15:00:30.863016"
    },
    {
      "id": 45,
      "chiefdom": "Chief Monze",
      "facilityName": "Kafue Riverside Facility 45",
      "facilityType": "Primary School",
      "village": "Gwembe",
      "capacity": 970,
      "currentUsage": 1432,
      "status": "Operational",
      "latitude": -16.3648,
      "longitude": 27.401,
      "lastMaintenance": "2025-09-20T15:00:30.863022"
    },
    {
      "id": 46,
      "chiefdom": "Chief Monze",
      "facilityName": "Chinsali Facility 46",
      "facilityType": "Primary School",
      "village": "Lunsemfwa",
      "capacity": 659,
      "currentUsage": 1129,
      "status": "Operational",
      "latitude": -16.3094,
      "longitude": 27.4397,
      "lastMaintenance": "2025-08-07T15:00:30.863029"
    },
    {
      "id": 47,
      "chiefdom": "Chief Monze",
      "facilityName": "Choma Facility 47",
      "facilityType": "Primary School",
      "village": "Lundazi",
      "capacity": 1195,
      "currentUsage": 833,
      "status": "Needs Repair",
      "latitude": -16.1809,
      "longitude": 27.4978,
      "lastMaintenance": "2025-07-18T15:00:30.863036"
    },
    {
      "id": 48,
      "chiefdom": "Chief Monze",
      "facilityName": "Kalulushi Facility 48",
      "facilityType": "Clinic",
      "village": "Lilayi",
      "capacity": 682,
      "currentUsage": 114,
      "status": "Operational",
      "latitude": -16.1983,
      "longitude": 27.4351,
      "lastMaintenance": "2025-04-08T15:00:30.863043"
    },
    {
      "id": 49,
      "chiefdom": "Chief Monze",
      "facilityName": "Kitwe Facility 49",
      "facilityType": "Secondary School",
      "village": "Lunsemfwa",
      "capacity": 499,
      "currentUsage": 790,
      "status": "Operational",
      "latitude": -16.3137,
      "longitude": 27.563,
      "lastMaintenance": "2025-11-17T15:00:30.863050"
    },
    {
      "id": 50,
      "chiefdom": "Chief Monze",
      "facilityName": "Vubwi Facility 50",
      "facilityType": "Hospital",
      "village": "Nyimba",
      "capacity": 1240,
      "currentUsage": 368,
      "status": "Under Construction",
      "latitude": -16.2965,
      "longitude": 27.399,
      "lastMaintenance": "2025-02-27T15:00:30.863057"
    }
  ]
}