{
  "waterSources": [
    {
      "id": 1,
      "chiefdom": "Chief Monze",
      "district": "Monze",
      "sourceName": "Kasempa Water Source 1",
      "sourceType": "Spring",
      "waterBodyType": "Groundwater",
      "village": "Vubwi",
      "populationServed": 4825,
      "householdsServed": 2599,
      "flowRate": 25620,
      "waterQuality": "Excellent",
      "status": "Needs Repair",
      "latitude": -16.2732,
      "longitude": 27.5427,
      "averageWalkingDistance": 4.0,
      "lastMaintenance": "2025-03-22T15:00:30.864163",
      "installationYear": "2020-08-20T15:00:30.864167",
      "isProtected": true,
      "isTreated": true,
      "management": "Government"
    },
    {
      "id": 2,
      "chiefdom": "Chief Monze",
      "district": "Monze",
      "sourceName": "Mbala Water Source 2",
      "sourceType": "Borehole",
      "waterBodyType": "Groundwater",
      "village": "Kasama",
      "populationServed": 774,
      "householdsServed": 1365,
      "flowRate": 30726,
      "waterQuality": "Good",
      "status": "Needs Repair",
      "latitude": -16.1976,
      "longitude": 27.5318,
      "averageWalkingDistance": 0.2,
      "lastMaintenance": "2025-12-17T15:00:30.864177",
      "installationYear": "2018-07-24T15:00:30.864181",
      "isProtected": true,
      "isTreated": false,
      "management": "Government"
    },
    {
      "id": 3,
      "chiefdom": "Chief Monze",
      "district": "Monze",
      "sourceName": "Mongu Water Source 3",
      "sourceType": "Spring",
      "waterBodyType": "Groundwater",
      "village": "Mumbwa",
      "populationServed": 7374,
      "householdsServed": 668,
      "flowRate": 30590,
      "waterQuality": "Excellent",
      "status": "Needs Repair",
      "latitude": -16.27,
      "longitude": 27.3981,
      "averageWalkingDistance": 1.0,
      "lastMaintenance": "2025-06-04T15:00:30.864190",
      "installationYear": "2016-03-13T15:00:30.864193",
      "isProtected": false,
      "isTreated": false,
      "management": "Private"
    },
    {
      "id": 4,
      "chiefdom": "Chief Monze",
      "district": "Monze",
      "sourceName": "Leopards Hill Water Source 4",
      "sourceType": "Well",
      "waterBodyType": "Groundwater",
      "village": "Kafue Riverside",
      "populationServed": 8684,
      "householdsServed": 1350,
      "flowRate": 42006,
      "waterQuality": "Poor",
      "status": "Non-Functional",
      "latitude": -16.274,
      "longitude": 27.4534,
      "averageWalkingDistance": 2.6,
      "lastMaintenance": "2025-10-24T15:00:30.864202",
      "installationYear": "2024-07-13T15:00:30.864206",
      "isProtected": true,
      "isTreated": false,
      "management": "Government"
    },
    {
      "id": 5,
      "chiefdom": "Chief Monze",
      "district": "Monze",
      "sourceName": "Sinazongwe Water Source 5",
      "sourceType": "Well",
      "waterBodyType": "Groundwater",
      "village": "Solwezi",
      "populationServed": 11844,
      "householdsServed": 2124,
      "flowRate": 35625,
      "waterQuality": "Good",
      "status": "Functional",
      "latitude": -16.2905,
      "longitude": 27.4645,
      "averageWalkingDistance": 1.2,
      "lastMaintenance": "2025-04-11T15:00:30.864214",
      "installationYear": "2022-01-09T15:00:30.864218",
      "isProtected": true,
      "isTreated": true,
      "management": "Private"
    },
    {
      "id": 6,
      "chiefdom": "Chief Monze",
      "district": "Monze",
      "sourceName": "Chilanga Water Source 6",
      "sourceType": "Piped Water",
      "waterBodyType": "Groundwater",
      "village": "Kawambwa",
      "populationServed": 9204,
      "householdsServed": 267,
      "flowRate": 37265,
      "waterQuality": "Fair",
      "status": "Needs Repair",
      "latitude": -16.351,
      "longitude": 27.4868,
      "averageWalkingDistance": 1.5,
      "lastMaintenance": "2025-11-03T15:00:30.864227",
      "installationYear": "2024-03-05T15:00:30.864231",
      "isProtected": true,
      "isTreated": false,
      "management": "Government"
    },
    {
      "id": 7,
      "chiefdom": "Chief Monze",
      "district": "Monze",
      "sourceName": "Mufumbwe Water Source 7",
      "sourceType": "Piped Water",
      "waterBodyType": "Groundwater",
      "village": "Kasempa",
      "populationServed": 7396,
      "householdsServed": 584,
      "flowRate": 15982,
      "waterQuality": "Excellent",
      "status": "Functional",
      "latitude": -16.2358,
      "longitude": 27.4156,
      "averageWalkingDistance": 4.4,
      "lastMaintenance": "2025-03-19T15:00:30.864239",
      "installationYear": "2023-06-02T15:00:30.864243",
      "isProtected": false,
      "isTreated": false,
      "management": "Government"
    },
    {
      "id": 8,
      "chiefdom": "Chief Monze",
      "district": "Monze",
      "sourceName": "Monze Water Source 8",
      "sourceType": "Well",
      "waterBodyType": "Groundwater",
      "village": "Leopards Hill",
      "populationServed": 7407,
      "householdsServed": 736,
      "flowRate": 36890,
      "waterQuality": "Excellent",
      "status": "Functional",
      "latitude": -16.2727,
      "longitude": 27.5745,
      "averageWalkingDistance": 0.9,
      "lastMaintenance": "2025-02-04T15:00:30.864252",
      "installationYear": "2020-04-28T15:00:30.864255",
      "isProtected": true,
      "isTreated": false,
      "management": "NGO"
    },
    {
      "id": 9,
      "chiefdom": "Chief Monze",
      "district": "Monze",
      "sourceName": "Kawambwa Water Source 9",
      "sourceType": "Piped Water",
      "waterBodyType": "Groundwater",
      "village": "Lundazi",
      "populationServed": 2446,
      "householdsServed": 1553,
      "flowRate": 37918,
      "waterQuality": "Poor",
      "status": "Functional",
      "latitude": -16.2149,
      "longitude": 27.5581,
      "averageWalkingDistance": 2.2,
      "lastMaintenance": "2025-08-21T15:00:30.864264",
      "installationYear": "2024-10-27T15:00:30.864268",
      "isProtected": false,
      "isTreated": true,
      "management": "NGO"
    },
    {
      "id": 10,
      "chiefdom": "Chief Monze",
      "district": "Monze",
      "sourceName": "Mambwe Water Source 10",
      "sourceType": "Piped Water",
      "waterBodyType": "Groundwater",
      "village": "Pemba",
      "populationServed": 7869,
      "householdsServed": 1809,
      "flowRate": 500,
      "waterQuality": "Excellent",
      "status": "Needs Repair",
      "latitude": -16.2858,
      "longitude": 27.5454,
      "averageWalkingDistance": 2.8,
      "lastMaintenance": "2025-08-07T15:00:30.864276",
      "installationYear": "2025-01-06T15:00:30.864280",
      "isProtected": false,
      "isTreated": false,
      "management": "Community"
    },
    {
      "id": 11,
      "chiefdom": "Chief Monze",
      "district": "Monze",
      "sourceName": "Samfya Water Source 11",
      "sourceType": "Borehole",
      "waterBodyType": "Groundwater",
      "village": "Mongu",
      "populationServed": 8376,
      "householdsServed": 837,
      "flowRate": 30598,
      "waterQuality": "Excellent",
      "status": "Functional",
      "latitude": -16.1928,
      "longitude": 27.4424,
      "averageWalkingDistance": 4.0,
      "lastMaintenance": "2025-09-29T15:00:30.864289",
      "installationYear": "2017-05-31T15:00:30.864292",
      "isProtected": true,
      "isTreated": true,
      "management": "Private"
    },
    {
      "id": 12,
      "chiefdom": "Chief Monze",
      "district": "Monze",
      "sourceName": "Sinazongwe Water Source 12",
      "sourceType": "Well",
      "waterBodyType": "Groundwater",
      "village": "Nyimba",
      "populationServed": 9818,
      "householdsServed": 2330,
      "flowRate": 3917,
      "waterQuality": "Good",
      "status": "Needs Repair",
      "latitude": -16.3547,
      "longitude": 27.3905,
      "averageWalkingDistance": 3.6,
      "lastMaintenance": "2025-02-22T15:00:30.864301",
      "installationYear": "2022-06-22T15:00:30.864304",
      "isProtected": true,
      "isTreated": true,
      "management": "Private"
    },
    {
      "id": 13,
      "chiefdom": "Chief Monze",
      "district": "Monze",
      "sourceName": "Sikanze Water Source 13",
      "sourceType": "Well",
      "waterBodyType": "Groundwater",
      "village": "Chibombo",
      "populationServed": 12518,
      "householdsServed": 564,
      "flowRate": 3910,
      "waterQuality": "Poor",
      "status": "Functional",
      "latitude": -16.3437,
      "longitude": 27.4137,
      "averageWalkingDistance": 4.7,
      "lastMaintenance": "2025-01-25T15:00:30.864313",
      "installationYear": "2017-10-09T15:00:30.864316",
      "isProtected": true,
      "isTreated": false,
      "management": "Community"
    },
    {
      "id": 14,
      "chiefdom": "Chief Monze",
      "district": "Monze",
      "sourceName": "Kabwe Water Source 14",
      "sourceType": "Spring",
      "waterBodyType": "Groundwater",
      "village": "Pemba",
      "populationServed": 6997,
      "householdsServed": 2281,
      "flowRate": 8792,
      "waterQuality": "Poor",
      "status": "Non-Functional",
      "latitude": -16.3233,
      "longitude": 27.5635,
      "averageWalkingDistance": 2.6,
      "lastMaintenance": "2025-03-12T15:00:30.864325",
      "installationYear": "2017-05-23T15:00:30.864329",
      "isProtected": false,
      "isTreated": false,
      "management": "NGO"
    },
    {
      "id": 15,
      "chiefdom": "Chief Monze",
      "district": "Monze",
      "sourceName": "Ndola Water Source 15",
      "sourceType": "Borehole",
      "waterBodyType": "Groundwater",
      "village": "Mufumbwe",
      "populationServed": 7692,
      "householdsServed": 164,
      "flowRate": 2416,
      "waterQuality": "Excellent",
      "status": "Non-Functional",
      "latitude": -16.2486,
      "longitude": 27.4624,
      "averageWalkingDistance": 1.3,
      "lastMaintenance": "2025-05-15T15:00:30.864337",
      "installationYear": "2024-12-30T15:00:30.864341",
      "isProtected": true,
      "isTreated": true,
      "management": "Private"
    },
    {
      "id": 16,
      "chiefdom": "Chief Monze",
      "district": "Monze",
      "sourceName": "Kalomo Water Source 16",
      "sourceType": "Borehole",
      "waterBodyType": "Groundwater",
      "village": "Chililabombwe",
      "populationServed": 4888,
      "householdsServed": 202,
      "flowRate": 33158,
      "waterQuality": "Fair",
      "status": "Needs Repair",
      "latitude": -16.2629,
      "longitude": 27.5493,
      "averageWalkingDistance": 0.2,
      "lastMaintenance": "2025-11-06T15:00:30.864350",
      "installationYear": "2018-01-20T15:00:30.864353",
      "isProtected": false,
      "isTreated": true,
      "management": "NGO"
    },
    {
      "id": 17,
      "chiefdom": "Chief Monze",
      "district": "Monze",
      "sourceName": "Mbabala Water Source 17",
      "sourceType": "Well",
      "waterBodyType": "Groundwater",
      "village": "Lundazi",
      "populationServed": 10446,
      "householdsServed": 587,
      "flowRate": 12654,
      "waterQuality": "Poor",
      "status": "Non-Functional",
      "latitude": -16.1873,
      "longitude": 27.4345,
      "averageWalkingDistance": 2.3,
      "lastMaintenance": "2025-08-04T15:00:30.864362",
      "installationYear": "2024-01-11T15:00:30.864365",
      "isProtected": true,
      "isTreated": true,
      "management": "Community"
    },
    {
      "id": 18,
      "chiefdom": "Chief Monze",
      "district": "Monze",
      "sourceName": "Luangwa Water Source 18",
      "sourceType": "Well",
      "waterBodyType": "Groundwater",
      "village": "Shangombo",
      "populationServed": 7055,
      "householdsServed": 314,
      "flowRate": 15147,
      "waterQuality": "Fair",
      "status": "Needs Repair",
      "latitude": -16.2682,
      "longitude": 27.4175,
      "averageWalkingDistance": 3.4,
      "lastMaintenance": "2025-11-04T15:00:30.864374",
      "installationYear": "2023-07-05T15:00:30.864377",
      "isProtected": true,
      "isTreated": true,
      "management": "Community"
    },
    {
      "id": 19,
      "chiefdom": "Chief Monze",
      "district": "Monze",
      "sourceName": "Mbala Water Source 19",
      "sourceType": "Spring",
      "waterBodyType": "Groundwater",
      "village": "Kanakantapa",
      "populationServed": 6430,
      "householdsServed": 453,
      "flowRate": 8171,
      "waterQuality": "Excellent",
      "status": "Non-Functional",
      "latitude": -16.2016,
      "longitude": 27.5559,
      "averageWalkingDistance": 4.3,
      "lastMaintenance": "2025-01-19T15:00:30.864386",
      "installationYear": "2019-11-23T15:00:30.864389",
      "isProtected": true,
      "isTreated": false,
      "management": "Government"
    },
    {
      "id": 20,
      "chiefdom": "Chief Monze",
      "district": "Monze",
      "sourceName": "Kalomo Water Source 20",
      "sourceType": "Well",
      "waterBodyType": "Groundwater",
      "village": "Chililabombwe",
      "populationServed": 13227,
      "householdsServed": 2893,
      "flowRate": 15312,
      "waterQuality": "Good",
      "status": "Needs Repair",
      "latitude": -16.2427,
      "longitude": 27.4944,
      "averageWalkingDistance": 0.8,
      "lastMaintenance": "2025-11-05T15:00:30.864399",
      "installationYear": "2022-07-17T15:00:30.864402",
      "isProtected": false,
      "isTreated": false,
      "management": "NGO"
    },
    {
      "id": 21,
      "chiefdom": "Chief Monze",
      "district": "Monze",
      "sourceName": "Makeni Water Source 21",
      "sourceType": "Spring",
      "waterBodyType": "Groundwater",
      "village": "Solwezi",
      "populationServed": 6335,
      "householdsServed": 1945,
      "flowRate": 37009,
      "waterQuality": "Good",
      "status": "Needs Repair",
      "latitude": -16.2508,
      "longitude": 27.4676,
      "averageWalkingDistance": 1.1,
      "lastMaintenance": "2025-12-13T15:00:30.864411",
      "installationYear": "2023-03-17T15:00:30.864420",
      "isProtected": true,
      "isTreated": false,
      "management": "Government"
    },
    {
      "id": 22,
      "chiefdom": "Chief Monze",
      "district": "Monze",
      "sourceName": "Samfya Water Source 22",
      "sourceType": "Borehole",
      "waterBodyType": "Groundwater",
      "village": "Chilanga",
      "populationServed": 2260,
      "householdsServed": 2471,
      "flowRate": 43525,
      "waterQuality": "Poor",
      "status": "Non-Functional",
      "latitude": -16.2141,
      "longitude": 27.4705,
      "averageWalkingDistance": 5.0,
      "lastMaintenance": "2025-05-30T15:00:30.864429",
      "installationYear": "2024-03-04T15:00:30.864432",
      "isProtected": false,
      "isTreated": false,
      "management": "NGO"
    },
    {
      "id": 23,
      "chiefdom": "Chief Monze",
      "district": "Monze",
      "sourceName": "Mbala Water Source 23",
      "sourceType": "Spring",
      "waterBodyType": "Groundwater",
      "village": "Petauke",
      "populationServed": 10171,
      "householdsServed": 486,
      "flowRate": 7735,
      "waterQuality": "Good",
      "status": "Functional",
      "latitude": -16.2798,
      "longitude": 27.4192,
      "averageWalkingDistance": 2.3,
      "lastMaintenance": "2025-09-16T15:00:30.864441",
      "installationYear": "2022-10-09T15:00:30.864445",
      "isProtected": true,
      "isTreated": true,
      "management": "NGO"
    },
    {
      "id": 24,
      "chiefdom": "Chief Monze",
      "district": "Monze",
      "sourceName": "Mpongwe Water Source 24",
      "sourceType": "Borehole",
      "waterBodyType": "Groundwater",
      "village": "Nakatindi",
      "populationServed": 7834,
      "householdsServed": 653,
      "flowRate": 36204,
      "waterQuality": "Good",
      "status": "Non-Functional",
      "latitude": -16.2535,
      "longitude": 27.4104,
      "averageWalkingDistance": 1.8,
      "lastMaintenance": "2025-08-28T15:00:30.864453",
      "installationYear": "2020-09-04T15:00:30.864457",
      "isProtected": true,
      "isTreated": true,
      "management": "Government"
    },
    {
      "id": 25,
      "chiefdom": "Chief Monze",
      "district": "Monze",
      "sourceName": "Shimabala Water Source 25",
      "sourceType": "Spring",
      "waterBodyType": "Groundwater",
      "village": "Mumbwa",
      "populationServed": 12945,
      "householdsServed": 404,
      "flowRate": 2460,
      "waterQuality": "Poor",
      "status": "Functional",
      "latitude": -16.3613,
      "longitude": 27.3945,
      "averageWalkingDistance": 4.8,
      "lastMaintenance": "2025-01-20T15:00:30.864466",
      "installationYear": "2020-09-09T15:00:30.864469",
      "isProtected": true,
      "isTreated": false,
      "management": "Community"
    },
    {
      "id": 26,
      "chiefdom": "Chief Monze",
      "district": "Monze",
      "sourceName": "Nyimba Water Source 26",
      "sourceType": "Piped Water",
      "waterBodyType": "Groundwater",
      "village": "Sikanze",
      "populationServed": 5779,
      "householdsServed": 432,
      "flowRate": 24687,
      "waterQuality": "Poor",
      "status": "Functional",
      "latitude": -16.3314,
      "longitude": 27.5216,
      "averageWalkingDistance": 4.5,
      "lastMaintenance": "2025-04-17T15:00:30.864478",
      "installationYear": "2016-07-01T15:00:30.864482",
      "isProtected": true,
      "isTreated": false,
      "management": "Government"
    },
    {
      "id": 27,
      "chiefdom": "Chief Monze",
      "district": "Monze",
      "sourceName": "Pemba Water Source 27",
      "sourceType": "Borehole",
      "waterBodyType": "Groundwater",
      "village": "Petauke",
      "populationServed": 3910,
      "householdsServed": 1705,
      "flowRate": 14420,
      "waterQuality": "Good",
      "status": "Needs Repair",
      "latitude": -16.2891,
      "longitude": 27.4503,
      "averageWalkingDistance": 2.0,
      "lastMaintenance": "2025-12-07T15:00:30.864491",
      "installationYear": "2023-05-25T15:00:30.864494",
      "isProtected": true,
      "isTreated": false,
      "management": "Community"
    },
    {
      "id": 28,
      "chiefdom": "Chief Monze",
      "district": "Monze",
      "sourceName": "Pemba Water Source 28",
      "sourceType": "Piped Water",
      "waterBodyType": "Groundwater",
      "village": "Mumbwa",
      "populationServed": 13577,
      "householdsServed": 1773,
      "flowRate": 44056,
      "waterQuality": "Good",
      "status": "Needs Repair",
      "latitude": -16.1889,
      "longitude": 27.5772,
      "averageWalkingDistance": 1.4,
      "lastMaintenance": "2025-02-24T15:00:30.864503",
      "installationYear": "2019-04-20T15:00:30.864506",
      "isProtected": true,
      "isTreated": false,
      "management": "Private"
    },
    {
      "id": 29,
      "chiefdom": "Chief Monze",
      "district": "Monze",
      "sourceName": "Kapiri Water Source 29",
      "sourceType": "Piped Water",
      "waterBodyType": "Groundwater",
      "village": "Chilanga",
      "populationServed": 2944,
      "householdsServed": 1975,
      "flowRate": 8459,
      "waterQuality": "Good",
      "status": "Functional",
      "latitude": -16.357,
      "longitude": 27.5573,
      "averageWalkingDistance": 3.7,
      "lastMaintenance": "2025-04-21T15:00:30.864515",
      "installationYear": "2017-03-11T15:00:30.864519",
      "isProtected": true,
      "isTreated": true,
      "management": "Community"
    },
    {
      "id": 30,
      "chiefdom": "Chief Monze",
      "district": "Monze",
      "sourceName": "Mkushi Water Source 30",
      "sourceType": "Well",
      "waterBodyType": "Groundwater",
      "village": "Pemba",
      "populationServed": 10263,
      "householdsServed": 1404,
      "flowRate": 15013,
      "waterQuality": "Good",
      "status": "Functional",
      "latitude": -16.2731,
      "longitude": 27.3868,
      "averageWalkingDistance": 2.0,
      "lastMaintenance": "2025-02-22T15:00:30.864527",
      "installationYear": "2019-02-27T15:00:30.864531",
      "isProtected": true,
      "isTreated": false,
      "management": "Government"
    },
    {
      "id": 31,
      "chiefdom": "Chief Monze",
      "district": "Monze",
      "sourceName": "Luangwa Water Source 31",
      "sourceType": "Spring",
      "waterBodyType": "Groundwater",
      "village": "Mwinilunga",
      "populationServed": 6748,
      "householdsServed": 526,
      "flowRate": 31019,
      "waterQuality": "Excellent",
      "status": "Functional",
      "latitude": -16.2694,
      "longitude": 27.5173,
      "averageWalkingDistance": 1.8,
      "lastMaintenance": "2025-07-11T15:00:30.864540",
      "installationYear": "2024-11-28T15:00:30.864543",
      "isProtected": true,
      "isTreated": true,
      "management": "Private"
    },
    {
      "id": 32,
      "chiefdom": "Chief Monze",
      "district": "Monze",
      "sourceName": "Monze Water Source 32",
      "sourceType": "Spring",
      "waterBodyType": "Groundwater",
      "village": "Solwezi",
      "populationServed": 13282,
      "householdsServed": 2572,
      "flowRate": 5134,
      "waterQuality": "Excellent",
      "status": "Needs Repair",
      "latitude": -16.2647,
      "longitude": 27.4255,
      "averageWalkingDistance": 3.0,
      "lastMaintenance": "2025-02-22T15:00:30.864552",
      "installationYear": "2024-02-01T15:00:30.864556",
      "isProtected": true,
      "isTreated": false,
      "management": "Government"
    },
    {
      "id": 33,
      "chiefdom": "Chief Monze",
      "district": "Monze",
      "sourceName": "Palabana Water Source 33",
      "sourceType": "Well",
      "waterBodyType": "Groundwater",
      "village": "Chainda",
      "populationServed": 13968,
      "householdsServed": 529,
      "flowRate": 28645,
      "waterQuality": "Good",
      "status": "Non-Functional",
      "latitude": -16.3043,
      "longitude": 27.4281,
      "averageWalkingDistance": 2.8,
      "lastMaintenance": "2025-02-04T15:00:30.864565",
      "installationYear": "2022-06-27T15:00:30.864568",
      "isProtected": true,
      "isTreated": true,
      "management": "Private"
    },
    {
      "id": 34,
      "chiefdom": "Chief Monze",
      "district": "Monze",
      "sourceName": "Mbabala Water Source 34",
      "sourceType": "Well",
      "waterBodyType": "Groundwater",
      "village": "Mufulira",
      "populationServed": 13847,
      "householdsServed": 2238,
      "flowRate": 27477,
      "waterQuality": "Excellent",
      "status": "Functional",
      "latitude": -16.3233,
      "longitude": 27.5133,
      "averageWalkingDistance": 3.4,
      "lastMaintenance": "2025-11-05T15:00:30.864577",
      "installationYear": "2024-02-18T15:00:30.864581",
      "isProtected": true,
      "isTreated": true,
      "management": "Private"
    },
    {
      "id": 35,
      "chiefdom": "Chief Monze",
      "district": "Monze",
      "sourceName": "Chadiza Water Source 35",
      "sourceType": "Spring",
      "waterBodyType": "Groundwater",
      "village": "Kanakantapa",
      "populationServed": 11289,
      "householdsServed": 267,
      "flowRate": 9874,
      "waterQuality": "Fair",
      "status": "Functional",
      "latitude": -16.2247,
      "longitude": 27.3924,
      "averageWalkingDistance": 1.5,
      "lastMaintenance": "2025-07-02T15:00:30.864589",
      "installationYear": "2021-12-07T15:00:30.864593",
      "isProtected": true,
      "isTreated": true,
      "management": "Government"
    },
    {
      "id": 36,
      "chiefdom": "Chief Monze",
      "district": "Monze",
      "sourceName": "Kitwe Water Source 36",
      "sourceType": "Piped Water",
      "waterBodyType": "Groundwater",
      "village": "Nakonde",
      "populationServed": 2871,
      "householdsServed": 2988,
      "flowRate": 38516,
      "waterQuality": "Poor",
      "status": "Needs Repair",
      "latitude": -16.2409,
      "longitude": 27.5664,
      "averageWalkingDistance": 1.8,
      "lastMaintenance": "2025-04-28T15:00:30.864602",
      "installationYear": "2023-04-01T15:00:30.864605",
      "isProtected": false,
      "isTreated": true,
      "management": "Government"
    },
    {
      "id": 37,
      "chiefdom": "Chief Monze",
      "district": "Monze",
      "sourceName": "Sikanze Water Source 37",
      "sourceType": "Spring",
      "waterBodyType": "Groundwater",
      "village": "Mutumbi",
      "populationServed": 13424,
      "householdsServed": 1876,
      "flowRate": 13905,
      "waterQuality": "Excellent",
      "status": "Needs Repair",
      "latitude": -16.2322,
      "longitude": 27.5667,
      "averageWalkingDistance": 1.3,
      "lastMaintenance": "2025-06-10T15:00:30.864614",
      "installationYear": "2018-11-01T15:00:30.864617",
      "isProtected": false,
      "isTreated": true,
      "management": "Private"
    },
    {
      "id": 38,
      "chiefdom": "Chief Monze",
      "district": "Monze",
      "sourceName": "Nyimba Water Source 38",
      "sourceType": "Spring",
      "waterBodyType": "Groundwater",
      "village": "Mufumbwe",
      "populationServed": 5272,
      "householdsServed": 1446,
      "flowRate": 3331,
      "waterQuality": "Good",
      "status": "Non-Functional",
      "latitude": -16.3526,
      "longitude": 27.4524,
      "averageWalkingDistance": 4.3,
      "lastMaintenance": "2025-03-23T15:00:30.864626",
      "installationYear": "2021-11-26T15:00:30.864630",
      "isProtected": false,
      "isTreated": false,
      "management": "Government"
    },
    {
      "id": 39,
      "chiefdom": "Chief Monze",
      "district": "Monze",
      "sourceName": "Samfya Water Source 39",
      "sourceType": "Borehole",
      "waterBodyType": "Groundwater",
      "village": "Kasempa",
      "populationServed": 12271,
      "householdsServed": 1998,
      "flowRate": 13453,
      "waterQuality": "Poor",
      "status": "Needs Repair",
      "latitude": -16.1996,
      "longitude": 27.4147,
      "averageWalkingDistance": 0.9,
      "lastMaintenance": "2025-06-24T15:00:30.864638",
      "installationYear": "2018-09-20T15:00:30.864642",
      "isProtected": true,
      "isTreated": false,
      "management": "Government"
    },
    {
      "id": 40,
      "chiefdom": "Chief Monze",
      "district": "Monze",
      "sourceName": "Nakonde Water Source 40",
      "sourceType": "Piped Water",
      "waterBodyType": "Groundwater",
      "village": "Lundazi",
      "populationServed": 8464,
      "householdsServed": 2789,
      "flowRate": 18444,
      "waterQuality": "Poor",
      "status": "Functional",
      "latitude": -16.3363,
      "longitude": 27.4172,
      "averageWalkingDistance": 4.3,
      "lastMaintenance": "2025-02-17T15:00:30.864650",
      "installationYear": "2022-06-23T15:00:30.864654",
      "isProtected": true,
      "isTreated": false,
      "management": "Private"
    },
    {
      "id": 41,
      "chiefdom": "Chief Monze",
      "district": "Monze",
      "sourceName": "Samfya Water Source 41",
      "sourceType": "Borehole",
      "waterBodyType": "Groundwater",
      "village": "Chililabombwe",
      "populationServed": 7443,
      "householdsServed": 1876,
      "flowRate": 8046,
      "waterQuality": "Poor",
      "status": "Non-Functional",
      "latitude": -16.2755,
      "longitude": 27.5215,
      "averageWalkingDistance": 3.8,
      "lastMaintenance": "2025-06-11T15:00:30.864663",
      "installationYear": "2021-06-29T15:00:30.864666",
      "isProtected": true,
      "isTreated": true,
      "management": "Private"
    },
    {
      "id": 42,
      "chiefdom": "Chief Monze",
      "district": "Monze",
      "sourceName": "Chalimbana Water Source 42",
      "sourceType": "Well",
      "waterBodyType": "Groundwater",
      "village": "Sinda",
      "populationServed": 9217,
      "householdsServed": 2231,
      "flowRate": 17322,
      "waterQuality": "Excellent",
      "status": "Functional",
      "latitude": -16.2026,
      "longitude": 27.4184,
      "averageWalkingDistance": 0.8,
      "lastMaintenance": "2025-10-14T15:00:30.864675",
      "installationYear": "2024-09-03T15:00:30.864679",
      "isProtected": true,
      "isTreated": true,
      "management": "NGO"
    },
    {
      "id": 43,
      "chiefdom": "Chief Monze",
      "district": "Monze",
      "sourceName": "Makeni Water Source 43",
      "sourceType": "Spring",
      "waterBodyType": "Groundwater",
      "village": "Livingstone",
      "populationServed": 879,
      "householdsServed": 148,
      "flowRate": 18897,
      "waterQuality": "Fair",
      "status": "Needs Repair",
      "latitude": -16.365,
      "longitude": 27.4328,
      "averageWalkingDistance": 3.4,
      "lastMaintenance": "2025-05-12T15:00:30.864688",
      "installationYear": "2019-06-22T15:00:30.864691",
      "isProtected": true,
      "isTreated": false,
      "management": "Private"
    },
    {
      "id": 44,
      "chiefdom": "Chief Monze",
      "district": "Monze",
      "sourceName": "Munyumba Water Source 44",
      "sourceType": "Borehole",
      "waterBodyType": "Groundwater",
      "village": "Palabana",
      "populationServed": 3051,
      "householdsServed": 1441,
      "flowRate": 28799,
      "waterQuality": "Excellent",
      "status": "Non-Functional",
      "latitude": -16.2168,
      "longitude": 27.579,
      "averageWalkingDistance": 4.8,
      "lastMaintenance": "2025-10-28T15:00:30.864700",
      "installationYear": "2017-05-28T15:00:30.864704",
      "isProtected": false,
      "isTreated": false,
      "management": "Private"
    },
    {
      "id": 45,
      "chiefdom": "Chief Monze",
      "district": "Monze",
      "sourceName": "Katete Water Source 45",
      "sourceType": "Spring",
      "waterBodyType": "Groundwater",
      "village": "Solwezi",
      "populationServed": 908,
      "householdsServed": 1205,
      "flowRate": 20828,
      "waterQuality": "Excellent",
      "status": "Non-Functional",
      "latitude": -16.3701,
      "longitude": 27.5748,
      "averageWalkingDistance": 0.8,
      "lastMaintenance": "2025-10-15T15:00:30.864712",
      "installationYear": "2018-06-17T15:00:30.864716",
      "isProtected": false,
      "isTreated": true,
      "management": "Government"
    },
    {
      "id": 46,
      "chiefdom": "Chief Monze",
      "district": "Monze",
      "sourceName": "Mambwe Water Source 46",
      "sourceType": "Spring",
      "waterBodyType": "Groundwater",
      "village": "Makeni",
      "populationServed": 3610,
      "householdsServed": 2199,
      "flowRate": 23423,
      "waterQuality": "Good",
      "status": "Functional",
      "latitude": -16.2111,
      "longitude": 27.3946,
      "averageWalkingDistance": 4.1,
      "lastMaintenance": "2025-09-12T15:00:30.864724",
      "installationYear": "2021-05-12T15:00:30.864728",
      "isProtected": true,
      "isTreated": true,
      "management": "NGO"
    },
    {
      "id": 47,
      "chiefdom": "Chief Monze",
      "district": "Monze",
      "sourceName": "Zambezi Water Source 47",
      "sourceType": "Spring",
      "waterBodyType": "Groundwater",
      "village": "Chalala",
      "populationServed": 8410,
      "householdsServed": 2656,
      "flowRate": 36457,
      "waterQuality": "Poor",
      "status": "Functional",
      "latitude": -16.2217,
      "longitude": 27.5066,
      "averageWalkingDistance": 3.0,
      "lastMaintenance": "2025-07-11T15:00:30.864736",
      "installationYear": "2021-05-05T15:00:30.864740",
      "isProtected": true,
      "isTreated": false,
      "management": "Government"
    },
    {
      "id": 48,
      "chiefdom": "Chief Monze",
      "district": "Monze",
      "sourceName": "Kasama Water Source 48",
      "sourceType": "Spring",
      "waterBodyType": "Groundwater",
      "village": "Kafue Riverside",
      "populationServed": 12246,
      "householdsServed": 2667,
      "flowRate": 1903,
      "waterQuality": "Fair",
      "status": "Non-Functional",
      "latitude": -16.1878,
      "longitude": 27.5405,
      "averageWalkingDistance": 1.5,
      "lastMaintenance": "2025-09-01T15:00:30.864748",
      "installationYear": "2022-05-04T15:00:30.864752",
      "isProtected": false,
      "isTreated": true,
      "management": "Community"
    },
    {
      "id": 49,
      "chiefdom": "Chief Monze",
      "district": "Monze",
      "sourceName": "Solwezi Water Source 49",
      "sourceType": "Well",
      "waterBodyType": "Groundwater",
      "village": "Kaoma",
      "populationServed": 9635,
      "householdsServed": 2766,
      "flowRate": 10858,
      "waterQuality": "Good",
      "status": "Functional",
      "latitude": -16.2618,
      "longitude": 27.3852,
      "averageWalkingDistance": 0.8,
      "lastMaintenance": "2025-01-23T15:00:30.864760",
      "installationYear": "2024-11-01T15:00:30.864764",
      "isProtected": true,
      "isTreated": false,
      "management": "Private"
    },
    {
      "id": 50,
      "chiefdom": "Chief Monze",
      "district": "Monze",
      "sourceName": "Mbala Water Source 50",
      "sourceType": "Spring",
      "waterBodyType": "Groundwater",
      "village": "Kasempa",
      "populationServed": 8283,
      "householdsServed": 883,
      "flowRate": 1239,
      "waterQuality": "Fair",
      "status": "Non-Functional",
      "latitude": -16.1958,
      "longitude": 27.4561,
      "averageWalkingDistance": 1.3,
      "lastMaintenance": "2025-11-08T15:00:30.864772",
      "installationYear": "2022-07-27T15:00:30.864776",
      "isProtected": false,
      "isTreated": true,
      "management": "NGO"
    }
  ],
  "waterBodies": [
    {
      "id": 1,
      "chiefdom": "Chief Monze",
      "bodyName": "Kalomo River 1",
      "bodyType": "Lake",
      "waterQuality": "Poor",
      "isProtected": true,
      "usageType": "Drinking",
      "latitude": -16.3511,
      "longitude": 27.4105
    },
    {
      "id": 2,
      "chiefdom": "Chief Monze",
      "bodyName": "Chingola River 2",
      "bodyType": "Dam",
      "waterQuality": "Good",
      "isProtected": true,
      "usageType": "Multiple",
      "latitude": -16.3383,
      "longitude": 27.5759
    },
    {
      "id": 3,
      "chiefdom": "Chief Monze",
      "bodyName": "Vubwi River 3",
      "bodyType": "Lake",
      "waterQuality": "Good",
      "isProtected": true,
      "usageType": "Multiple",
      "latitude": -16.3344,
      "longitude": 27.486
    },
    {
      "id": 4,
      "chiefdom": "Chief Monze",
      "bodyName": "Meanwood Stream 4",
      "bodyType": "Stream",
      "waterQuality": "Poor",
      "isProtected": false,
      "usageType": "Irrigation",
      "latitude": -16.339,
      "longitude": 27.4154
    },
    {
      "id": 5,
      "chiefdom": "Chief Monze",
      "bodyName": "Chainda River 5",
      "bodyType": "River",
      "waterQuality": "Poor",
      "isProtected": false,
      "usageType": "Recreation",
      "latitude": -16.3477,
      "longitude": 27.5289
    },
    {
      "id": 6,
      "chiefdom": "Chief Monze",
      "bodyName": "Chalala Dam 6",
      "bodyType": "Stream",
      "waterQuality": "Good",
      "isProtected": false,
      "usageType": "Irrigation",
      "latitude": -16.192,
      "longitude": 27.5574
    },
    {
      "id": 7,
      "chiefdom": "Chief Monze",
      "bodyName": "Nakonde Stream 7",
      "bodyType": "Stream",
      "waterQuality": "Good",
      "isProtected": false,
      "usageType": "Irrigation",
      "latitude": -16.3104,
      "longitude": 27.4563
    },
    {
      "id": 8,
      "chiefdom": "Chief Monze",
      "bodyName": "Choma Stream 8",
      "bodyType": "Stream",
      "waterQuality": "Good",
      "isProtected": false,
      "usageType": "Drinking",
      "latitude": -16.3074,
      "longitude": 27.5299
    },
    {
      "id": 9,
      "chiefdom": "Chief Monze",
      "bodyName": "Munyumba River 9",
      "bodyType": "Stream",
      "waterQuality": "Good",
      "isProtected": false,
      "usageType": "Irrigation",
      "latitude": -16.2373,
      "longitude": 27.4466
    },
    {
      "id": 10,
      "chiefdom": "Chief Monze",
      "bodyName": "Mwembezhi Dam 10",
      "bodyType": "Dam",
      "waterQuality": "Poor",
      "isProtected": true,
      "usageType": "Recreation",
      "latitude": -16.3019,
      "longitude": 27.5354
    }
  ],
  "sanitationFacilities": [
    {
      "id": 1,
      "chiefdom": "Chief Monze",
      "facilityName": "Kasama Sanitation 1",
      "facilityType": "Septic System",
      "village": "Munyumba",
      "populationServed": 7957,
      "capacity": 235,
      "status": "Needs Repair",
      "latitude": -16.2892,
      "longitude": 27.5034,
      "lastMaintenance": "2025-06-17T15:00:30.864817"
    },
    {
      "id": 2,
      "chiefdom": "Chief Monze",
      "facilityName": "Kasempa Sanitation 2",
      "facilityType": "Public Toilet",
      "village": "Katete",
      "populationServed": 9871,
      "capacity": 335,
      "status": "Needs Repair",
      "latitude": -16.3,
      "longitude": 27.4357,
      "lastMaintenance": "2025-05-03T15:00:30.864824"
    },
    {
      "id": 3,
      "chiefdom": "Chief Monze",
      "facilityName": "Luwingu Sanitation 3",
      "facilityType": "Septic System",
      "village": "Chalimbana",
      "populationServed": 8376,
      "capacity": 255,
      "status": "Needs Repair",
      "latitude": -16.2774,
      "longitude": 27.4034,
      "lastMaintenance": "2025-12-04T15:00:30.864832"
    },
    {
      "id": 4,
      "chiefdom": "Chief Monze",
      "facilityName": "Chipapa Sanitation 4",
      "facilityType": "Public Toilet",
      "village": "Mongu",
      "populationServed": 5475,
      "capacity": 325,
      "status": "Needs Repair",
      "latitude": -16.2209,
      "longitude": 27.4402,
      "lastMaintenance": "2025-03-12T15:00:30.864840"
    },
    {
      "id": 5,
      "chiefdom": "Chief Monze",
      "facilityName": "Kalomo Sanitation 5",
      "facilityType": "Public Toilet",
      "village": "Kabompo",
      "populationServed": 1313,
      "capacity": 458,
      "status": "Needs Repair",
      "latitude": -16.3387,
      "longitude": 27.4685,
      "lastMaintenance": "2025-06-23T15:00:30.864847"
    },
    {
      "id": 6,
      "chiefdom": "Chief Monze",
      "facilityName": "Luwingu Sanitation 6",
      "facilityType": "Septic System",
      "village": "Lunsemfwa",
      "populationServed": 1769,
      "capacity": 282,
      "status": "Non-Functional",
      "latitude": -16.3281,
      "longitude": 27.3957,
      "lastMaintenance": "2025-10-01T15:00:30.864855"
    },
    {
      "id": 7,
      "chiefdom": "Chief Monze",
      "facilityName": "Mazabuka Sanitation 7",
      "facilityType": "Waste Treatment",
      "village": "Kaputa",
      "populationServed": 1640,
      "capacity": 241,
      "status": "Needs Repair",
      "latitude": -16.2278,
      "longitude": 27.4821,
      "lastMaintenance": "2025-08-18T15:00:30.864862"
    },
    {
      "id": 8,
      "chiefdom": "Chief Monze",
      "facilityName": "Mbabala Sanitation 8",
      "facilityType": "Septic System",
      "village": "Makeni",
      "populationServed": 4591,
      "capacity": 104,
      "status": "Functional",
      "latitude": -16.3129,
      "longitude": 27.4535,
      "lastMaintenance": "2025-02-18T15:00:30.864869"
    },
    {
      "id": 9,
      "chiefdom": "Chief Monze",
      "facilityName": "Mkushi Sanitation 9",
      "facilityType": "Latrine",
      "village": "Gwembe",
      "populationServed": 1207,
      "capacity": 136,
      "status": "Non-Functional",
      "latitude": -16.2755,
      "longitude": 27.472,
      "lastMaintenance": "2025-03-12T15:00:30.864877"
    },
    {
      "id": 10,
      "chiefdom": "Chief Monze",
      "facilityName": "Kaoma Sanitation 10",
      "facilityType": "Waste Treatment",
      "village": "Sinda",
      "populationServed": 5530,
      "capacity": 299,
      "status": "Needs Repair",
      "latitude": -16.2244,
      "longitude": 27.4019,
      "lastMaintenance": "2025-10-18T15:00:30.864884"
    },
    {
      "id": 11,
      "chiefdom": "Chief Monze",
      "facilityName": "Sinazongwe Sanitation 11",
      "facilityType": "Latrine",
      "village": "Chipapa",
      "populationServed": 9993,
      "capacity": 111,
      "status": "Non-Functional",
      "latitude": -16.1863,
      "longitude": 27.4024,
      "lastMaintenance": "2025-03-18T15:00:30.864891"
    },
    {
      "id": 12,
      "chiefdom": "Chief Monze",
      "facilityName": "Munyumba Sanitation 12",
      "facilityType": "Latrine",
      "village": "Kalabo",
      "populationServed": 4926,
      "capacity": 442,
      "status": "Needs Repair",
      "latitude": -16.2271,
      "longitude": 27.5086,
      "lastMaintenance": "2025-03-09T15:00:30.864898"
    },
    {
      "id": 13,
      "chiefdom": "Chief Monze",
      "facilityName": "Mansa Sanitation 13",
      "facilityType": "Waste Treatment",
      "village": "Chisamba",
      "populationServed": 5464,
      "capacity": 120,
      "status": "Needs Repair",
      "latitude": -16.2401,
      "longitude": 27.4729,
      "lastMaintenance": "2025-03-09T15:00:30.864905"
    },
    {
      "id": 14,
      "chiefdom": "Chief Monze",
      "facilityName": "Vubwi Sanitation 14",
      "facilityType": "Latrine",
      "village": "Shimabala",
      "populationServed": 5271,
      "capacity": 484,
      "status": "Functional",
      "latitude": -16.2635,
      "longitude": 27.4097,
      "lastMaintenance": "2025-03-18T15:00:30.864912"
    },
    {
      "id": 15,
      "chiefdom": "Chief Monze",
      "facilityName": "Makeni Sanitation 15",
      "facilityType": "Waste Treatment",
      "village": "Chinsali",
      "populationServed": 9784,
      "capacity": 239,
      "status": "Non-Functional",
      "latitude": -16.3344,
      "longitude": 27.4051,
      "lastMaintenance": "2025-12-11T15:00:30.864919"
    },
    {
      "id": 16,
      "chiefdom": "Chief Monze",
      "facilityName": "Kitwe Sanitation 16",
      "facilityType": "Waste Treatment",
      "village": "Ngwerere",
      "populationServed": 7747,
      "capacity": 216,
      "status": "Functional",
      "latitude": -16.202,
      "longitude": 27.5239,
      "lastMaintenance": "2025-11-12T15:00:30.864926"
    },
    {
      "id": 17,
      "chiefdom": "Chief Monze",
      "facilityName": "Kawambwa Sanitation 17",
      "facilityType": "Septic System",
      "village": "Mpika",
      "populationServed": 582,
      "capacity": 200,
      "status": "Functional",
      "latitude": -16.2176,
      "longitude": 27.454,
      "lastMaintenance": "2026-01-10T15:00:30.864933"
    },
    {
      "id": 18,
      "chiefdom": "Chief Monze",
      "facilityName": "Sinazongwe Sanitation 18",
      "facilityType": "Latrine",
      "village": "Nakatindi",
      "populationServed": 4275,
      "capacity": 172,
      "status": "Functional",
      "latitude": -16.2451,
      "longitude": 27.5532,
      "lastMaintenance": "2025-09-01T15:00:30.864940"
    },
    {
      "id": 19,
      "chiefdom": "Chief Monze",
      "facilityName": "Mwembezhi Sanitation 19",
      "facilityType": "Latrine",
      "village": "Shangombo",
      "populationServed": 4948,
      "capacity": 415,
      "status": "Non-Functional",
      "latitude": -16.1815,
      "longitude": 27.4757,
      "lastMaintenance": "2025-12-22T15:00:30.864948"
    },
    {
      "id": 20,
      "chiefdom": "Chief Monze",
      "facilityName": "Sikanze Sanitation 20",
      "facilityType": "Public Toilet",
      "village": "Chalala",
      "populationServed": 1350,
      "capacity": 144,
      "status": "Functional",
      "latitude": -16.3284,
      "longitude": 27.4045,
      "lastMaintenance": "2025-06-20T15:00:30.864955"
    },
    {
      "id": 21,
      "chiefdom": "Chief Monze",
      "facilityName": "Nyimba Sanitation 21",
      "facilityType": "Waste Treatment",
      "village": "Monze",
      "populationServed": 2178,
      "capacity": 463,
      "status": "Functional",
      "latitude": -16.2346,
      "longitude": 27.4706,
      "lastMaintenance": "2025-06-15T15:00:30.864962"
    },
    {
      "id": 22,
      "chiefdom": "Chief Monze",
      "facilityName": "Shimabala Sanitation 22",
      "facilityType": "Waste Treatment",
      "village": "Mongu",
      "populationServed": 5108,
      "capacity": 69,
      "status": "Functional",
      "latitude": -16.2619,
      "longitude": 27.4159,
      "lastMaintenance": "2025-04-03T15:00:30.864969"
    },
    {
      "id": 23,
      "chiefdom": "Chief Monze",
      "facilityName": "Mpongwe Sanitation 23",
      "facilityType": "Public Toilet",
      "village": "Kasempa",
      "populationServed": 6741,
      "capacity": 88,
      "status": "Needs Repair",
      "latitude": -16.2154,
      "longitude": 27.4977,
      "lastMaintenance": "2025-08-05T15:00:30.864976"
    },
    {
      "id": 24,
      "chiefdom": "Chief Monze",
      "facilityName": "Chalimbana Sanitation 24",
      "facilityType": "Waste Treatment",
      "village": "Mambwe",
      "populationServed": 5702,
      "capacity": 64,
      "status": "Non-Functional",
      "latitude": -16.2972,
      "longitude": 27.4396,
      "lastMaintenance": "2025-06-19T15:00:30.864982"
    },
    {
      "id": 25,
      "chiefdom": "Chief Monze",
      "facilityName": "Mbala Sanitation 25",
      "facilityType": "Waste Treatment",
      "village": "Ndola",
      "populationServed": 1725,
      "capacity": 72,
      "status": "Needs Repair",
      "latitude": -16.2283,
      "longitude": 27.5686,
      "lastMaintenance": "2025-06-05T15:00:30.864989"
    },
    {
      "id": 26,
      "chiefdom": "Chief Monze",
      "facilityName": "Lilayi Sanitation 26",
      "facilityType": "Latrine",
      "village": "Meanwood",
      "populationServed": 2585,
      "capacity": 444,
      "status": "Needs Repair",
      "latitude": -16.2713,
      "longitude": 27.5008,
      "lastMaintenance": "2025-10-15T15:00:30.864996"
    },
    {
      "id": 27,
      "chiefdom": "Chief Monze",
      "facilityName": "Ngwerere Sanitation 27",
      "facilityType": "Public Toilet",
      "village": "Mufulira",
      "populationServed": 2128,
      "capacity": 55,
      "status": "Functional",
      "latitude": -16.2477,
      "longitude": 27.5437,
      "lastMaintenance": "2025-09-20T15:00:30.865003"
    },
    {
      "id": 28,
      "chiefdom": "Chief Monze",
      "facilityName": "Kasempa Sanitation 28",
      "facilityType": "Waste Treatment",
      "village": "Petauke",
      "populationServed": 9279,
      "capacity": 356,
      "status": "Non-Functional",
      "latitude": -16.2366,
      "longitude": 27.4382,
      "lastMaintenance": "2026-01-02T15:00:30.865010"
    },
    {
      "id": 29,
      "chiefdom": "Chief Monze",
      "facilityName": "Pemba Sanitation 29",
      "facilityType": "Waste Treatment",
      "village": "Lunsemfwa",
      "populationServed": 1182,
      "capacity": 246,
      "status": "Needs Repair",
      "latitude": -16.2246,
      "longitude": 27.4528,
      "lastMaintenance": "2025-06-27T15:00:30.865017"
    },
    {
      "id": 30,
      "chiefdom": "Chief Monze",
      "facilityName": "Pemba Sanitation 30",
      "facilityType": "Waste Treatment",
      "village": "Kitwe",
      "populationServed": 3040,
      "capacity": 398,
      "status": "Functional",
      "latitude": -16.3748,
      "longitude": 27.4593,
      "lastMaintenance": "2025-03-05T15:00:30.865024"
    },
    {
      "id": 31,
      "chiefdom": "Chief Monze",
      "facilityName": "Makeni Sanitation 31",
      "facilityType": "Public Toilet",
      "village": "Meanwood",
      "populationServed": 6563,
      "capacity": 128,
      "status": "Needs Repair",
      "latitude": -16.2204,
      "longitude": 27.566,
      "lastMaintenance": "2025-04-08T15:00:30.865031"
    },
    {
      "id": 32,
      "chiefdom": "Chief Monze",
      "facilityName": "Chipata Sanitation 32",
      "facilityType": "Septic System",
      "village": "Mpika",
      "populationServed": 6147,
      "capacity": 419,
      "status": "Needs Repair",
      "latitude": -16.2502,
      "longitude": 27.4931,
      "lastMaintenance": "2025-02-19T15:00:30.865038"
    },
    {
      "id": 33,
      "chiefdom": "Chief Monze",
      "facilityName": "Mumbwa Sanitation 33",
      "facilityType": "Latrine",
      "village": "Kawambwa",
      "populationServed": 2079,
      "capacity": 486,
      "status": "Functional",
      "latitude": -16.1835,
      "longitude": 27.5165,
      "lastMaintenance": "2025-10-26T15:00:30.865044"
    },
    {
      "id": 34,
      "chiefdom": "Chief Monze",
      "facilityName": "Senanga Sanitation 34",
      "facilityType": "Public Toilet",
      "village": "Senanga",
      "populationServed": 9319,
      "capacity": 297,
      "status": "Needs Repair",
      "latitude": -16.3531,
      "longitude": 27.5599,
      "lastMaintenance": "2025-03-08T15:00:30.865052"
    },
    {
      "id": 35,
      "chiefdom": "Chief Monze",
      "facilityName": "Lunsemfwa Sanitation 35",
      "facilityType": "Waste Treatment",
      "village": "Choma",
      "populationServed": 9868,
      "capacity": 114,
      "status": "Needs Repair",
      "latitude": -16.3682,
      "longitude": 27.4318,
      "lastMaintenance": "2025-02-23T15:00:30.865059"
    },
    {
      "id": 36,
      "chiefdom": "Chief Monze",
      "facilityName": "Chainda Sanitation 36",
      "facilityType": "Waste Treatment",
      "village": "Kaoma",
      "populationServed": 4618,
      "capacity": 209,
      "status": "Functional",
      "latitude": -16.3689,
      "longitude": 27.5682,
      "lastMaintenance": "2025-04-19T15:00:30.865066"
    },
    {
      "id": 37,
      "chiefdom": "Chief Monze",
      "facilityName": "Nakatindi Sanitation 37",
      "facilityType": "Latrine",
      "village": "Chinsali",
      "populationServed": 5430,
      "capacity": 321,
      "status": "Functional",
      "latitude": -16.342,
      "longitude": 27.5186,
      "lastMaintenance": "2025-09-25T15:00:30.865073"
    },
    {
      "id": 38,
      "chiefdom": "Chief Monze",
      "facilityName": "Kitwe Sanitation 38",
      "facilityType": "Latrine",
      "village": "Mpongwe",
      "populationServed": 6485,
      "capacity": 451,
      "status": "Functional",
      "latitude": -16.2041,
      "longitude": 27.4419,
      "lastMaintenance": "2025-07-23T15:00:30.865080"
    },
    {
      "id": 39,
      "chiefdom": "Chief Monze",
      "facilityName": "Kitwe Sanitation 39",
      "facilityType": "Latrine",
      "village": "Mongu",
      "populationServed": 1338,
      "capacity": 79,
      "status": "Functional",
      "latitude": -16.3148,
      "longitude": 27.4453,
      "lastMaintenance": "2025-11-25T15:00:30.865087"
    },
    {
      "id": 40,
      "chiefdom": "Chief Monze",
      "facilityName": "Meanwood Sanitation 40",
      "facilityType": "Latrine",
      "village": "Sesheke",
      "populationServed": 7269,
      "capacity": 328,
      "status": "Needs Repair",
      "latitude": -16.3093,
      "longitude": 27.482,
      "lastMaintenance": "2025-11-12T15:00:30.865094"
    },
    {
      "id": 41,
      "chiefdom": "Chief Monze",
      "facilityName": "Monze Sanitation 41",
      "facilityType": "Septic System",
      "village": "Ndola",
      "populationServed": 9209,
      "capacity": 134,
      "status": "Needs Repair",
      "latitude": -16.3122,
      "longitude": 27.5473,
      "lastMaintenance": "2025-11-26T15:00:30.865101"
    },
    {
      "id": 42,
      "chiefdom": "Chief Monze",
      "facilityName": "Mumbwa Sanitation 42",
      "facilityType": "Public Toilet",
      "village": "Mufumbwe",
      "populationServed": 5194,
      "capacity": 217,
      "status": "Functional",
      "latitude": -16.2853,
      "longitude": 27.4093,
      "lastMaintenance": "2025-09-17T15:00:30.865107"
    },
    {
      "id": 43,
      "chiefdom": "Chief Monze",
      "facilityName": "Lundazi Sanitation 43",
      "facilityType": "Waste Treatment",
      "village": "Mufulira",
      "populationServed": 8950,
      "capacity": 209,
      "status": "Non-Functional",
      "latitude": -16.2669,
      "longitude": 27.4982,
      "lastMaintenance": "2025-09-26T15:00:30.865114"
    },
    {
      "id": 44,
      "chiefdom": "Chief Monze",
      "facilityName": "Chilanga Sanitation 44",
      "facilityType": "Latrine",
      "village": "Kabwe",
      "populationServed": 9003,
      "capacity": 103,
      "status": "Non-Functional",
      "latitude": -16.3719,
      "longitude": 27.4463,
      "lastMaintenance": "2025-03-26T15:00:30.865121"
    },
    {
      "id": 45,
      "chiefdom": "Chief Monze",
      "facilityName": "Kaunga Sanitation 45",
      "facilityType": "Latrine",
      "village": "Isoka",
      "populationServed": 8876,
      "capacity": 120,
      "status": "Functional",
      "latitude": -16.2564,
      "longitude": 27.461,
      "lastMaintenance": "2025-07-09T15:00:30.865128"
    },
    {
      "id": 46,
      "chiefdom": "Chief Monze",
      "facilityName": "Mbabala Sanitation 46",
      "facilityType": "Public Toilet",
      "village": "Kitwe",
      "populationServed": 1548,
      "capacity": 149,
      "status": "Needs Repair",
      "latitude": -16.2168,
      "longitude": 27.4115,
      "lastMaintenance": "2025-11-06T15:00:30.865134"
    },
    {
      "id": 47,
      "chiefdom": "Chief Monze",
      "facilityName": "Kalingalinga Sanitation 47",
      "facilityType": "Public Toilet",
      "village": "Kalomo",
      "populationServed": 2291,
      "capacity": 79,
      "status": "Non-Functional",
      "latitude": -16.2682,
      "longitude": 27.4676,
      "lastMaintenance": "2025-11-05T15:00:30.865141"
    },
    {
      "id": 48,
      "chiefdom": "Chief Monze",
      "facilityName": "Mkushi Sanitation 48",
      "facilityType": "Latrine",
      "village": "Shimabala",
      "populationServed": 510,
      "capacity": 114,
      "status": "Needs Repair",
      "latitude": -16.2088,
      "longitude": 27.4924,
      "lastMaintenance": "2025-09-03T15:00:30.865148"
    },
    {
      "id": 49,
      "chiefdom": "Chief Monze",
      "facilityName": "Shangombo Sanitation 49",
      "facilityType": "Public Toilet",
      "village": "Lunsemfwa",
      "populationServed": 4894,
      "capacity": 355,
      "status": "Functional",
      "latitude": -16.3694,
      "longitude": 27.5575,
      "lastMaintenance": "2025-10-06T15:00:30.865155"
    },
    {
      "id": 50,
      "chiefdom": "Chief Monze",
      "facilityName": "Serenje Sanitation 50",
      "facilityType": "Waste Treatment",
      "village": "Lundazi",
      "populationServed": 1327,
      "capacity": 451,
      "status": "Non-Functional",
      "latitude": -16.2095,
      "longitude": 27.4088,
      "lastMaintenance": "2025-07-19T15:00:30.865162"
    }
  ],
  "waterAccessAreas": [
    {
      "id": 1,
      "chiefdom": "Chief Monze",
      "areaName": "Kalomo Access 1",
      "population": 7635,
      "householdsWithAccess": 322,
      "accessRate": 91.0,
      "averageDistance": 4.3,
      "waterQuality": "Poor",
      "latitude": -16.2392,
      "longitude": 27.432
    },
    {
      "id": 2,
      "chiefdom": "Chief Monze",
      "areaName": "Kalulushi Access 2",
      "population": 9291,
      "householdsWithAccess": 318,
      "accessRate": 87.8,
      "averageDistance": 7.3,
      "waterQuality": "Fair",
      "latitude": -16.2432,
      "longitude": 27.4661
    },
    {
      "id": 3,
      "chiefdom": "Chief Monze",
      "areaName": "Chalala Access 3",
      "population": 5005,
      "householdsWithAccess": 1285,
      "accessRate": 85.7,
      "averageDistance": 3.4,
      "waterQuality": "Excellent",
      "latitude": -16.2116,
      "longitude": 27.4562
    },
    {
      "id": 4,
      "chiefdom": "Chief Monze",
      "areaName": "Kafue Riverside Access 4",
      "population": 1157,
      "householdsWithAccess": 1054,
      "accessRate": 93.7,
      "averageDistance": 6.3,
      "waterQuality": "Poor",
      "latitude": -16.1931,
      "longitude": 27.4575
    },
    {
      "id": 5,
      "chiefdom": "Chief Monze",
      "areaName": "Makeni Access 5",
      "population": 9749,
      "householdsWithAccess": 1373,
      "accessRate": 88.5,
      "averageDistance": 1.7,
      "waterQuality": "Fair",
      "latitude": -16.3213,
      "longitude": 27.4431
    },
    {
      "id": 6,
      "chiefdom": "Chief Monze",
      "areaName": "Munyumba Access 6",
      "population": 6188,
      "householdsWithAccess": 1239,
      "accessRate": 51.4,
      "averageDistance": 4.1,
      "waterQuality": "Excellent",
      "latitude": -16.3486,
      "longitude": 27.4558
    },
    {
      "id": 7,
      "chiefdom": "Chief Monze",
      "areaName": "Lukulu Access 7",
      "population": 1826,
      "householdsWithAccess": 545,
      "accessRate": 82.9,
      "averageDistance": 0.6,
      "waterQuality": "Excellent",
      "latitude": -16.3231,
      "longitude": 27.4809
    },
    {
      "id": 8,
      "chiefdom": "Chief Monze",
      "areaName": "Siavonga Access 8",
      "population": 6759,
      "householdsWithAccess": 1637,
      "accessRate": 69.5,
      "averageDistance": 5.4,
      "waterQuality": "Poor",
      "latitude": -16.3186,
      "longitude": 27.5176
    },
    {
      "id": 9,
      "chiefdom": "Chief Monze",
      "areaName": "Kaputa Access 9",
      "population": 5874,
      "householdsWithAccess": 585,
      "accessRate": 79.1,
      "averageDistance": 1.0,
      "waterQuality": "Good",
      "latitude": -16.2403,
      "longitude": 27.4252
    },
    {
      "id": 10,
      "chiefdom": "Chief Monze",
      "areaName": "Serenje Access 10",
      "population": 11548,
      "householdsWithAccess": 1276,
      "accessRate": 79.6,
      "averageDistance": 4.0,
      "waterQuality": "Excellent",
      "latitude": -16.2175,
      "longitude": 27.459
    },
    {
      "id": 11,
      "chiefdom": "Chief Monze",
      "areaName": "Senanga Access 11",
      "population": 10833,
      "householdsWithAccess": 1475,
      "accessRate": 48.8,
      "averageDistance": 3.8,
      "waterQuality": "Fair",
      "latitude": -16.3699,
      "longitude": 27.5706
    },
    {
      "id": 12,
      "chiefdom": "Chief Monze",
      "areaName": "Chinsali Access 12",
      "population": 4580,
      "householdsWithAccess": 1144,
      "accessRate": 88.7,
      "averageDistance": 3.3,
      "waterQuality": "Fair",
      "latitude": -16.2196,
      "longitude": 27.5436
    },
    {
      "id": 13,
      "chiefdom": "Chief Monze",
      "areaName": "Chongwe Central Access 13",
      "population": 11563,
      "householdsWithAccess": 952,
      "accessRate": 69.0,
      "averageDistance": 6.9,
      "waterQuality": "Good",
      "latitude": -16.3576,
      "longitude": 27.4668
    },
    {
      "id": 14,
      "chiefdom": "Chief Monze",
      "areaName": "Mkushi Access 14",
      "population": 2602,
      "householdsWithAccess": 688,
      "accessRate": 76.2,
      "averageDistance": 6.2,
      "waterQuality": "Poor",
      "latitude": -16.3745,
      "longitude": 27.5303
    },
    {
      "id": 15,
      "chiefdom": "Chief Monze",
      "areaName": "Choma Access 15",
      "population": 4194,
      "householdsWithAccess": 1139,
      "accessRate": 57.0,
      "averageDistance": 4.4,
      "waterQuality": "Poor",
      "latitude": -16.3587,
      "longitude": 27.425
    },
    {
      "id": 16,
      "chiefdom": "Chief Monze",
      "areaName": "Ndola Access 16",
      "population": 4565,
      "householdsWithAccess": 411,
      "accessRate": 60.3,
      "averageDistance": 6.1,
      "waterQuality": "Good",
      "latitude": -16.2109,
      "longitude": 27.4724
    },
    {
      "id": 17,
      "chiefdom": "Chief Monze",
      "areaName": "Luwingu Access 17",
      "population": 3270,
      "householdsWithAccess": 1595,
      "accessRate": 50.3,
      "averageDistance": 0.6,
      "waterQuality": "Good",
      "latitude": -16.2312,
      "longitude": 27.5642
    },
    {
      "id": 18,
      "chiefdom": "Chief Monze",
      "areaName": "Gwembe Access 18",
      "population": 1308,
      "householdsWithAccess": 1461,
      "accessRate": 66.7,
      "averageDistance": 7.7,
      "waterQuality": "Excellent",
      "latitude": -16.2297,
      "longitude": 27.5413
    },
    {
      "id": 19,
      "chiefdom": "Chief Monze",
      "areaName": "Monze Access 19",
      "population": 5661,
      "householdsWithAccess": 1349,
      "accessRate": 59.3,
      "averageDistance": 7.5,
      "waterQuality": "Excellent",
      "latitude": -16.2304,
      "longitude": 27.4417
    },
    {
      "id": 20,
      "chiefdom": "Chief Monze",
      "areaName": "Nyimba Access 20",
      "population": 3102,
      "householdsWithAccess": 1882,
      "accessRate": 93.8,
      "averageDistance": 1.2,
      "waterQuality": "Excellent",
      "latitude": -16.2952,
      "longitude": 27.5697
    },
    {
      "id": 21,
      "chiefdom": "Chief Monze",
      "areaName": "Sinda Access 21",
      "population": 10355,
      "householdsWithAccess": 1292,
      "accessRate": 51.0,
      "averageDistance": 5.6,
      "waterQuality": "Excellent",
      "latitude": -16.2131,
      "longitude": 27.3863
    },
    {
      "id": 22,
      "chiefdom": "Chief Monze",
      "areaName": "Palabana Access 22",
      "population": 7258,
      "householdsWithAccess": 1576,
      "accessRate": 90.0,
      "averageDistance": 5.2,
      "waterQuality": "Fair",
      "latitude": -16.2417,
      "longitude": 27.4819
    },
    {
      "id": 23,
      "chiefdom": "Chief Monze",
      "areaName": "Kitwe Access 23",
      "population": 11287,
      "householdsWithAccess": 1640,
      "accessRate": 85.5,
      "averageDistance": 1.4,
      "waterQuality": "Excellent",
      "latitude": -16.2414,
      "longitude": 27.5087
    },
    {
      "id": 24,
      "chiefdom": "Chief Monze",
      "areaName": "Chadiza Access 24",
      "population": 5050,
      "householdsWithAccess": 1288,
      "accessRate": 94.2,
      "averageDistance": 4.6,
      "waterQuality": "Good",
      "latitude": -16.3749,
      "longitude": 27.5271
    },
    {
      "id": 25,
      "chiefdom": "Chief Monze",
      "areaName": "Livingstone Access 25",
      "population": 1463,
      "householdsWithAccess": 1244,
      "accessRate": 42.5,
      "averageDistance": 4.4,
      "waterQuality": "Fair",
      "latitude": -16.3295,
      "longitude": 27.5519
    },
    {
      "id": 26,
      "chiefdom": "Chief Monze",
      "areaName": "Chipapa Access 26",
      "population": 1599,
      "householdsWithAccess": 815,
      "accessRate": 61.9,
      "averageDistance": 5.0,
      "waterQuality": "Fair",
      "latitude": -16.2978,
      "longitude": 27.3828
    },
    {
      "id": 27,
      "chiefdom": "Chief Monze",
      "areaName": "Kabwe Access 27",
      "population": 2548,
      "householdsWithAccess": 851,
      "accessRate": 69.3,
      "averageDistance": 4.7,
      "waterQuality": "Fair",
      "latitude": -16.3541,
      "longitude": 27.5772
    },
    {
      "id": 28,
      "chiefdom": "Chief Monze",
      "areaName": "Munyumba Access 28",
      "population": 11925,
      "householdsWithAccess": 1284,
      "accessRate": 42.5,
      "averageDistance": 7.8,
      "waterQuality": "Excellent",
      "latitude": -16.3397,
      "longitude": 27.4642
    },
    {
      "id": 29,
      "chiefdom": "Chief Monze",
      "areaName": "Munyumba Access 29",
      "population": 8671,
      "householdsWithAccess": 657,
      "accessRate": 66.2,
      "averageDistance": 4.9,
      "waterQuality": "Fair",
      "latitude": -16.2818,
      "longitude": 27.5401
    },
    {
      "id": 30,
      "chiefdom": "Chief Monze",
      "areaName": "Kalulushi Access 30",
      "population": 11650,
      "householdsWithAccess": 1082,
      "accessRate": 60.0,
      "averageDistance": 7.1,
      "waterQuality": "Excellent",
      "latitude": -16.3628,
      "longitude": 27.5164
    },
    {
      "id": 31,
      "chiefdom": "Chief Monze",
      "areaName": "Samfya Access 31",
      "population": 8118,
      "householdsWithAccess": 599,
      "accessRate": 76.7,
      "averageDistance": 6.2,
      "waterQuality": "Good",
      "latitude": -16.2851,
      "longitude": 27.478
    },
    {
      "id": 32,
      "chiefdom": "Chief Monze",
      "areaName": "Chibombo Access 32",
      "population": 6383,
      "householdsWithAccess": 1595,
      "accessRate": 64.3,
      "averageDistance": 3.0,
      "waterQuality": "Poor",
      "latitude": -16.205,
      "longitude": 27.483
    },
    {
      "id": 33,
      "chiefdom": "Chief Monze",
      "areaName": "Chalimbana Access 33",
      "population": 3934,
      "householdsWithAccess": 1459,
      "accessRate": 49.7,
      "averageDistance": 2.2,
      "waterQuality": "Excellent",
      "latitude": -16.2163,
      "longitude": 27.5433
    },
    {
      "id": 34,
      "chiefdom": "Chief Monze",
      "areaName": "Mazabuka Access 34",
      "population": 11174,
      "householdsWithAccess": 1123,
      "accessRate": 70.7,
      "averageDistance": 4.0,
      "waterQuality": "Fair",
      "latitude": -16.3613,
      "longitude": 27.5043
    },
    {
      "id": 35,
      "chiefdom": "Chief Monze",
      "areaName": "Isoka Access 35",
      "population": 7554,
      "householdsWithAccess": 1624,
      "accessRate": 43.6,
      "averageDistance": 6.4,
      "waterQuality": "Excellent",
      "latitude": -16.3416,
      "longitude": 27.3847
    },
    {
      "id": 36,
      "chiefdom": "Chief Monze",
      "areaName": "Luanshya Access 36",
      "population": 10273,
      "householdsWithAccess": 1499,
      "accessRate": 89.3,
      "averageDistance": 6.1,
      "waterQuality": "Poor",
      "latitude": -16.2891,
      "longitude": 27.5109
    },
    {
      "id": 37,
      "chiefdom": "Chief Monze",
      "areaName": "Sinazongwe Access 37",
      "population": 10463,
      "householdsWithAccess": 1438,
      "accessRate": 48.8,
      "averageDistance": 7.0,
      "waterQuality": "Excellent",
      "latitude": -16.3341,
      "longitude": 27.4258
    },
    {
      "id": 38,
      "chiefdom": "Chief Monze",
      "areaName": "Luwingu Access 38",
      "population": 1695,
      "householdsWithAccess": 671,
      "accessRate": 55.1,
      "averageDistance": 1.6,
      "waterQuality": "Poor",
      "latitude": -16.2442,
      "longitude": 27.5204
    },
    {
      "id": 39,
      "chiefdom": "Chief Monze",
      "areaName": "Kitwe Access 39",
      "population": 4564,
      "householdsWithAccess": 842,
      "accessRate": 91.6,
      "averageDistance": 6.9,
      "waterQuality": "Good",
      "latitude": -16.3101,
      "longitude": 27.4826
    },
    {
      "id": 40,
      "chiefdom": "Chief Monze",
      "areaName": "Mpongwe Access 40",
      "population": 9754,
      "householdsWithAccess": 1047,
      "accessRate": 67.0,
      "averageDistance": 6.3,
      "waterQuality": "Poor",
      "latitude": -16.3041,
      "longitude": 27.5295
    },
    {
      "id": 41,
      "chiefdom": "Chief Monze",
      "areaName": "Sikanze Access 41",
      "population": 10512,
      "householdsWithAccess": 449,
      "accessRate": 87.0,
      "averageDistance": 5.7,
      "waterQuality": "Excellent",
      "latitude": -16.2756,
      "longitude": 27.4306
    },
    {
      "id": 42,
      "chiefdom": "Chief Monze",
      "areaName": "Kasama Access 42",
      "population": 4352,
      "householdsWithAccess": 706,
      "accessRate": 74.6,
      "averageDistance": 1.7,
      "waterQuality": "Good",
      "latitude": -16.2031,
      "longitude": 27.5074
    },
    {
      "id": 43,
      "chiefdom": "Chief Monze",
      "areaName": "Mpanshya Access 43",
      "population": 3718,
      "householdsWithAccess": 506,
      "accessRate": 65.1,
      "averageDistance": 3.4,
      "waterQuality": "Poor",
      "latitude": -16.3305,
      "longitude": 27.4192
    },
    {
      "id": 44,
      "chiefdom": "Chief Monze",
      "areaName": "Mpanshya Access 44",
      "population": 4523,
      "householdsWithAccess": 1327,
      "accessRate": 40.1,
      "averageDistance": 7.8,
      "waterQuality": "Excellent",
      "latitude": -16.3628,
      "longitude": 27.4489
    },
    {
      "id": 45,
      "chiefdom": "Chief Monze",
      "areaName": "Pemba Access 45",
      "population": 10548,
      "householdsWithAccess": 1951,
      "accessRate": 53.6,
      "averageDistance": 6.2,
      "waterQuality": "Excellent",
      "latitude": -16.2134,
      "longitude": 27.3866
    },
    {
      "id": 46,
      "chiefdom": "Chief Monze",
      "areaName": "Isoka Access 46",
      "population": 10578,
      "householdsWithAccess": 1044,
      "accessRate": 87.4,
      "averageDistance": 6.6,
      "waterQuality": "Good",
      "latitude": -16.1969,
      "longitude": 27.4192
    },
    {
      "id": 47,
      "chiefdom": "Chief Monze",
      "areaName": "Mporokoso Access 47",
      "population": 9457,
      "householdsWithAccess": 1232,
      "accessRate": 91.1,
      "averageDistance": 1.8,
      "waterQuality": "Good",
      "latitude": -16.2897,
      "longitude": 27.5789
    },
    {
      "id": 48,
      "chiefdom": "Chief Monze",
      "areaName": "Luwingu Access 48",
      "population": 7235,
      "householdsWithAccess": 1736,
      "accessRate": 55.9,
      "averageDistance": 2.9,
      "waterQuality": "Poor",
      "latitude": -16.377,
      "longitude": 27.385
    },
    {
      "id": 49,
      "chiefdom": "Chief Monze",
      "areaName": "Kitwe Access 49",
      "population": 2698,
      "householdsWithAccess": 1139,
      "accessRate": 91.7,
      "averageDistance": 4.1,
      "waterQuality": "Good",
      "latitude": -16.3328,
      "longitude": 27.4651
    },
    {
      "id": 50,
      "chiefdom": "Chief Monze",
      "areaName": "Kanakantapa Access 50",
      "population": 4565,
      "householdsWithAccess": 1031,
      "accessRate": 81.2,
      "averageDistance": 3.7,
      "waterQuality": "Fair",
      "latitude": -16.3723,
      "longitude": 27.4723
    }
  ]
}