{
  "roads": [
    {
      "id": 1,
      "chiefdom": "Chief Sailunga",
      "roadName": "Kafue Riverside - Kawambwa Road",
      "roadType": "Tarred",
      "lengthKm": 49.9,
      "condition": "Critical",
      "trafficVolume": "Low",
      "lastMaintenance": "2025-07-02T15:00:30.835789",
      "connectedVillages": [
        "Zambezi",
        "Mufulira",
        "Mbabala"
      ],
      "latitude": -11.8291,
      "longitude": 24.4257
    },
    {
      "id": 2,
      "chiefdom": "Chief Sailunga",
      "roadName": "Serenje - Lunsemfwa Road",
      "roadType": "Tarred",
      "lengthKm": 36.0,
      "condition": "Critical",
      "trafficVolume": "Low",
      "lastMaintenance": "2025-08-08T15:00:30.835806",
      "connectedVillages": [
        "Senanga",
        "Pemba"
      ],
      "latitude": -11.8168,
      "longitude": 24.4596
    },
    {
      "id": 3,
      "chiefdom": "Chief Sailunga",
      "roadName": "Nyimba - Kalomo Road",
      "roadType": "Earth",
      "lengthKm": 27.8,
      "condition": "Good",
      "trafficVolume": "Medium",
      "lastMaintenance": "2025-01-06T15:00:30.835815",
      "connectedVillages": [
        "Kalomo",
        "Chipapa",
        "Chalala",
        "Mbabala"
      ],
      "latitude": -11.6801,
      "longitude": 24.4308
    },
    {
      "id": 4,
      "chiefdom": "Chief Sailunga",
      "roadName": "Mansa - Kaputa Road",
      "roadType": "Gravel",
      "lengthKm": 14.2,
      "condition": "Critical",
      "trafficVolume": "Medium",
      "lastMaintenance": "2025-10-16T15:00:30.835824",
      "connectedVillages": [
        "Shangombo",
        "Lilayi",
        "Kawambwa"
      ],
      "latitude": -11.8022,
      "longitude": 24.3959
    },
    {
      "id": 5,
      "chiefdom": "Chief Sailunga",
      "roadName": "Kalingalinga - Chipapa Road",
      "roadType": "Tarred",
      "lengthKm": 11.1,
      "condition": "Good",
      "trafficVolume": "Medium",
      "lastMaintenance": "2025-11-13T15:00:30.835833",
      "connectedVillages": [
        "Meanwood",
        "Mpika",
        "Nchelenge",
        "Kabwe",
        "Mufulira"
      ],
      "latitude": -11.8159,
      "longitude": 24.5162
    },
    {
      "id": 6,
      "chiefdom": "Chief Sailunga",
      "roadName": "Katete - Luangwa Road",
      "roadType": "Earth",
      "lengthKm": 22.0,
      "condition": "Poor",
      "trafficVolume": "High",
      "lastMaintenance": "2025-09-15T15:00:30.835843",
      "connectedVillages": [
        "Livingstone",
        "Chililabombwe",
        "Chisamba",
        "Ngwerere"
      ],
      "latitude": -11.6607,
      "longitude": 24.509
    },
    {
      "id": 7,
      "chiefdom": "Chief Sailunga",
      "roadName": "Luanshya - Senanga Road",
      "roadType": "Paved",
      "lengthKm": 6.9,
      "condition": "Good",
      "trafficVolume": "High",
      "lastMaintenance": "2025-01-08T15:00:30.835852",
      "connectedVillages": [
        "Nchelenge",
        "Chingola"
      ],
      "latitude": -11.7405,
      "longitude": 24.4189
    },
    {
      "id": 8,
      "chiefdom": "Chief Sailunga",
      "roadName": "Lilayi - Luanshya Road",
      "roadType": "Tarred",
      "lengthKm": 46.0,
      "condition": "Fair",
      "trafficVolume": "Medium",
      "lastMaintenance": "2024-01-30T15:00:30.835861",
      "connectedVillages": [
        "Pemba",
        "Mwinilunga",
        "Mongu"
      ],
      "latitude": -11.8388,
      "longitude": 24.3638
    },
    {
      "id": 9,
      "chiefdom": "Chief Sailunga",
      "roadName": "Kalulushi - Chilanga Road",
      "roadType": "Earth",
      "lengthKm": 41.9,
      "condition": "Poor",
      "trafficVolume": "High",
      "lastMaintenance": "2025-08-12T15:00:30.835870",
      "connectedVillages": [
        "Isoka",
        "Lunsemfwa",
        "Sinazongwe"
      ],
      "latitude": -11.6991,
      "longitude": 24.4189
    },
    {
      "id": 10,
      "chiefdom": "Chief Sailunga",
      "roadName": "Mporokoso - Chongwe Central Road",
      "roadType": "Tarred",
      "lengthKm": 19.4,
      "condition": "Poor",
      "trafficVolume": "Low",
      "lastMaintenance": "2024-10-27T15:00:30.835878",
      "connectedVillages": [
        "Kalingalinga",
        "Chinsali",
        "Serenje",
        "Petauke",
        "Mwembezhi"
      ],
      "latitude": -11.8374,
      "longitude": 24.3514
    },
    {
      "id": 11,
      "chiefdom": "Chief Sailunga",
      "roadName": "Monze - Nchelenge Road",
      "roadType": "Gravel",
      "lengthKm": 15.2,
      "condition": "Good",
      "trafficVolume": "Medium",
      "lastMaintenance": "2025-11-21T15:00:30.835888",
      "connectedVillages": [
        "Kapiri",
        "Chadiza",
        "Gwembe"
      ],
      "latitude": -11.8006,
      "longitude": 24.4591
    },
    {
      "id": 12,
      "chiefdom": "Chief Sailunga",
      "roadName": "Sinda - Kalabo Road",
      "roadType": "Paved",
      "lengthKm": 21.9,
      "condition": "Critical",
      "trafficVolume": "High",
      "lastMaintenance": "2025-01-19T15:00:30.835897",
      "connectedVillages": [
        "Mpongwe",
        "Monze",
        "Chibombo"
      ],
      "latitude": -11.6413,
      "longitude": 24.4119
    },
    {
      "id": 13,
      "chiefdom": "Chief Sailunga",
      "roadName": "Senanga - Kanakantapa Road",
      "roadType": "Paved",
      "lengthKm": 23.1,
      "condition": "Good",
      "trafficVolume": "High",
      "lastMaintenance": "2026-01-19T15:00:30.835905",
      "connectedVillages": [
        "Kawambwa",
        "Mwinilunga",
        "Palabana"
      ],
      "latitude": -11.823,
      "longitude": 24.4292
    },
    {
      "id": 14,
      "chiefdom": "Chief Sailunga",
      "roadName": "Gwembe - Luangwa Road",
      "roadType": "Paved",
      "lengthKm": 5.8,
      "condition": "Poor",
      "trafficVolume": "High",
      "lastMaintenance": "2025-09-11T15:00:30.835913",
      "connectedVillages": [
        "Mwembezhi",
        "Kabwe"
      ],
      "latitude": -11.7114,
      "longitude": 24.3307
    },
    {
      "id": 15,
      "chiefdom": "Chief Sailunga",
      "roadName": "Solwezi - Mambwe Road",
      "roadType": "Tarred",
      "lengthKm": 24.4,
      "condition": "Fair",
      "trafficVolume": "Low",
      "lastMaintenance": "2024-11-26T15:00:30.835922",
      "connectedVillages": [
        "Chalala",
        "Vubwi",
        "Nakatindi",
        "Mumbwa"
      ],
      "latitude": -11.6615,
      "longitude": 24.478
    },
    {
      "id": 16,
      "chiefdom": "Chief Sailunga",
      "roadName": "Nakonde - Sinda Road",
      "roadType": "Gravel",
      "lengthKm": 39.8,
      "condition": "Good",
      "trafficVolume": "Medium",
      "lastMaintenance": "2025-04-20T15:00:30.835931",
      "connectedVillages": [
        "Mambwe",
        "Gwembe",
        "Nyimba",
        "Chongwe Central",
        "Zambezi"
      ],
      "latitude": -11.7139,
      "longitude": 24.4978
    },
    {
      "id": 17,
      "chiefdom": "Chief Sailunga",
      "roadName": "Lunsemfwa - Ndola Road",
      "roadType": "Earth",
      "lengthKm": 17.3,
      "condition": "Poor",
      "trafficVolume": "High",
      "lastMaintenance": "2025-03-19T15:00:30.835940",
      "connectedVillages": [
        "Kawambwa",
        "Shangombo"
      ],
      "latitude": -11.739,
      "longitude": 24.5017
    },
    {
      "id": 18,
      "chiefdom": "Chief Sailunga",
      "roadName": "Leopards Hill - Monze Road",
      "roadType": "Gravel",
      "lengthKm": 35.8,
      "condition": "Critical",
      "trafficVolume": "Medium",
      "lastMaintenance": "2025-02-10T15:00:30.835948",
      "connectedVillages": [
        "Shangombo",
        "Kaputa"
      ],
      "latitude": -11.8208,
      "longitude": 24.3953
    },
    {
      "id": 19,
      "chiefdom": "Chief Sailunga",
      "roadName": "Isoka - Samfya Road",
      "roadType": "Tarred",
      "lengthKm": 44.2,
      "condition": "Fair",
      "trafficVolume": "Low",
      "lastMaintenance": "2025-10-14T15:00:30.835957",
      "connectedVillages": [
        "Lilayi",
        "Chalala",
        "Isoka",
        "Chilanga"
      ],
      "latitude": -11.7225,
      "longitude": 24.3701
    },
    {
      "id": 20,
      "chiefdom": "Chief Sailunga",
      "roadName": "Chalala - Mporokoso Road",
      "roadType": "Gravel",
      "lengthKm": 19.9,
      "condition": "Good",
      "trafficVolume": "High",
      "lastMaintenance": "2024-12-13T15:00:30.835966",
      "connectedVillages": [
        "Chama",
        "Shangombo",
        "Chongwe Central",
        "Mufumbwe"
      ],
      "latitude": -11.7601,
      "longitude": 24.3546
    },
    {
      "id": 21,
      "chiefdom": "Chief Sailunga",
      "roadName": "Mpika - Ngwerere Road",
      "roadType": "Paved",
      "lengthKm": 25.5,
      "condition": "Fair",
      "trafficVolume": "High",
      "lastMaintenance": "2026-01-16T15:00:30.835974",
      "connectedVillages": [
        "Luangwa",
        "Kalomo",
        "Mporokoso",
        "Katoba",
        "Solwezi"
      ],
      "latitude": -11.7086,
      "longitude": 24.512
    },
    {
      "id": 22,
      "chiefdom": "Chief Sailunga",
      "roadName": "Meanwood - Kasempa Road",
      "roadType": "Gravel",
      "lengthKm": 40.4,
      "condition": "Critical",
      "trafficVolume": "High",
      "lastMaintenance": "2024-06-24T15:00:30.835984",
      "connectedVillages": [
        "Katete",
        "Luangwa",
        "Meanwood",
        "Sikanze"
      ],
      "latitude": -11.6708,
      "longitude": 24.5236
    },
    {
      "id": 23,
      "chiefdom": "Chief Sailunga",
      "roadName": "Lundazi - Kalulushi Road",
      "roadType": "Earth",
      "lengthKm": 12.0,
      "condition": "Fair",
      "trafficVolume": "High",
      "lastMaintenance": "2026-01-02T15:00:30.835992",
      "connectedVillages": [
        "Chadiza",
        "Lundazi",
        "Kaputa",
        "Munyumba"
      ],
      "latitude": -11.6627,
      "longitude": 24.5268
    },
    {
      "id": 24,
      "chiefdom": "Chief Sailunga",
      "roadName": "Chisamba - Nyimba Road",
      "roadType": "Earth",
      "lengthKm": 27.8,
      "condition": "Critical",
      "trafficVolume": "Medium",
      "lastMaintenance": "2025-07-22T15:00:30.836001",
      "connectedVillages": [
        "Mazabuka",
        "Shangombo",
        "Serenje",
        "Kasempa"
      ],
      "latitude": -11.7652,
      "longitude": 24.3516
    },
    {
      "id": 25,
      "chiefdom": "Chief Sailunga",
      "roadName": "Kalomo - Kanakantapa Road",
      "roadType": "Gravel",
      "lengthKm": 27.6,
      "condition": "Good",
      "trafficVolume": "Low",
      "lastMaintenance": "2024-08-22T15:00:30.836010",
      "connectedVillages": [
        "Mansa",
        "Mpika"
      ],
      "latitude": -11.6611,
      "longitude": 24.4955
    },
    {
      "id": 26,
      "chiefdom": "Chief Sailunga",
      "roadName": "Sesheke - Chililabombwe Road",
      "roadType": "Paved",
      "lengthKm": 9.4,
      "condition": "Fair",
      "trafficVolume": "Low",
      "lastMaintenance": "2024-12-03T15:00:30.836019",
      "connectedVillages": [
        "Chingola",
        "Lilayi",
        "Mansa",
        "Ngwerere",
        "Chadiza"
      ],
      "latitude": -11.8086,
      "longitude": 24.3303
    },
    {
      "id": 27,
      "chiefdom": "Chief Sailunga",
      "roadName": "Mporokoso - Livingstone Road",
      "roadType": "Tarred",
      "lengthKm": 8.9,
      "condition": "Poor",
      "trafficVolume": "Low",
      "lastMaintenance": "2025-04-11T15:00:30.836028",
      "connectedVillages": [
        "Luwingu",
        "Mazabuka",
        "Choma",
        "Vubwi"
      ],
      "latitude": -11.6744,
      "longitude": 24.386
    },
    {
      "id": 28,
      "chiefdom": "Chief Sailunga",
      "roadName": "Chilanga - Luwingu Road",
      "roadType": "Gravel",
      "lengthKm": 5.7,
      "condition": "Critical",
      "trafficVolume": "High",
      "lastMaintenance": "2026-01-16T15:00:30.836037",
      "connectedVillages": [
        "Kapiri",
        "Palabana"
      ],
      "latitude": -11.666,
      "longitude": 24.4241
    },
    {
      "id": 29,
      "chiefdom": "Chief Sailunga",
      "roadName": "Munyumba - Nchelenge Road",
      "roadType": "Gravel",
      "lengthKm": 34.5,
      "condition": "Good",
      "trafficVolume": "Low",
      "lastMaintenance": "2025-11-10T15:00:30.836046",
      "connectedVillages": [
        "Gwembe",
        "Mpika",
        "Kasempa",
        "Mwinilunga",
        "Katoba"
      ],
      "latitude": -11.6595,
      "longitude": 24.3746
    },
    {
      "id": 30,
      "chiefdom": "Chief Sailunga",
      "roadName": "Katete - Lunsemfwa Road",
      "roadType": "Earth",
      "lengthKm": 47.2,
      "condition": "Good",
      "trafficVolume": "Low",
      "lastMaintenance": "2024-11-09T15:00:30.836055",
      "connectedVillages": [
        "Nyimba",
        "Meanwood",
        "Lunsemfwa",
        "Kafue Riverside"
      ],
      "latitude": -11.7364,
      "longitude": 24.427
    },
    {
      "id": 31,
      "chiefdom": "Chief Sailunga",
      "roadName": "Mpanshya - Serenje Road",
      "roadType": "Gravel",
      "lengthKm": 15.8,
      "condition": "Good",
      "trafficVolume": "High",
      "lastMaintenance": "2024-06-29T15:00:30.836064",
      "connectedVillages": [
        "Kabwe",
        "Isoka",
        "Mbala",
        "Chisamba",
        "Sinda"
      ],
      "latitude": -11.6544,
      "longitude": 24.3703
    },
    {
      "id": 32,
      "chiefdom": "Chief Sailunga",
      "roadName": "Livingstone - Nakatindi Road",
      "roadType": "Paved",
      "lengthKm": 21.2,
      "condition": "Poor",
      "trafficVolume": "Medium",
      "lastMaintenance": "2024-09-02T15:00:30.836073",
      "connectedVillages": [
        "Chingola",
        "Mpanshya",
        "Mongu"
      ],
      "latitude": -11.7426,
      "longitude": 24.4179
    },
    {
      "id": 33,
      "chiefdom": "Chief Sailunga",
      "roadName": "Chilanga - Kalomo Road",
      "roadType": "Gravel",
      "lengthKm": 37.1,
      "condition": "Fair",
      "trafficVolume": "Medium",
      "lastMaintenance": "2025-03-31T15:00:30.836082",
      "connectedVillages": [
        "Chipapa",
        "Senanga",
        "Kabompo",
        "Luangwa",
        "Monze"
      ],
      "latitude": -11.7863,
      "longitude": 24.4155
    },
    {
      "id": 34,
      "chiefdom": "Chief Sailunga",
      "roadName": "Kafue Riverside - Nakatindi Road",
      "roadType": "Gravel",
      "lengthKm": 18.9,
      "condition": "Fair",
      "trafficVolume": "Low",
      "lastMaintenance": "2025-02-24T15:00:30.836091",
      "connectedVillages": [
        "Mumbwa",
        "Siavonga",
        "Kafue Riverside"
      ],
      "latitude": -11.8335,
      "longitude": 24.3543
    },
    {
      "id": 35,
      "chiefdom": "Chief Sailunga",
      "roadName": "Mazabuka - Kalulushi Road",
      "roadType": "Paved",
      "lengthKm": 22.2,
      "condition": "Poor",
      "trafficVolume": "High",
      "lastMaintenance": "2024-04-01T15:00:30.836099",
      "connectedVillages": [
        "Siavonga",
        "Kalulushi"
      ],
      "latitude": -11.7375,
      "longitude": 24.3552
    },
    {
      "id": 36,
      "chiefdom": "Chief Sailunga",
      "roadName": "Ngwerere - Chadiza Road",
      "roadType": "Gravel",
      "lengthKm": 49.6,
      "condition": "Critical",
      "trafficVolume": "Medium",
      "lastMaintenance": "2024-12-02T15:00:30.836108",
      "connectedVillages": [
        "Kaputa",
        "Chilanga",
        "Nchelenge",
        "Chipapa"
      ],
      "latitude": -11.7742,
      "longitude": 24.3717
    },
    {
      "id": 37,
      "chiefdom": "Chief Sailunga",
      "roadName": "Solwezi - Choma Road",
      "roadType": "Earth",
      "lengthKm": 22.7,
      "condition": "Good",
      "trafficVolume": "High",
      "lastMaintenance": "2025-09-22T15:00:30.836116",
      "connectedVillages": [
        "Mkushi",
        "Kaoma",
        "Mpanshya",
        "Choma"
      ],
      "latitude": -11.764,
      "longitude": 24.4043
    },
    {
      "id": 38,
      "chiefdom": "Chief Sailunga",
      "roadName": "Mporokoso - Chilanga Road",
      "roadType": "Paved",
      "lengthKm": 38.4,
      "condition": "Fair",
      "trafficVolume": "Medium",
      "lastMaintenance": "2025-11-20T15:00:30.836125",
      "connectedVillages": [
        "Palabana",
        "Mufumbwe",
        "Kalomo",
        "Ndola"
      ],
      "latitude": -11.6877,
      "longitude": 24.479
    },
    {
      "id": 39,
      "chiefdom": "Chief Sailunga",
      "roadName": "Katete - Nakonde Road",
      "roadType": "Paved",
      "lengthKm": 28.1,
      "condition": "Fair",
      "trafficVolume": "Medium",
      "lastMaintenance": "2024-09-05T15:00:30.836134",
      "connectedVillages": [
        "Kasama",
        "Mwinilunga",
        "Kitwe",
        "Chama"
      ],
      "latitude": -11.799,
      "longitude": 24.3675
    },
    {
      "id": 40,
      "chiefdom": "Chief Sailunga",
      "roadName": "Livingstone - Chisamba Road",
      "roadType": "Earth",
      "lengthKm": 23.3,
      "condition": "Poor",
      "trafficVolume": "Medium",
      "lastMaintenance": "2025-11-02T15:00:30.836143",
      "connectedVillages": [
        "Petauke",
        "Kalulushi",
        "Kalomo",
        "Chipata"
      ],
      "latitude": -11.7841,
      "longitude": 24.5234
    },
    {
      "id": 41,
      "chiefdom": "Chief Sailunga",
      "roadName": "Mkushi - Kasama Road",
      "roadType": "Paved",
      "lengthKm": 33.7,
      "condition": "Fair",
      "trafficVolume": "Low",
      "lastMaintenance": "2024-05-22T15:00:30.836152",
      "connectedVillages": [
        "Chilanga",
        "Isoka",
        "Lukulu"
      ],
      "latitude": -11.7783,
      "longitude": 24.4126
    },
    {
      "id": 42,
      "chiefdom": "Chief Sailunga",
      "roadName": "Kawambwa - Katete Road",
      "roadType": "Gravel",
      "lengthKm": 31.1,
      "condition": "Fair",
      "trafficVolume": "Medium",
      "lastMaintenance": "2025-04-24T15:00:30.836161",
      "connectedVillages": [
        "Kabwe",
        "Mpongwe"
      ],
      "latitude": -11.8338,
      "longitude": 24.3843
    },
    {
      "id": 43,
      "chiefdom": "Chief Sailunga",
      "roadName": "Solwezi - Meanwood Road",
      "roadType": "Paved",
      "lengthKm": 35.8,
      "condition": "Fair",
      "trafficVolume": "High",
      "lastMaintenance": "2026-01-05T15:00:30.836169",
      "connectedVillages": [
        "Chainda",
        "Kabompo",
        "Gwembe"
      ],
      "latitude": -11.8111,
      "longitude": 24.4824
    },
    {
      "id": 44,
      "chiefdom": "Chief Sailunga",
      "roadName": "Munyumba - Petauke Road",
      "roadType": "Earth",
      "lengthKm": 28.0,
      "condition": "Poor",
      "trafficVolume": "Medium",
      "lastMaintenance": "2025-10-11T15:00:30.836178",
      "connectedVillages": [
        "Mansa",
        "Chalala"
      ],
      "latitude": -11.8006,
      "longitude": 24.4298
    },
    {
      "id": 45,
      "chiefdom": "Chief Sailunga",
      "roadName": "Mwembezhi - Chalimbana Road",
      "roadType": "Paved",
      "lengthKm": 24.4,
      "condition": "Fair",
      "trafficVolume": "Low",
      "lastMaintenance": "2024-07-22T15:00:30.836186",
      "connectedVillages": [
        "Sikanze",
        "Kaunga",
        "Kasempa",
        "Luwingu"
      ],
      "latitude": -11.7999,
      "longitude": 24.4162
    },
    {
      "id": 46,
      "chiefdom": "Chief Sailunga",
      "roadName": "Lunsemfwa - Katoba Road",
      "roadType": "Gravel",
      "lengthKm": 28.2,
      "condition": "Critical",
      "trafficVolume": "Low",
      "lastMaintenance": "2025-08-07T15:00:30.836195",
      "connectedVillages": [
        "Mpika",
        "Kalingalinga"
      ],
      "latitude": -11.732,
      "longitude": 24.5157
    },
    {
      "id": 47,
      "chiefdom": "Chief Sailunga",
      "roadName": "Serenje - Sinda Road",
      "roadType": "Tarred",
      "lengthKm": 22.9,
      "condition": "Critical",
      "trafficVolume": "Low",
      "lastMaintenance": "2024-09-14T15:00:30.836204",
      "connectedVillages": [
        "Kalingalinga",
        "Kapiri",
        "Kasempa",
        "Chama",
        "Chongwe Central"
      ],
      "latitude": -11.8141,
      "longitude": 24.5242
    },
    {
      "id": 48,
      "chiefdom": "Chief Sailunga",
      "roadName": "Serenje - Kafue Riverside Road",
      "roadType": "Earth",
      "lengthKm": 30.0,
      "condition": "Poor",
      "trafficVolume": "Medium",
      "lastMaintenance": "2025-02-10T15:00:30.836213",
      "connectedVillages": [
        "Kasama",
        "Chadiza",
        "Mbala",
        "Mwinilunga"
      ],
      "latitude": -11.7958,
      "longitude": 24.5025
    },
    {
      "id": 49,
      "chiefdom": "Chief Sailunga",
      "roadName": "Mwinilunga - Lilayi Road",
      "roadType": "Gravel",
      "lengthKm": 26.6,
      "condition": "Critical",
      "trafficVolume": "Low",
      "lastMaintenance": "2025-04-19T15:00:30.836222",
      "connectedVillages": [
        "Makeni",
        "Choma",
        "Katoba"
      ],
      "latitude": -11.7222,
      "longitude": 24.4046
    },
    {
      "id": 50,
      "chiefdom": "Chief Sailunga",
      "roadName": "Sinazongwe - Kawambwa Road",
      "roadType": "Earth",
      "lengthKm": 16.9,
      "condition": "Good",
      "trafficVolume": "High",
      "lastMaintenance": "2025-12-15T15:00:30.836231",
      "connectedVillages": [
        "Chalala",
        "Ndola",
        "Chipata",
        "Kalulushi",
        "Kapiri"
      ],
      "latitude": -11.745,
      "longitude": 24.4779
    }
  ],
  "communicationTowers": [
    {
      "id": 1,
      "chiefdom": "Chief Sailunga",
      "towerName": "Kalabo Tower 1",
      "operator": "MTN",
      "towerType": "2G",
      "coverageRadius": 10.0,
      "populationCovered": 5844,
      "status": "Operational",
      "latitude": -11.7541,
      "longitude": 24.3385,
      "installationDate": "2021-02-06T15:00:30.836242"
    },
    {
      "id": 2,
      "chiefdom": "Chief Sailunga",
      "towerName": "Chipapa Tower 2",
      "operator": "Zamtel",
      "towerType": "4G",
      "coverageRadius": 6.7,
      "populationCovered": 10224,
      "status": "Planned",
      "latitude": -11.7399,
      "longitude": 24.3505,
      "installationDate": "2024-06-10T15:00:30.836250"
    },
    {
      "id": 3,
      "chiefdom": "Chief Sailunga",
      "towerName": "Kaoma Tower 3",
      "operator": "Zamtel",
      "towerType": "4G",
      "coverageRadius": 6.4,
      "populationCovered": 21983,
      "status": "Operational",
      "latitude": -11.6851,
      "longitude": 24.5099,
      "installationDate": "2021-10-06T15:00:30.836257"
    },
    {
      "id": 4,
      "chiefdom": "Chief Sailunga",
      "towerName": "Kanakantapa Tower 4",
      "operator": "MTN",
      "towerType": "4G",
      "coverageRadius": 6.3,
      "populationCovered": 14621,
      "status": "Planned",
      "latitude": -11.7059,
      "longitude": 24.3701,
      "installationDate": "2022-12-04T15:00:30.836264"
    },
    {
      "id": 5,
      "chiefdom": "Chief Sailunga",
      "towerName": "Kalabo Tower 5",
      "operator": "Zamtel",
      "towerType": "4G",
      "coverageRadius": 11.1,
      "populationCovered": 5679,
      "status": "Operational",
      "latitude": -11.7657,
      "longitude": 24.4089,
      "installationDate": "2021-11-09T15:00:30.836271"
    },
    {
      "id": 6,
      "chiefdom": "Chief Sailunga",
      "towerName": "Lundazi Tower 6",
      "operator": "Zamtel",
      "towerType": "4G",
      "coverageRadius": 14.0,
      "populationCovered": 13329,
      "status": "Maintenance",
      "latitude": -11.6897,
      "longitude": 24.5003,
      "installationDate": "2024-09-30T15:00:30.836278"
    },
    {
      "id": 7,
      "chiefdom": "Chief Sailunga",
      "towerName": "Lunsemfwa Tower 7",
      "operator": "Airtel",
      "towerType": "4G",
      "coverageRadius": 11.5,
      "populationCovered": 18656,
      "status": "Maintenance",
      "latitude": -11.7471,
      "longitude": 24.4014,
      "installationDate": "2021-03-16T15:00:30.836285"
    },
    {
      "id": 8,
      "chiefdom": "Chief Sailunga",
      "towerName": "Shimabala Tower 8",
      "operator": "Zamtel",
      "towerType": "2G",
      "coverageRadius": 13.9,
      "populationCovered": 6441,
      "status": "Maintenance",
      "latitude": -11.7469,
      "longitude": 24.521,
      "installationDate": "2025-07-22T15:00:30.836291"
    },
    {
      "id": 9,
      "chiefdom": "Chief Sailunga",
      "towerName": "Chipapa Tower 9",
      "operator": "Zamtel",
      "towerType": "2G",
      "coverageRadius": 5.6,
      "populationCovered": 15678,
      "status": "Operational",
      "latitude": -11.7176,
      "longitude": 24.406,
      "installationDate": "2025-06-03T15:00:30.836298"
    },
    {
      "id": 10,
      "chiefdom": "Chief Sailunga",
      "towerName": "Chilanga Tower 10",
      "operator": "MTN",
      "towerType": "2G",
      "coverageRadius": 15.1,
      "populationCovered": 12939,
      "status": "Operational",
      "latitude": -11.8168,
      "longitude": 24.4117,
      "installationDate": "2021-02-20T15:00:30.836305"
    },
    {
      "id": 11,
      "chiefdom": "Chief Sailunga",
      "towerName": "Lukulu Tower 11",
      "operator": "Zamtel",
      "towerType": "2G",
      "coverageRadius": 15.8,
      "populationCovered": 22883,
      "status": "Planned",
      "latitude": -11.8108,
      "longitude": 24.4246,
      "installationDate": "2021-05-17T15:00:30.836312"
    },
    {
      "id": 12,
      "chiefdom": "Chief Sailunga",
      "towerName": "Choma Tower 12",
      "operator": "Airtel",
      "towerType": "3G",
      "coverageRadius": 11.9,
      "populationCovered": 21137,
      "status": "Planned",
      "latitude": -11.6902,
      "longitude": 24.5233,
      "installationDate": "2021-07-12T15:00:30.836319"
    },
    {
      "id": 13,
      "chiefdom": "Chief Sailunga",
      "towerName": "Chongwe Central Tower 13",
      "operator": "Zamtel",
      "towerType": "4G",
      "coverageRadius": 19.3,
      "populationCovered": 3452,
      "status": "Planned",
      "latitude": -11.7953,
      "longitude": 24.508,
      "installationDate": "2024-09-25T15:00:30.836326"
    },
    {
      "id": 14,
      "chiefdom": "Chief Sailunga",
      "towerName": "Kasempa Tower 14",
      "operator": "Zamtel",
      "towerType": "2G",
      "coverageRadius": 12.7,
      "populationCovered": 11141,
      "status": "Operational",
      "latitude": -11.7426,
      "longitude": 24.332,
      "installationDate": "2024-09-13T15:00:30.836333"
    },
    {
      "id": 15,
      "chiefdom": "Chief Sailunga",
      "towerName": "Chainda Tower 15",
      "operator": "Airtel",
      "towerType": "4G",
      "coverageRadius": 12.6,
      "populationCovered": 12313,
      "status": "Maintenance",
      "latitude": -11.7381,
      "longitude": 24.4881,
      "installationDate": "2023-11-27T15:00:30.836340"
    },
    {
      "id": 16,
      "chiefdom": "Chief Sailunga",
      "towerName": "Makeni Tower 16",
      "operator": "MTN",
      "towerType": "2G",
      "coverageRadius": 15.3,
      "populationCovered": 20545,
      "status": "Maintenance",
      "latitude": -11.731,
      "longitude": 24.4314,
      "installationDate": "2024-01-25T15:00:30.836347"
    },
    {
      "id": 17,
      "chiefdom": "Chief Sailunga",
      "towerName": "Kitwe Tower 17",
      "operator": "Airtel",
      "towerType": "3G",
      "coverageRadius": 5.6,
      "populationCovered": 24845,
      "status": "Operational",
      "latitude": -11.6679,
      "longitude": 24.5123,
      "installationDate": "2023-08-27T15:00:30.836354"
    },
    {
      "id": 18,
      "chiefdom": "Chief Sailunga",
      "towerName": "Chipapa Tower 18",
      "operator": "Airtel",
      "towerType": "4G",
      "coverageRadius": 13.6,
      "populationCovered": 5403,
      "status": "Maintenance",
      "latitude": -11.8003,
      "longitude": 24.3671,
      "installationDate": "2024-02-13T15:00:30.836361"
    },
    {
      "id": 19,
      "chiefdom": "Chief Sailunga",
      "towerName": "Kawambwa Tower 19",
      "operator": "Zamtel",
      "towerType": "4G",
      "coverageRadius": 5.2,
      "populationCovered": 19517,
      "status": "Maintenance",
      "latitude": -11.7539,
      "longitude": 24.4264,
      "installationDate": "2025-07-09T15:00:30.836367"
    },
    {
      "id": 20,
      "chiefdom": "Chief Sailunga",
      "towerName": "Mporokoso Tower 20",
      "operator": "MTN",
      "towerType": "2G",
      "coverageRadius": 5.6,
      "populationCovered": 22296,
      "status": "Maintenance",
      "latitude": -11.7699,
      "longitude": 24.3865,
      "installationDate": "2024-01-17T15:00:30.836374"
    },
    {
      "id": 21,
      "chiefdom": "Chief Sailunga",
      "towerName": "Pemba Tower 21",
      "operator": "MTN",
      "towerType": "3G",
      "coverageRadius": 5.6,
      "populationCovered": 16526,
      "status": "Operational",
      "latitude": -11.6969,
      "longitude": 24.3433,
      "installationDate": "2024-12-07T15:00:30.836381"
    },
    {
      "id": 22,
      "chiefdom": "Chief Sailunga",
      "towerName": "Lilayi Tower 22",
      "operator": "Airtel",
      "towerType": "2G",
      "coverageRadius": 14.0,
      "populationCovered": 19392,
      "status": "Maintenance",
      "latitude": -11.806,
      "longitude": 24.5039,
      "installationDate": "2024-09-10T15:00:30.836448"
    },
    {
      "id": 23,
      "chiefdom": "Chief Sailunga",
      "towerName": "Mpanshya Tower 23",
      "operator": "MTN",
      "towerType": "3G",
      "coverageRadius": 12.8,
      "populationCovered": 12501,
      "status": "Maintenance",
      "latitude": -11.7505,
      "longitude": 24.3628,
      "installationDate": "2023-02-27T15:00:30.836460"
    },
    {
      "id": 24,
      "chiefdom": "Chief Sailunga",
      "towerName": "Lunsemfwa Tower 24",
      "operator": "Airtel",
      "towerType": "3G",
      "coverageRadius": 8.4,
      "populationCovered": 22426,
      "status": "Planned",
      "latitude": -11.716,
      "longitude": 24.4435,
      "installationDate": "2021-09-04T15:00:30.836468"
    },
    {
      "id": 25,
      "chiefdom": "Chief Sailunga",
      "towerName": "Mufumbwe Tower 25",
      "operator": "Airtel",
      "towerType": "2G",
      "coverageRadius": 9.6,
      "populationCovered": 24613,
      "status": "Maintenance",
      "latitude": -11.7287,
      "longitude": 24.4143,
      "installationDate": "2025-06-07T15:00:30.836475"
    },
    {
      "id": 26,
      "chiefdom": "Chief Sailunga",
      "towerName": "Luwingu Tower 26",
      "operator": "Zamtel",
      "towerType": "4G",
      "coverageRadius": 17.0,
      "populationCovered": 12097,
      "status": "Planned",
      "latitude": -11.779,
      "longitude": 24.4337,
      "installationDate": "2023-01-21T15:00:30.836482"
    },
    {
      "id": 27,
      "chiefdom": "Chief Sailunga",
      "towerName": "Gwembe Tower 27",
      "operator": "Zamtel",
      "towerType": "3G",
      "coverageRadius": 6.6,
      "populationCovered": 3811,
      "status": "Maintenance",
      "latitude": -11.7888,
      "longitude": 24.5294,
      "installationDate": "2024-11-19T15:00:30.836490"
    },
    {
      "id": 28,
      "chiefdom": "Chief Sailunga",
      "towerName": "Mutumbi Tower 28",
      "operator": "Airtel",
      "towerType": "3G",
      "coverageRadius": 9.9,
      "populationCovered": 18592,
      "status": "Operational",
      "latitude": -11.8043,
      "longitude": 24.5137,
      "installationDate": "2023-02-04T15:00:30.836497"
    },
    {
      "id": 29,
      "chiefdom": "Chief Sailunga",
      "towerName": "Lundazi Tower 29",
      "operator": "MTN",
      "towerType": "2G",
      "coverageRadius": 10.1,
      "populationCovered": 15142,
      "status": "Maintenance",
      "latitude": -11.7555,
      "longitude": 24.4314,
      "installationDate": "2025-05-07T15:00:30.836504"
    },
    {
      "id": 30,
      "chiefdom": "Chief Sailunga",
      "towerName": "Kitwe Tower 30",
      "operator": "MTN",
      "towerType": "2G",
      "coverageRadius": 19.8,
      "populationCovered": 15141,
      "status": "Maintenance",
      "latitude": -11.6941,
      "longitude": 24.3621,
      "installationDate": "2022-04-05T15:00:30.836511"
    },
    {
      "id": 31,
      "chiefdom": "Chief Sailunga",
      "towerName": "Kalulushi Tower 31",
      "operator": "Zamtel",
      "towerType": "3G",
      "coverageRadius": 15.6,
      "populationCovered": 11990,
      "status": "Planned",
      "latitude": -11.8282,
      "longitude": 24.3549,
      "installationDate": "2022-02-15T15:00:30.836517"
    },
    {
      "id": 32,
      "chiefdom": "Chief Sailunga",
      "towerName": "Kafue Riverside Tower 32",
      "operator": "MTN",
      "towerType": "2G",
      "coverageRadius": 19.6,
      "populationCovered": 12040,
      "status": "Maintenance",
      "latitude": -11.6673,
      "longitude": 24.4559,
      "installationDate": "2025-09-26T15:00:30.836525"
    },
    {
      "id": 33,
      "chiefdom": "Chief Sailunga",
      "towerName": "Chadiza Tower 33",
      "operator": "MTN",
      "towerType": "3G",
      "coverageRadius": 17.8,
      "populationCovered": 19129,
      "status": "Planned",
      "latitude": -11.759,
      "longitude": 24.3419,
      "installationDate": "2022-07-15T15:00:30.836531"
    },
    {
      "id": 34,
      "chiefdom": "Chief Sailunga",
      "towerName": "Samfya Tower 34",
      "operator": "MTN",
      "towerType": "3G",
      "coverageRadius": 9.7,
      "populationCovered": 21770,
      "status": "Operational",
      "latitude": -11.7209,
      "longitude": 24.4641,
      "installationDate": "2025-03-18T15:00:30.836538"
    },
    {
      "id": 35,
      "chiefdom": "Chief Sailunga",
      "towerName": "Pemba Tower 35",
      "operator": "MTN",
      "towerType": "3G",
      "coverageRadius": 14.3,
      "populationCovered": 23013,
      "status": "Operational",
      "latitude": -11.6487,
      "longitude": 24.3353,
      "installationDate": "2023-07-27T15:00:30.836545"
    },
    {
      "id": 36,
      "chiefdom": "Chief Sailunga",
      "towerName": "Chipata Tower 36",
      "operator": "Airtel",
      "towerType": "4G",
      "coverageRadius": 11.3,
      "populationCovered": 20494,
      "status": "Operational",
      "latitude": -11.7006,
      "longitude": 24.4185,
      "installationDate": "2021-05-20T15:00:30.836552"
    },
    {
      "id": 37,
      "chiefdom": "Chief Sailunga",
      "towerName": "Gwembe Tower 37",
      "operator": "Zamtel",
      "towerType": "4G",
      "coverageRadius": 8.7,
      "populationCovered": 14242,
      "status": "Operational",
      "latitude": -11.764,
      "longitude": 24.3455,
      "installationDate": "2022-03-27T15:00:30.836560"
    },
    {
      "id": 38,
      "chiefdom": "Chief Sailunga",
      "towerName": "Lundazi Tower 38",
      "operator": "MTN",
      "towerType": "2G",
      "coverageRadius": 12.9,
      "populationCovered": 24207,
      "status": "Operational",
      "latitude": -11.7368,
      "longitude": 24.3562,
      "installationDate": "2021-04-21T15:00:30.836566"
    },
    {
      "id": 39,
      "chiefdom": "Chief Sailunga",
      "towerName": "Mbala Tower 39",
      "operator": "Zamtel",
      "towerType": "4G",
      "coverageRadius": 18.3,
      "populationCovered": 20503,
      "status": "Maintenance",
      "latitude": -11.667,
      "longitude": 24.3358,
      "installationDate": "2025-06-07T15:00:30.836573"
    },
    {
      "id": 40,
      "chiefdom": "Chief Sailunga",
      "towerName": "Kalabo Tower 40",
      "operator": "Zamtel",
      "towerType": "4G",
      "coverageRadius": 15.5,
      "populationCovered": 15251,
      "status": "Operational",
      "latitude": -11.7482,
      "longitude": 24.333,
      "installationDate": "2023-10-02T15:00:30.836580"
    },
    {
      "id": 41,
      "chiefdom": "Chief Sailunga",
      "towerName": "Petauke Tower 41",
      "operator": "MTN",
      "towerType": "2G",
      "coverageRadius": 19.3,
      "populationCovered": 15782,
      "status": "Maintenance",
      "latitude": -11.6453,
      "longitude": 24.4432,
      "installationDate": "2024-10-16T15:00:30.836587"
    },
    {
      "id": 42,
      "chiefdom": "Chief Sailunga",
      "towerName": "Sinda Tower 42",
      "operator": "Airtel",
      "towerType": "3G",
      "coverageRadius": 5.7,
      "populationCovered": 20041,
      "status": "Maintenance",
      "latitude": -11.7857,
      "longitude": 24.4511,
      "installationDate": "2025-11-26T15:00:30.836595"
    },
    {
      "id": 43,
      "chiefdom": "Chief Sailunga",
      "towerName": "Nakatindi Tower 43",
      "operator": "MTN",
      "towerType": "4G",
      "coverageRadius": 16.7,
      "populationCovered": 8003,
      "status": "Maintenance",
      "latitude": -11.6694,
      "longitude": 24.4011,
      "installationDate": "2025-12-13T15:00:30.836609"
    },
    {
      "id": 44,
      "chiefdom": "Chief Sailunga",
      "towerName": "Kalulushi Tower 44",
      "operator": "MTN",
      "towerType": "3G",
      "coverageRadius": 7.3,
      "populationCovered": 16861,
      "status": "Operational",
      "latitude": -11.7123,
      "longitude": 24.5012,
      "installationDate": "2025-02-26T15:00:30.836616"
    },
    {
      "id": 45,
      "chiefdom": "Chief Sailunga",
      "towerName": "Meanwood Tower 45",
      "operator": "Zamtel",
      "towerType": "3G",
      "coverageRadius": 9.4,
      "populationCovered": 17502,
      "status": "Planned",
      "latitude": -11.6642,
      "longitude": 24.4803,
      "installationDate": "2022-06-19T15:00:30.836624"
    },
    {
      "id": 46,
      "chiefdom": "Chief Sailunga",
      "towerName": "Chainda Tower 46",
      "operator": "Zamtel",
      "towerType": "4G",
      "coverageRadius": 6.9,
      "populationCovered": 9944,
      "status": "Operational",
      "latitude": -11.7056,
      "longitude": 24.3458,
      "installationDate": "2024-08-25T15:00:30.836630"
    },
    {
      "id": 47,
      "chiefdom": "Chief Sailunga",
      "towerName": "Chipapa Tower 47",
      "operator": "Zamtel",
      "towerType": "2G",
      "coverageRadius": 6.8,
      "populationCovered": 3940,
      "status": "Maintenance",
      "latitude": -11.7323,
      "longitude": 24.5278,
      "installationDate": "2024-03-01T15:00:30.836638"
    },
    {
      "id": 48,
      "chiefdom": "Chief Sailunga",
      "towerName": "Mufumbwe Tower 48",
      "operator": "Zamtel",
      "towerType": "3G",
      "coverageRadius": 19.9,
      "populationCovered": 24056,
      "status": "Planned",
      "latitude": -11.717,
      "longitude": 24.4183,
      "installationDate": "2021-08-16T15:00:30.836645"
    },
    {
      "id": 49,
      "chiefdom": "Chief Sailunga",
      "towerName": "Luwingu Tower 49",
      "operator": "MTN",
      "towerType": "4G",
      "coverageRadius": 9.2,
      "populationCovered": 9308,
      "status": "Operational",
      "latitude": -11.6652,
      "longitude": 24.3707,
      "installationDate": "2023-07-17T15:00:30.836652"
    },
    {
      "id": 50,
      "chiefdom": "Chief Sailunga",
      "towerName": "Luwingu Tower 50",
      "operator": "Airtel",
      "towerType": "4G",
      "coverageRadius": 13.9,
      "populationCovered": 20463,
      "status": "Maintenance",
      "latitude": -11.8036,
      "longitude": 24.5099,
      "installationDate": "2022-01-10T15:00:30.836659"
    }
  ],
  "connectivityAreas": [
    {
      "id": 1,
      "chiefdom": "Chief Sailunga",
      "areaName": "Chadiza Connectivity 1",
      "population": 14005,
      "mobileSignalQuality": "Excellent",
      "internetAvailability": "Limited",
      "roadAccess": "Fair",
      "electricityAccess": true,
      "latitude": -11.6908,
      "longitude": 24.3873
    },
    {
      "id": 2,
      "chiefdom": "Chief Sailunga",
      "areaName": "Siavonga Connectivity 2",
      "population": 8977,
      "mobileSignalQuality": "Excellent",
      "internetAvailability": "Available",
      "roadAccess": "Fair",
      "electricityAccess": false,
      "latitude": -11.6744,
      "longitude": 24.4894
    },
    {
      "id": 3,
      "chiefdom": "Chief Sailunga",
      "areaName": "Livingstone Connectivity 3",
      "population": 12407,
      "mobileSignalQuality": "Excellent",
      "internetAvailability": "None",
      "roadAccess": "Poor",
      "electricityAccess": true,
      "latitude": -11.7892,
      "longitude": 24.4457
    },
    {
      "id": 4,
      "chiefdom": "Chief Sailunga",
      "areaName": "Kaunga Connectivity 4",
      "population": 4934,
      "mobileSignalQuality": "Fair",
      "internetAvailability": "Limited",
      "roadAccess": "Good",
      "electricityAccess": true,
      "latitude": -11.8003,
      "longitude": 24.4101
    },
    {
      "id": 5,
      "chiefdom": "Chief Sailunga",
      "areaName": "Chililabombwe Connectivity 5",
      "population": 9620,
      "mobileSignalQuality": "None",
      "internetAvailability": "Available",
      "roadAccess": "Fair",
      "electricityAccess": true,
      "latitude": -11.6672,
      "longitude": 24.3573
    },
    {
      "id": 6,
      "chiefdom": "Chief Sailunga",
      "areaName": "Pemba Connectivity 6",
      "population": 11219,
      "mobileSignalQuality": "Fair",
      "internetAvailability": "None",
      "roadAccess": "Fair",
      "electricityAccess": true,
      "latitude": -11.6966,
      "longitude": 24.4598
    },
    {
      "id": 7,
      "chiefdom": "Chief Sailunga",
      "areaName": "Kabwe Connectivity 7",
      "population": 13220,
      "mobileSignalQuality": "Excellent",
      "internetAvailability": "None",
      "roadAccess": "Poor",
      "electricityAccess": true,
      "latitude": -11.7019,
      "longitude": 24.4904
    },
    {
      "id": 8,
      "chiefdom": "Chief Sailunga",
      "areaName": "Nakonde Connectivity 8",
      "population": 14442,
      "mobileSignalQuality": "Fair",
      "internetAvailability": "None",
      "roadAccess": "Fair",
      "electricityAccess": true,
      "latitude": -11.7063,
      "longitude": 24.5288
    },
    {
      "id": 9,
      "chiefdom": "Chief Sailunga",
      "areaName": "Lunsemfwa Connectivity 9",
      "population": 4927,
      "mobileSignalQuality": "None",
      "internetAvailability": "None",
      "roadAccess": "Fair",
      "electricityAccess": true,
      "latitude": -11.8193,
      "longitude": 24.5176
    },
    {
      "id": 10,
      "chiefdom": "Chief Sailunga",
      "areaName": "Shangombo Connectivity 10",
      "population": 9907,
      "mobileSignalQuality": "Excellent",
      "internetAvailability": "Available",
      "roadAccess": "Poor",
      "electricityAccess": false,
      "latitude": -11.7625,
      "longitude": 24.3777
    },
    {
      "id": 11,
      "chiefdom": "Chief Sailunga",
      "areaName": "Kasempa Connectivity 11",
      "population": 4545,
      "mobileSignalQuality": "Good",
      "internetAvailability": "None",
      "roadAccess": "Fair",
      "electricityAccess": false,
      "latitude": -11.6882,
      "longitude": 24.3422
    },
    {
      "id": 12,
      "chiefdom": "Chief Sailunga",
      "areaName": "Isoka Connectivity 12",
      "population": 3312,
      "mobileSignalQuality": "Excellent",
      "internetAvailability": "Limited",
      "roadAccess": "Fair",
      "electricityAccess": true,
      "latitude": -11.7719,
      "longitude": 24.3606
    },
    {
      "id": 13,
      "chiefdom": "Chief Sailunga",
      "areaName": "Sinazongwe Connectivity 13",
      "population": 6556,
      "mobileSignalQuality": "Excellent",
      "internetAvailability": "None",
      "roadAccess": "Poor",
      "electricityAccess": true,
      "latitude": -11.8307,
      "longitude": 24.3818
    },
    {
      "id": 14,
      "chiefdom": "Chief Sailunga",
      "areaName": "Monze Connectivity 14",
      "population": 14559,
      "mobileSignalQuality": "Excellent",
      "internetAvailability": "None",
      "roadAccess": "Fair",
      "electricityAccess": true,
      "latitude": -11.7773,
      "longitude": 24.4394
    },
    {
      "id": 15,
      "chiefdom": "Chief Sailunga",
      "areaName": "Munyumba Connectivity 15",
      "population": 2585,
      "mobileSignalQuality": "Poor",
      "internetAvailability": "Limited",
      "roadAccess": "Poor",
      "electricityAccess": true,
      "latitude": -11.8296,
      "longitude": 24.4247
    },
    {
      "id": 16,
      "chiefdom": "Chief Sailunga",
      "areaName": "Mufulira Connectivity 16",
      "population": 2892,
      "mobileSignalQuality": "Fair",
      "internetAvailability": "Limited",
      "roadAccess": "Good",
      "electricityAccess": true,
      "latitude": -11.7494,
      "longitude": 24.3722
    },
    {
      "id": 17,
      "chiefdom": "Chief Sailunga",
      "areaName": "Livingstone Connectivity 17",
      "population": 2822,
      "mobileSignalQuality": "Fair",
      "internetAvailability": "Limited",
      "roadAccess": "Good",
      "electricityAccess": true,
      "latitude": -11.8241,
      "longitude": 24.5131
    },
    {
      "id": 18,
      "chiefdom": "Chief Sailunga",
      "areaName": "Chongwe Central Connectivity 18",
      "population": 14071,
      "mobileSignalQuality": "Excellent",
      "internetAvailability": "None",
      "roadAccess": "Fair",
      "electricityAccess": true,
      "latitude": -11.7701,
      "longitude": 24.4567
    },
    {
      "id": 19,
      "chiefdom": "Chief Sailunga",
      "areaName": "Chililabombwe Connectivity 19",
      "population": 12669,
      "mobileSignalQuality": "None",
      "internetAvailability": "None",
      "roadAccess": "Good",
      "electricityAccess": true,
      "latitude": -11.716,
      "longitude": 24.3382
    },
    {
      "id": 20,
      "chiefdom": "Chief Sailunga",
      "areaName": "Chilanga Connectivity 20",
      "population": 2123,
      "mobileSignalQuality": "Poor",
      "internetAvailability": "Limited",
      "roadAccess": "Poor",
      "electricityAccess": false,
      "latitude": -11.6726,
      "longitude": 24.5004
    },
    {
      "id": 21,
      "chiefdom": "Chief Sailunga",
      "areaName": "Serenje Connectivity 21",
      "population": 11003,
      "mobileSignalQuality": "Excellent",
      "internetAvailability": "Limited",
      "roadAccess": "Fair",
      "electricityAccess": false,
      "latitude": -11.7857,
      "longitude": 24.5155
    },
    {
      "id": 22,
      "chiefdom": "Chief Sailunga",
      "areaName": "Mwinilunga Connectivity 22",
      "population": 3381,
      "mobileSignalQuality": "Good",
      "internetAvailability": "Available",
      "roadAccess": "Poor",
      "electricityAccess": true,
      "latitude": -11.7286,
      "longitude": 24.3544
    },
    {
      "id": 23,
      "chiefdom": "Chief Sailunga",
      "areaName": "Kabwe Connectivity 23",
      "population": 2309,
      "mobileSignalQuality": "Good",
      "internetAvailability": "Available",
      "roadAccess": "Good",
      "electricityAccess": true,
      "latitude": -11.7867,
      "longitude": 24.4656
    },
    {
      "id": 24,
      "chiefdom": "Chief Sailunga",
      "areaName": "Kaoma Connectivity 24",
      "population": 2745,
      "mobileSignalQuality": "Fair",
      "internetAvailability": "Limited",
      "roadAccess": "Good",
      "electricityAccess": true,
      "latitude": -11.7028,
      "longitude": 24.3474
    },
    {
      "id": 25,
      "chiefdom": "Chief Sailunga",
      "areaName": "Luwingu Connectivity 25",
      "population": 12620,
      "mobileSignalQuality": "Excellent",
      "internetAvailability": "Limited",
      "roadAccess": "Fair",
      "electricityAccess": false,
      "latitude": -11.7412,
      "longitude": 24.4057
    },
    {
      "id": 26,
      "chiefdom": "Chief Sailunga",
      "areaName": "Makeni Connectivity 26",
      "population": 2079,
      "mobileSignalQuality": "Excellent",
      "internetAvailability": "Limited",
      "roadAccess": "Good",
      "electricityAccess": true,
      "latitude": -11.8119,
      "longitude": 24.4861
    },
    {
      "id": 27,
      "chiefdom": "Chief Sailunga",
      "areaName": "Chipapa Connectivity 27",
      "population": 9228,
      "mobileSignalQuality": "Fair",
      "internetAvailability": "Limited",
      "roadAccess": "Fair",
      "electricityAccess": true,
      "latitude": -11.7837,
      "longitude": 24.4437
    },
    {
      "id": 28,
      "chiefdom": "Chief Sailunga",
      "areaName": "Kaoma Connectivity 28",
      "population": 5097,
      "mobileSignalQuality": "None",
      "internetAvailability": "None",
      "roadAccess": "Poor",
      "electricityAccess": true,
      "latitude": -11.784,
      "longitude": 24.386
    },
    {
      "id": 29,
      "chiefdom": "Chief Sailunga",
      "areaName": "Kabompo Connectivity 29",
      "population": 11772,
      "mobileSignalQuality": "Poor",
      "internetAvailability": "None",
      "roadAccess": "Good",
      "electricityAccess": false,
      "latitude": -11.6997,
      "longitude": 24.498
    },
    {
      "id": 30,
      "chiefdom": "Chief Sailunga",
      "areaName": "Kalulushi Connectivity 30",
      "population": 6994,
      "mobileSignalQuality": "Poor",
      "internetAvailability": "Available",
      "roadAccess": "Fair",
      "electricityAccess": true,
      "latitude": -11.801,
      "longitude": 24.5139
    },
    {
      "id": 31,
      "chiefdom": "Chief Sailunga",
      "areaName": "Kabompo Connectivity 31",
      "population": 8129,
      "mobileSignalQuality": "None",
      "internetAvailability": "Available",
      "roadAccess": "Good",
      "electricityAccess": false,
      "latitude": -11.7226,
      "longitude": 24.498
    },
    {
      "id": 32,
      "chiefdom": "Chief Sailunga",
      "areaName": "Mongu Connectivity 32",
      "population": 11353,
      "mobileSignalQuality": "Good",
      "internetAvailability": "Limited",
      "roadAccess": "Poor",
      "electricityAccess": false,
      "latitude": -11.7182,
      "longitude": 24.3347
    },
    {
      "id": 33,
      "chiefdom": "Chief Sailunga",
      "areaName": "Chalala Connectivity 33",
      "population": 6623,
      "mobileSignalQuality": "Poor",
      "internetAvailability": "Limited",
      "roadAccess": "Fair",
      "electricityAccess": true,
      "latitude": -11.7501,
      "longitude": 24.4991
    },
    {
      "id": 34,
      "chiefdom": "Chief Sailunga",
      "areaName": "Lukulu Connectivity 34",
      "population": 5436,
      "mobileSignalQuality": "Poor",
      "internetAvailability": "Limited",
      "roadAccess": "Poor",
      "electricityAccess": false,
      "latitude": -11.789,
      "longitude": 24.4353
    },
    {
      "id": 35,
      "chiefdom": "Chief Sailunga",
      "areaName": "Munyumba Connectivity 35",
      "population": 2397,
      "mobileSignalQuality": "None",
      "internetAvailability": "Available",
      "roadAccess": "Poor",
      "electricityAccess": false,
      "latitude": -11.765,
      "longitude": 24.341
    },
    {
      "id": 36,
      "chiefdom": "Chief Sailunga",
      "areaName": "Mazabuka Connectivity 36",
      "population": 8940,
      "mobileSignalQuality": "Good",
      "internetAvailability": "None",
      "roadAccess": "Good",
      "electricityAccess": true,
      "latitude": -11.8299,
      "longitude": 24.3784
    },
    {
      "id": 37,
      "chiefdom": "Chief Sailunga",
      "areaName": "Pemba Connectivity 37",
      "population": 3713,
      "mobileSignalQuality": "Poor",
      "internetAvailability": "Available",
      "roadAccess": "Poor",
      "electricityAccess": true,
      "latitude": -11.8321,
      "longitude": 24.3448
    },
    {
      "id": 38,
      "chiefdom": "Chief Sailunga",
      "areaName": "Lunsemfwa Connectivity 38",
      "population": 9691,
      "mobileSignalQuality": "None",
      "internetAvailability": "Available",
      "roadAccess": "Fair",
      "electricityAccess": true,
      "latitude": -11.7971,
      "longitude": 24.4766
    },
    {
      "id": 39,
      "chiefdom": "Chief Sailunga",
      "areaName": "Makeni Connectivity 39",
      "population": 5568,
      "mobileSignalQuality": "Fair",
      "internetAvailability": "None",
      "roadAccess": "Fair",
      "electricityAccess": true,
      "latitude": -11.8371,
      "longitude": 24.3937
    },
    {
      "id": 40,
      "chiefdom": "Chief Sailunga",
      "areaName": "Chilanga Connectivity 40",
      "population": 13643,
      "mobileSignalQuality": "Fair",
      "internetAvailability": "Limited",
      "roadAccess": "Poor",
      "electricityAccess": true,
      "latitude": -11.6849,
      "longitude": 24.5275
    },
    {
      "id": 41,
      "chiefdom": "Chief Sailunga",
      "areaName": "Katete Connectivity 41",
      "population": 9175,
      "mobileSignalQuality": "None",
      "internetAvailability": "Limited",
      "roadAccess": "Fair",
      "electricityAccess": true,
      "latitude": -11.704,
      "longitude": 24.4153
    },
    {
      "id": 42,
      "chiefdom": "Chief Sailunga",
      "areaName": "Shimabala Connectivity 42",
      "population": 6233,
      "mobileSignalQuality": "Excellent",
      "internetAvailability": "None",
      "roadAccess": "Fair",
      "electricityAccess": true,
      "latitude": -11.7292,
      "longitude": 24.4847
    },
    {
      "id": 43,
      "chiefdom": "Chief Sailunga",
      "areaName": "Siavonga Connectivity 43",
      "population": 9806,
      "mobileSignalQuality": "Poor",
      "internetAvailability": "None",
      "roadAccess": "Poor",
      "electricityAccess": true,
      "latitude": -11.8269,
      "longitude": 24.4276
    },
    {
      "id": 44,
      "chiefdom": "Chief Sailunga",
      "areaName": "Petauke Connectivity 44",
      "population": 4066,
      "mobileSignalQuality": "None",
      "internetAvailability": "Limited",
      "roadAccess": "Fair",
      "electricityAccess": true,
      "latitude": -11.656,
      "longitude": 24.4717
    },
    {
      "id": 45,
      "chiefdom": "Chief Sailunga",
      "areaName": "Senanga Connectivity 45",
      "population": 6881,
      "mobileSignalQuality": "Poor",
      "internetAvailability": "Available",
      "roadAccess": "Fair",
      "electricityAccess": true,
      "latitude": -11.6864,
      "longitude": 24.4606
    },
    {
      "id": 46,
      "chiefdom": "Chief Sailunga",
      "areaName": "Kaoma Connectivity 46",
      "population": 5860,
      "mobileSignalQuality": "Poor",
      "internetAvailability": "Available",
      "roadAccess": "Fair",
      "electricityAccess": true,
      "latitude": -11.7047,
      "longitude": 24.4669
    },
    {
      "id": 47,
      "chiefdom": "Chief Sailunga",
      "areaName": "Munyumba Connectivity 47",
      "population": 4080,
      "mobileSignalQuality": "Excellent",
      "internetAvailability": "Available",
      "roadAccess": "Poor",
      "electricityAccess": true,
      "latitude": -11.6781,
      "longitude": 24.4651
    },
    {
      "id": 48,
      "chiefdom": "Chief Sailunga",
      "areaName": "Shimabala Connectivity 48",
      "population": 3047,
      "mobileSignalQuality": "Poor",
      "internetAvailability": "Limited",
      "roadAccess": "Good",
      "electricityAccess": true,
      "latitude": -11.6824,
      "longitude": 24.4349
    },
    {
      "id": 49,
      "chiefdom": "Chief Sailunga",
      "areaName": "Petauke Connectivity 49",
      "population": 12625,
      "mobileSignalQuality": "Fair",
      "internetAvailability": "None",
      "roadAccess": "Fair",
      "electricityAccess": true,
      "latitude": -11.7568,
      "longitude": 24.3373
    },
    {
      "id": 50,
      "chiefdom": "Chief Sailunga",
      "areaName": "Lukulu Connectivity 50",
      "population": 4186,
      "mobileSignalQuality": "None",
      "internetAvailability": "Limited",
      "roadAccess": "Poor",
      "electricityAccess": false,
      "latitude": -11.6874,
      "longitude": 24.3684
    }
  ],
  "bridges": [
    {
      "id": 1,
      "chiefdom": "Chief Sailunga",
      "bridgeName": "Ndola Bridge 1",
      "bridgeType": "Steel",
      "lengthMeters": 256,
      "condition": "Critical",
      "waterBody": "Creek",
      "trafficCapacity": "Light",
      "lastInspection": "2025-10-28T15:00:30.836836",
      "latitude": -11.6577,
      "longitude": 24.4164
    },
    {
      "id": 2,
      "chiefdom": "Chief Sailunga",
      "bridgeName": "Isoka Bridge 2",
      "bridgeType": "Steel",
      "lengthMeters": 202,
      "condition": "Poor",
      "waterBody": "Stream",
      "trafficCapacity": "Light",
      "lastInspection": "2025-11-04T15:00:30.836844",
      "latitude": -11.6842,
      "longitude": 24.4054
    },
    {
      "id": 3,
      "chiefdom": "Chief Sailunga",
      "bridgeName": "Kasempa Bridge 3",
      "bridgeType": "Wooden",
      "lengthMeters": 278,
      "condition": "Good",
      "waterBody": "Creek",
      "trafficCapacity": "Heavy",
      "lastInspection": "2025-10-16T15:00:30.836851",
      "latitude": -11.8254,
      "longitude": 24.5079
    },
    {
      "id": 4,
      "chiefdom": "Chief Sailunga",
      "bridgeName": "Kapiri Bridge 4",
      "bridgeType": "Steel",
      "lengthMeters": 216,
      "condition": "Good",
      "waterBody": "Stream",
      "trafficCapacity": "Heavy",
      "lastInspection": "2025-04-20T15:00:30.836858",
      "latitude": -11.6935,
      "longitude": 24.4799
    },
    {
      "id": 5,
      "chiefdom": "Chief Sailunga",
      "bridgeName": "Mkushi Bridge 5",
      "bridgeType": "Suspension",
      "lengthMeters": 106,
      "condition": "Good",
      "waterBody": "Creek",
      "trafficCapacity": "Medium",
      "lastInspection": "2025-02-17T15:00:30.836878",
      "latitude": -11.7326,
      "longitude": 24.3841
    },
    {
      "id": 6,
      "chiefdom": "Chief Sailunga",
      "bridgeName": "Ndola Bridge 6",
      "bridgeType": "Suspension",
      "lengthMeters": 63,
      "condition": "Poor",
      "waterBody": "River",
      "trafficCapacity": "Heavy",
      "lastInspection": "2025-04-05T15:00:30.836884",
      "latitude": -11.7958,
      "longitude": 24.4551
    },
    {
      "id": 7,
      "chiefdom": "Chief Sailunga",
      "bridgeName": "Chililabombwe Bridge 7",
      "bridgeType": "Wooden",
      "lengthMeters": 110,
      "condition": "Poor",
      "waterBody": "Stream",
      "trafficCapacity": "Heavy",
      "lastInspection": "2025-07-01T15:00:30.836891",
      "latitude": -11.7904,
      "longitude": 24.5214
    },
    {
      "id": 8,
      "chiefdom": "Chief Sailunga",
      "bridgeName": "Meanwood Bridge 8",
      "bridgeType": "Suspension",
      "lengthMeters": 27,
      "condition": "Good",
      "waterBody": "Creek",
      "trafficCapacity": "Medium",
      "lastInspection": "2025-05-23T15:00:30.836898",
      "latitude": -11.7623,
      "longitude": 24.4001
    },
    {
      "id": 9,
      "chiefdom": "Chief Sailunga",
      "bridgeName": "Mufumbwe Bridge 9",
      "bridgeType": "Steel",
      "lengthMeters": 219,
      "condition": "Critical",
      "waterBody": "Stream",
      "trafficCapacity": "Light",
      "lastInspection": "2025-11-15T15:00:30.836905",
      "latitude": -11.7045,
      "longitude": 24.5249
    },
    {
      "id": 10,
      "chiefdom": "Chief Sailunga",
      "bridgeName": "Kaunga Bridge 10",
      "bridgeType": "Suspension",
      "lengthMeters": 95,
      "condition": "Good",
      "waterBody": "Stream",
      "trafficCapacity": "Light",
      "lastInspection": "2025-07-07T15:00:30.836912",
      "latitude": -11.7759,
      "longitude": 24.4263
    }
  ]
}