{
  "roads": [
    {
      "id": 1,
      "chiefdom": "Chief Chitanda",
      "roadName": "Kaoma - Mbala Road",
      "roadType": "Paved",
      "lengthKm": 39.4,
      "condition": "Good",
      "trafficVolume": "High",
      "lastMaintenance": "2025-06-18T15:00:30.587718",
      "connectedVillages": [
        "Kalingalinga",
        "Mporokoso",
        "Mufumbwe"
      ],
      "latitude": -14.3732,
      "longitude": 28.5085
    },
    {
      "id": 2,
      "chiefdom": "Chief Chitanda",
      "roadName": "Kafue Riverside - Mambwe Road",
      "roadType": "Gravel",
      "lengthKm": 16.3,
      "condition": "Fair",
      "trafficVolume": "Medium",
      "lastMaintenance": "2025-04-11T15:00:30.587734",
      "connectedVillages": [
        "Gwembe",
        "Mpika",
        "Shimabala",
        "Lundazi"
      ],
      "latitude": -14.3742,
      "longitude": 28.3784
    },
    {
      "id": 3,
      "chiefdom": "Chief Chitanda",
      "roadName": "Kabwe - Chalimbana Road",
      "roadType": "Earth",
      "lengthKm": 19.4,
      "condition": "Poor",
      "trafficVolume": "High",
      "lastMaintenance": "2025-08-05T15:00:30.587744",
      "connectedVillages": [
        "Chama",
        "Luwingu",
        "Mbala",
        "Kabompo",
        "Kafue Riverside"
      ],
      "latitude": -14.4756,
      "longitude": 28.506
    },
    {
      "id": 4,
      "chiefdom": "Chief Chitanda",
      "roadName": "Katete - Livingstone Road",
      "roadType": "Tarred",
      "lengthKm": 46.6,
      "condition": "Poor",
      "trafficVolume": "Medium",
      "lastMaintenance": "2025-07-03T15:00:30.587755",
      "connectedVillages": [
        "Nakatindi",
        "Kalomo"
      ],
      "latitude": -14.5292,
      "longitude": 28.5343
    },
    {
      "id": 5,
      "chiefdom": "Chief Chitanda",
      "roadName": "Kitwe - Shimabala Road",
      "roadType": "Paved",
      "lengthKm": 5.6,
      "condition": "Good",
      "trafficVolume": "High",
      "lastMaintenance": "2024-05-20T15:00:30.587763",
      "connectedVillages": [
        "Sesheke",
        "Munyumba",
        "Mutumbi"
      ],
      "latitude": -14.4938,
      "longitude": 28.4724
    },
    {
      "id": 6,
      "chiefdom": "Chief Chitanda",
      "roadName": "Mpongwe - Chinsali Road",
      "roadType": "Tarred",
      "lengthKm": 7.6,
      "condition": "Good",
      "trafficVolume": "Low",
      "lastMaintenance": "2024-09-28T15:00:30.587772",
      "connectedVillages": [
        "Samfya",
        "Mufumbwe"
      ],
      "latitude": -14.5405,
      "longitude": 28.5253
    },
    {
      "id": 7,
      "chiefdom": "Chief Chitanda",
      "roadName": "Chipapa - Kasempa Road",
      "roadType": "Earth",
      "lengthKm": 28.0,
      "condition": "Good",
      "trafficVolume": "High",
      "lastMaintenance": "2024-02-20T15:00:30.587781",
      "connectedVillages": [
        "Vubwi",
        "Chililabombwe",
        "Chinsali"
      ],
      "latitude": -14.4182,
      "longitude": 28.3929
    },
    {
      "id": 8,
      "chiefdom": "Chief Chitanda",
      "roadName": "Kafue Riverside - Shangombo Road",
      "roadType": "Gravel",
      "lengthKm": 24.6,
      "condition": "Critical",
      "trafficVolume": "Low",
      "lastMaintenance": "2025-08-17T15:00:30.587790",
      "connectedVillages": [
        "Kawambwa",
        "Luanshya",
        "Kafue Riverside",
        "Kabwe"
      ],
      "latitude": -14.3574,
      "longitude": 28.5308
    },
    {
      "id": 9,
      "chiefdom": "Chief Chitanda",
      "roadName": "Pemba - Mansa Road",
      "roadType": "Gravel",
      "lengthKm": 12.5,
      "condition": "Poor",
      "trafficVolume": "Medium",
      "lastMaintenance": "2025-01-30T15:00:30.587799",
      "connectedVillages": [
        "Kalomo",
        "Petauke"
      ],
      "latitude": -14.464,
      "longitude": 28.4751
    },
    {
      "id": 10,
      "chiefdom": "Chief Chitanda",
      "roadName": "Kasempa - Chibombo Road",
      "roadType": "Paved",
      "lengthKm": 14.0,
      "condition": "Fair",
      "trafficVolume": "High",
      "lastMaintenance": "2025-12-05T15:00:30.587807",
      "connectedVillages": [
        "Livingstone",
        "Katoba",
        "Kapiri"
      ],
      "latitude": -14.3763,
      "longitude": 28.484
    },
    {
      "id": 11,
      "chiefdom": "Chief Chitanda",
      "roadName": "Mpika - Kalomo Road",
      "roadType": "Tarred",
      "lengthKm": 43.9,
      "condition": "Fair",
      "trafficVolume": "Low",
      "lastMaintenance": "2024-03-24T15:00:30.587816",
      "connectedVillages": [
        "Shangombo",
        "Mkushi"
      ],
      "latitude": -14.4155,
      "longitude": 28.4319
    },
    {
      "id": 12,
      "chiefdom": "Chief Chitanda",
      "roadName": "Nyimba - Nyimba Road",
      "roadType": "Earth",
      "lengthKm": 45.8,
      "condition": "Poor",
      "trafficVolume": "Medium",
      "lastMaintenance": "2024-12-07T15:00:30.587824",
      "connectedVillages": [
        "Kalingalinga",
        "Petauke",
        "Chipata",
        "Luanshya"
      ],
      "latitude": -14.514,
      "longitude": 28.3727
    },
    {
      "id": 13,
      "chiefdom": "Chief Chitanda",
      "roadName": "Livingstone - Mbabala Road",
      "roadType": "Paved",
      "lengthKm": 43.6,
      "condition": "Critical",
      "trafficVolume": "Medium",
      "lastMaintenance": "2024-08-21T15:00:30.587833",
      "connectedVillages": [
        "Mwembezhi",
        "Kasempa",
        "Gwembe",
        "Kalomo",
        "Sinazongwe"
      ],
      "latitude": -14.5212,
      "longitude": 28.4662
    },
    {
      "id": 14,
      "chiefdom": "Chief Chitanda",
      "roadName": "Leopards Hill - Lundazi Road",
      "roadType": "Paved",
      "lengthKm": 15.7,
      "condition": "Good",
      "trafficVolume": "Low",
      "lastMaintenance": "2024-07-19T15:00:30.587842",
      "connectedVillages": [
        "Sinazongwe",
        "Vubwi",
        "Serenje",
        "Kalabo",
        "Chainda"
      ],
      "latitude": -14.4539,
      "longitude": 28.3883
    },
    {
      "id": 15,
      "chiefdom": "Chief Chitanda",
      "roadName": "Katoba - Nakatindi Road",
      "roadType": "Paved",
      "lengthKm": 7.5,
      "condition": "Critical",
      "trafficVolume": "High",
      "lastMaintenance": "2025-04-29T15:00:30.587852",
      "connectedVillages": [
        "Shangombo",
        "Chingola",
        "Mansa"
      ],
      "latitude": -14.456,
      "longitude": 28.4462
    },
    {
      "id": 16,
      "chiefdom": "Chief Chitanda",
      "roadName": "Makeni - Chama Road",
      "roadType": "Earth",
      "lengthKm": 17.8,
      "condition": "Good",
      "trafficVolume": "High",
      "lastMaintenance": "2025-03-31T15:00:30.587860",
      "connectedVillages": [
        "Mbala",
        "Kalomo",
        "Kabwe"
      ],
      "latitude": -14.3853,
      "longitude": 28.384
    },
    {
      "id": 17,
      "chiefdom": "Chief Chitanda",
      "roadName": "Munyumba - Kafue Riverside Road",
      "roadType": "Earth",
      "lengthKm": 38.7,
      "condition": "Good",
      "trafficVolume": "Low",
      "lastMaintenance": "2025-03-21T15:00:30.587869",
      "connectedVillages": [
        "Chipapa",
        "Leopards Hill"
      ],
      "latitude": -14.3509,
      "longitude": 28.5484
    },
    {
      "id": 18,
      "chiefdom": "Chief Chitanda",
      "roadName": "Mwinilunga - Kalabo Road",
      "roadType": "Gravel",
      "lengthKm": 11.4,
      "condition": "Poor",
      "trafficVolume": "High",
      "lastMaintenance": "2024-05-22T15:00:30.587877",
      "connectedVillages": [
        "Lundazi",
        "Chongwe Central",
        "Mwinilunga",
        "Munyumba"
      ],
      "latitude": -14.4979,
      "longitude": 28.5196
    },
    {
      "id": 19,
      "chiefdom": "Chief Chitanda",
      "roadName": "Makeni - Mporokoso Road",
      "roadType": "Paved",
      "lengthKm": 6.5,
      "condition": "Fair",
      "trafficVolume": "Low",
      "lastMaintenance": "2025-10-10T15:00:30.587886",
      "connectedVillages": [
        "Livingstone",
        "Ndola",
        "Mazabuka",
        "Chama",
        "Samfya"
      ],
      "latitude": -14.4946,
      "longitude": 28.3729
    },
    {
      "id": 20,
      "chiefdom": "Chief Chitanda",
      "roadName": "Shimabala - Palabana Road",
      "roadType": "Gravel",
      "lengthKm": 46.1,
      "condition": "Good",
      "trafficVolume": "High",
      "lastMaintenance": "2024-11-08T15:00:30.587895",
      "connectedVillages": [
        "Kasempa",
        "Mpika"
      ],
      "latitude": -14.5365,
      "longitude": 28.3816
    },
    {
      "id": 21,
      "chiefdom": "Chief Chitanda",
      "roadName": "Lundazi - Nchelenge Road",
      "roadType": "Tarred",
      "lengthKm": 36.5,
      "condition": "Poor",
      "trafficVolume": "High",
      "lastMaintenance": "2025-06-30T15:00:30.587903",
      "connectedVillages": [
        "Gwembe",
        "Ngwerere",
        "Mbabala"
      ],
      "latitude": -14.4904,
      "longitude": 28.4524
    },
    {
      "id": 22,
      "chiefdom": "Chief Chitanda",
      "roadName": "Mbala - Lilayi Road",
      "roadType": "Tarred",
      "lengthKm": 48.2,
      "condition": "Poor",
      "trafficVolume": "High",
      "lastMaintenance": "2024-12-21T15:00:30.587912",
      "connectedVillages": [
        "Kapiri",
        "Chalala"
      ],
      "latitude": -14.4665,
      "longitude": 28.4945
    },
    {
      "id": 23,
      "chiefdom": "Chief Chitanda",
      "roadName": "Luwingu - Chipapa Road",
      "roadType": "Gravel",
      "lengthKm": 18.7,
      "condition": "Poor",
      "trafficVolume": "Medium",
      "lastMaintenance": "2024-05-05T15:00:30.587921",
      "connectedVillages": [
        "Nchelenge",
        "Lukulu",
        "Lunsemfwa"
      ],
      "latitude": -14.5349,
      "longitude": 28.4796
    },
    {
      "id": 24,
      "chiefdom": "Chief Chitanda",
      "roadName": "Chipapa - Kanakantapa Road",
      "roadType": "Gravel",
      "lengthKm": 8.7,
      "condition": "Fair",
      "trafficVolume": "Medium",
      "lastMaintenance": "2024-03-31T15:00:30.587929",
      "connectedVillages": [
        "Luwingu",
        "Chadiza",
        "Lunsemfwa",
        "Sinazongwe"
      ],
      "latitude": -14.5191,
      "longitude": 28.4704
    },
    {
      "id": 25,
      "chiefdom": "Chief Chitanda",
      "roadName": "Chama - Livingstone Road",
      "roadType": "Tarred",
      "lengthKm": 43.8,
      "condition": "Good",
      "trafficVolume": "High",
      "lastMaintenance": "2024-10-30T15:00:30.587938",
      "connectedVillages": [
        "Mpanshya",
        "Serenje",
        "Mbala",
        "Lilayi",
        "Munyumba"
      ],
      "latitude": -14.363,
      "longitude": 28.4093
    },
    {
      "id": 26,
      "chiefdom": "Chief Chitanda",
      "roadName": "Siavonga - Nakonde Road",
      "roadType": "Gravel",
      "lengthKm": 5.3,
      "condition": "Critical",
      "trafficVolume": "Medium",
      "lastMaintenance": "2025-12-11T15:00:30.587948",
      "connectedVillages": [
        "Munyumba",
        "Sikanze",
        "Nakatindi"
      ],
      "latitude": -14.4493,
      "longitude": 28.4083
    },
    {
      "id": 27,
      "chiefdom": "Chief Chitanda",
      "roadName": "Lukulu - Kasempa Road",
      "roadType": "Earth",
      "lengthKm": 36.7,
      "condition": "Fair",
      "trafficVolume": "High",
      "lastMaintenance": "2025-03-31T15:00:30.587956",
      "connectedVillages": [
        "Lundazi",
        "Luanshya"
      ],
      "latitude": -14.4555,
      "longitude": 28.4248
    },
    {
      "id": 28,
      "chiefdom": "Chief Chitanda",
      "roadName": "Mongu - Kalabo Road",
      "roadType": "Paved",
      "lengthKm": 35.7,
      "condition": "Critical",
      "trafficVolume": "Medium",
      "lastMaintenance": "2024-02-21T15:00:30.587964",
      "connectedVillages": [
        "Vubwi",
        "Chingola"
      ],
      "latitude": -14.4388,
      "longitude": 28.5128
    },
    {
      "id": 29,
      "chiefdom": "Chief Chitanda",
      "roadName": "Choma - Mongu Road",
      "roadType": "Tarred",
      "lengthKm": 27.2,
      "condition": "Critical",
      "trafficVolume": "Low",
      "lastMaintenance": "2025-12-20T15:00:30.587973",
      "connectedVillages": [
        "Leopards Hill",
        "Chilanga",
        "Mazabuka",
        "Chingola",
        "Nchelenge"
      ],
      "latitude": -14.3527,
      "longitude": 28.372
    },
    {
      "id": 30,
      "chiefdom": "Chief Chitanda",
      "roadName": "Mbala - Mufumbwe Road",
      "roadType": "Earth",
      "lengthKm": 29.1,
      "condition": "Fair",
      "trafficVolume": "Medium",
      "lastMaintenance": "2025-02-19T15:00:30.587983",
      "connectedVillages": [
        "Mporokoso",
        "Chalala",
        "Sesheke",
        "Kanakantapa",
        "Chilanga"
      ],
      "latitude": -14.4306,
      "longitude": 28.3948
    },
    {
      "id": 31,
      "chiefdom": "Chief Chitanda",
      "roadName": "Kitwe - Kaunga Road",
      "roadType": "Tarred",
      "lengthKm": 14.8,
      "condition": "Good",
      "trafficVolume": "High",
      "lastMaintenance": "2024-03-09T15:00:30.587992",
      "connectedVillages": [
        "Chingola",
        "Choma"
      ],
      "latitude": -14.4205,
      "longitude": 28.5394
    },
    {
      "id": 32,
      "chiefdom": "Chief Chitanda",
      "roadName": "Leopards Hill - Mambwe Road",
      "roadType": "Paved",
      "lengthKm": 8.5,
      "condition": "Good",
      "trafficVolume": "Medium",
      "lastMaintenance": "2024-10-07T15:00:30.588001",
      "connectedVillages": [
        "Chainda",
        "Livingstone",
        "Chipata"
      ],
      "latitude": -14.5478,
      "longitude": 28.4837
    },
    {
      "id": 33,
      "chiefdom": "Chief Chitanda",
      "roadName": "Choma - Chama Road",
      "roadType": "Tarred",
      "lengthKm": 22.3,
      "condition": "Good",
      "trafficVolume": "Low",
      "lastMaintenance": "2024-03-21T15:00:30.588009",
      "connectedVillages": [
        "Nyimba",
        "Chama"
      ],
      "latitude": -14.4151,
      "longitude": 28.5103
    },
    {
      "id": 34,
      "chiefdom": "Chief Chitanda",
      "roadName": "Makeni - Senanga Road",
      "roadType": "Paved",
      "lengthKm": 15.5,
      "condition": "Critical",
      "trafficVolume": "High",
      "lastMaintenance": "2024-09-05T15:00:30.588018",
      "connectedVillages": [
        "Chipata",
        "Kaputa",
        "Mporokoso",
        "Kalingalinga",
        "Chibombo"
      ],
      "latitude": -14.4443,
      "longitude": 28.4497
    },
    {
      "id": 35,
      "chiefdom": "Chief Chitanda",
      "roadName": "Sinazongwe - Kapiri Road",
      "roadType": "Earth",
      "lengthKm": 30.5,
      "condition": "Fair",
      "trafficVolume": "Medium",
      "lastMaintenance": "2025-10-26T15:00:30.588027",
      "connectedVillages": [
        "Makeni",
        "Lunsemfwa",
        "Siavonga"
      ],
      "latitude": -14.3589,
      "longitude": 28.5166
    },
    {
      "id": 36,
      "chiefdom": "Chief Chitanda",
      "roadName": "Sinda - Mporokoso Road",
      "roadType": "Paved",
      "lengthKm": 26.5,
      "condition": "Fair",
      "trafficVolume": "High",
      "lastMaintenance": "2024-03-12T15:00:30.588035",
      "connectedVillages": [
        "Mansa",
        "Chilanga"
      ],
      "latitude": -14.4039,
      "longitude": 28.4458
    },
    {
      "id": 37,
      "chiefdom": "Chief Chitanda",
      "roadName": "Ndola - Kasempa Road",
      "roadType": "Earth",
      "lengthKm": 46.8,
      "condition": "Fair",
      "trafficVolume": "Medium",
      "lastMaintenance": "2025-11-20T15:00:30.588043",
      "connectedVillages": [
        "Mufumbwe",
        "Chililabombwe"
      ],
      "latitude": -14.5376,
      "longitude": 28.4474
    },
    {
      "id": 38,
      "chiefdom": "Chief Chitanda",
      "roadName": "Serenje - Luanshya Road",
      "roadType": "Earth",
      "lengthKm": 34.4,
      "condition": "Critical",
      "trafficVolume": "Medium",
      "lastMaintenance": "2025-04-09T15:00:30.588052",
      "connectedVillages": [
        "Choma",
        "Kasama"
      ],
      "latitude": -14.3626,
      "longitude": 28.5153
    },
    {
      "id": 39,
      "chiefdom": "Chief Chitanda",
      "roadName": "Sikanze - Kabwe Road",
      "roadType": "Tarred",
      "lengthKm": 42.3,
      "condition": "Good",
      "trafficVolume": "High",
      "lastMaintenance": "2024-08-17T15:00:30.588060",
      "connectedVillages": [
        "Chalala",
        "Kaoma",
        "Choma",
        "Luwingu",
        "Kafue Riverside"
      ],
      "latitude": -14.4002,
      "longitude": 28.5179
    },
    {
      "id": 40,
      "chiefdom": "Chief Chitanda",
      "roadName": "Kalomo - Chinsali Road",
      "roadType": "Gravel",
      "lengthKm": 8.2,
      "condition": "Good",
      "trafficVolume": "Medium",
      "lastMaintenance": "2024-11-17T15:00:30.588070",
      "connectedVillages": [
        "Kalingalinga",
        "Chongwe Central",
        "Petauke"
      ],
      "latitude": -14.4349,
      "longitude": 28.4048
    },
    {
      "id": 41,
      "chiefdom": "Chief Chitanda",
      "roadName": "Chibombo - Lilayi Road",
      "roadType": "Earth",
      "lengthKm": 9.4,
      "condition": "Critical",
      "trafficVolume": "High",
      "lastMaintenance": "2024-11-26T15:00:30.588078",
      "connectedVillages": [
        "Serenje",
        "Luanshya",
        "Luwingu",
        "Lundazi"
      ],
      "latitude": -14.4276,
      "longitude": 28.3672
    },
    {
      "id": 42,
      "chiefdom": "Chief Chitanda",
      "roadName": "Kasempa - Serenje Road",
      "roadType": "Gravel",
      "lengthKm": 36.9,
      "condition": "Good",
      "trafficVolume": "High",
      "lastMaintenance": "2024-03-23T15:00:30.588087",
      "connectedVillages": [
        "Katete",
        "Mufumbwe",
        "Meanwood"
      ],
      "latitude": -14.4615,
      "longitude": 28.4785
    },
    {
      "id": 43,
      "chiefdom": "Chief Chitanda",
      "roadName": "Kasempa - Mufumbwe Road",
      "roadType": "Earth",
      "lengthKm": 21.6,
      "condition": "Poor",
      "trafficVolume": "Medium",
      "lastMaintenance": "2025-11-10T15:00:30.588096",
      "connectedVillages": [
        "Pemba",
        "Kabompo",
        "Mwembezhi",
        "Nakatindi"
      ],
      "latitude": -14.5271,
      "longitude": 28.4302
    },
    {
      "id": 44,
      "chiefdom": "Chief Chitanda",
      "roadName": "Chilanga - Shimabala Road",
      "roadType": "Earth",
      "lengthKm": 30.0,
      "condition": "Poor",
      "trafficVolume": "Medium",
      "lastMaintenance": "2025-09-15T15:00:30.588105",
      "connectedVillages": [
        "Mazabuka",
        "Chinsali"
      ],
      "latitude": -14.3939,
      "longitude": 28.4016
    },
    {
      "id": 45,
      "chiefdom": "Chief Chitanda",
      "roadName": "Gwembe - Mufulira Road",
      "roadType": "Gravel",
      "lengthKm": 45.2,
      "condition": "Fair",
      "trafficVolume": "High",
      "lastMaintenance": "2025-12-06T15:00:30.588113",
      "connectedVillages": [
        "Luangwa",
        "Sinda",
        "Chinsali",
        "Livingstone",
        "Chililabombwe"
      ],
      "latitude": -14.3596,
      "longitude": 28.5159
    },
    {
      "id": 46,
      "chiefdom": "Chief Chitanda",
      "roadName": "Mbala - Kasempa Road",
      "roadType": "Paved",
      "lengthKm": 25.8,
      "condition": "Critical",
      "trafficVolume": "Low",
      "lastMaintenance": "2024-08-13T15:00:30.588122",
      "connectedVillages": [
        "Munyumba",
        "Solwezi",
        "Leopards Hill",
        "Kasempa"
      ],
      "latitude": -14.5376,
      "longitude": 28.4264
    },
    {
      "id": 47,
      "chiefdom": "Chief Chitanda",
      "roadName": "Kaoma - Kanakantapa Road",
      "roadType": "Earth",
      "lengthKm": 5.2,
      "condition": "Fair",
      "trafficVolume": "High",
      "lastMaintenance": "2024-10-11T15:00:30.588131",
      "connectedVillages": [
        "Katete",
        "Palabana"
      ],
      "latitude": -14.4464,
      "longitude": 28.4472
    },
    {
      "id": 48,
      "chiefdom": "Chief Chitanda",
      "roadName": "Kasama - Petauke Road",
      "roadType": "Paved",
      "lengthKm": 36.0,
      "condition": "Poor",
      "trafficVolume": "Medium",
      "lastMaintenance": "2025-06-12T15:00:30.588139",
      "connectedVillages": [
        "Chilanga",
        "Sinda"
      ],
      "latitude": -14.497,
      "longitude": 28.3792
    },
    {
      "id": 49,
      "chiefdom": "Chief Chitanda",
      "roadName": "Lukulu - Kasempa Road",
      "roadType": "Paved",
      "lengthKm": 13.5,
      "condition": "Good",
      "trafficVolume": "High",
      "lastMaintenance": "2025-11-15T15:00:30.588148",
      "connectedVillages": [
        "Nchelenge",
        "Luangwa"
      ],
      "latitude": -14.357,
      "longitude": 28.5403
    },
    {
      "id": 50,
      "chiefdom": "Chief Chitanda",
      "roadName": "Mumbwa - Katete Road",
      "roadType": "Gravel",
      "lengthKm": 30.7,
      "condition": "Good",
      "trafficVolume": "Medium",
      "lastMaintenance": "2025-08-12T15:00:30.588156",
      "connectedVillages": [
        "Luangwa",
        "Mutumbi",
        "Munyumba"
      ],
      "latitude": -14.3614,
      "longitude": 28.4984
    }
  ],
  "communicationTowers": [
    {
      "id": 1,
      "chiefdom": "Chief Chitanda",
      "towerName": "Kalingalinga Tower 1",
      "operator": "Zamtel",
      "towerType": "4G",
      "coverageRadius": 19.9,
      "populationCovered": 13690,
      "status": "Operational",
      "latitude": -14.4453,
      "longitude": 28.4518,
      "installationDate": "2021-09-21T15:00:30.588167"
    },
    {
      "id": 2,
      "chiefdom": "Chief Chitanda",
      "towerName": "Chainda Tower 2",
      "operator": "MTN",
      "towerType": "2G",
      "coverageRadius": 15.6,
      "populationCovered": 19845,
      "status": "Operational",
      "latitude": -14.4392,
      "longitude": 28.4669,
      "installationDate": "2023-09-16T15:00:30.588174"
    },
    {
      "id": 3,
      "chiefdom": "Chief Chitanda",
      "towerName": "Zambezi Tower 3",
      "operator": "Zamtel",
      "towerType": "2G",
      "coverageRadius": 8.3,
      "populationCovered": 22086,
      "status": "Maintenance",
      "latitude": -14.4677,
      "longitude": 28.4184,
      "installationDate": "2025-12-20T15:00:30.588181"
    },
    {
      "id": 4,
      "chiefdom": "Chief Chitanda",
      "towerName": "Lilayi Tower 4",
      "operator": "Zamtel",
      "towerType": "4G",
      "coverageRadius": 7.1,
      "populationCovered": 18397,
      "status": "Operational",
      "latitude": -14.5035,
      "longitude": 28.5359,
      "installationDate": "2024-04-07T15:00:30.588188"
    },
    {
      "id": 5,
      "chiefdom": "Chief Chitanda",
      "towerName": "Chililabombwe Tower 5",
      "operator": "Airtel",
      "towerType": "2G",
      "coverageRadius": 7.0,
      "populationCovered": 4093,
      "status": "Planned",
      "latitude": -14.4985,
      "longitude": 28.4855,
      "installationDate": "2021-06-07T15:00:30.588195"
    },
    {
      "id": 6,
      "chiefdom": "Chief Chitanda",
      "towerName": "Lukulu Tower 6",
      "operator": "Zamtel",
      "towerType": "4G",
      "coverageRadius": 18.0,
      "populationCovered": 24890,
      "status": "Planned",
      "latitude": -14.4029,
      "longitude": 28.4098,
      "installationDate": "2025-06-21T15:00:30.588202"
    },
    {
      "id": 7,
      "chiefdom": "Chief Chitanda",
      "towerName": "Makeni Tower 7",
      "operator": "Airtel",
      "towerType": "4G",
      "coverageRadius": 10.5,
      "populationCovered": 18729,
      "status": "Planned",
      "latitude": -14.4244,
      "longitude": 28.4874,
      "installationDate": "2021-11-04T15:00:30.588209"
    },
    {
      "id": 8,
      "chiefdom": "Chief Chitanda",
      "towerName": "Nyimba Tower 8",
      "operator": "MTN",
      "towerType": "3G",
      "coverageRadius": 16.6,
      "populationCovered": 12152,
      "status": "Planned",
      "latitude": -14.4634,
      "longitude": 28.3894,
      "installationDate": "2021-04-30T15:00:30.588216"
    },
    {
      "id": 9,
      "chiefdom": "Chief Chitanda",
      "towerName": "Mambwe Tower 9",
      "operator": "Airtel",
      "towerType": "4G",
      "coverageRadius": 10.4,
      "populationCovered": 15609,
      "status": "Planned",
      "latitude": -14.4645,
      "longitude": 28.4425,
      "installationDate": "2026-01-13T15:00:30.588223"
    },
    {
      "id": 10,
      "chiefdom": "Chief Chitanda",
      "towerName": "Nakonde Tower 10",
      "operator": "MTN",
      "towerType": "2G",
      "coverageRadius": 13.7,
      "populationCovered": 13838,
      "status": "Operational",
      "latitude": -14.439,
      "longitude": 28.4232,
      "installationDate": "2024-04-13T15:00:30.588230"
    },
    {
      "id": 11,
      "chiefdom": "Chief Chitanda",
      "towerName": "Mufulira Tower 11",
      "operator": "Airtel",
      "towerType": "3G",
      "coverageRadius": 6.3,
      "populationCovered": 5510,
      "status": "Planned",
      "latitude": -14.5387,
      "longitude": 28.4602,
      "installationDate": "2022-01-04T15:00:30.588237"
    },
    {
      "id": 12,
      "chiefdom": "Chief Chitanda",
      "towerName": "Lukulu Tower 12",
      "operator": "MTN",
      "towerType": "3G",
      "coverageRadius": 5.4,
      "populationCovered": 17816,
      "status": "Planned",
      "latitude": -14.4535,
      "longitude": 28.3682,
      "installationDate": "2025-05-23T15:00:30.588244"
    },
    {
      "id": 13,
      "chiefdom": "Chief Chitanda",
      "towerName": "Chisamba Tower 13",
      "operator": "MTN",
      "towerType": "2G",
      "coverageRadius": 17.3,
      "populationCovered": 7463,
      "status": "Planned",
      "latitude": -14.4088,
      "longitude": 28.5,
      "installationDate": "2025-04-09T15:00:30.588251"
    },
    {
      "id": 14,
      "chiefdom": "Chief Chitanda",
      "towerName": "Mufumbwe Tower 14",
      "operator": "Airtel",
      "towerType": "2G",
      "coverageRadius": 13.5,
      "populationCovered": 5509,
      "status": "Planned",
      "latitude": -14.4883,
      "longitude": 28.453,
      "installationDate": "2025-08-23T15:00:30.588258"
    },
    {
      "id": 15,
      "chiefdom": "Chief Chitanda",
      "towerName": "Kaoma Tower 15",
      "operator": "Zamtel",
      "towerType": "2G",
      "coverageRadius": 8.8,
      "populationCovered": 8313,
      "status": "Maintenance",
      "latitude": -14.396,
      "longitude": 28.5065,
      "installationDate": "2024-05-03T15:00:30.588265"
    },
    {
      "id": 16,
      "chiefdom": "Chief Chitanda",
      "towerName": "Kafue Riverside Tower 16",
      "operator": "MTN",
      "towerType": "3G",
      "coverageRadius": 6.6,
      "populationCovered": 9094,
      "status": "Maintenance",
      "latitude": -14.4986,
      "longitude": 28.5049,
      "installationDate": "2025-12-13T15:00:30.588272"
    },
    {
      "id": 17,
      "chiefdom": "Chief Chitanda",
      "towerName": "Katete Tower 17",
      "operator": "Zamtel",
      "towerType": "4G",
      "coverageRadius": 17.3,
      "populationCovered": 24410,
      "status": "Planned",
      "latitude": -14.4917,
      "longitude": 28.441,
      "installationDate": "2022-12-15T15:00:30.588279"
    },
    {
      "id": 18,
      "chiefdom": "Chief Chitanda",
      "towerName": "Chongwe Central Tower 18",
      "operator": "Airtel",
      "towerType": "3G",
      "coverageRadius": 20.0,
      "populationCovered": 19186,
      "status": "Planned",
      "latitude": -14.3909,
      "longitude": 28.4766,
      "installationDate": "2022-01-20T15:00:30.588286"
    },
    {
      "id": 19,
      "chiefdom": "Chief Chitanda",
      "towerName": "Ngwerere Tower 19",
      "operator": "Zamtel",
      "towerType": "3G",
      "coverageRadius": 7.4,
      "populationCovered": 17204,
      "status": "Operational",
      "latitude": -14.413,
      "longitude": 28.4945,
      "installationDate": "2022-04-26T15:00:30.588292"
    },
    {
      "id": 20,
      "chiefdom": "Chief Chitanda",
      "towerName": "Siavonga Tower 20",
      "operator": "Zamtel",
      "towerType": "4G",
      "coverageRadius": 12.4,
      "populationCovered": 24776,
      "status": "Planned",
      "latitude": -14.4858,
      "longitude": 28.3518,
      "installationDate": "2025-05-22T15:00:30.588299"
    },
    {
      "id": 21,
      "chiefdom": "Chief Chitanda",
      "towerName": "Nakonde Tower 21",
      "operator": "Airtel",
      "towerType": "3G",
      "coverageRadius": 12.7,
      "populationCovered": 4143,
      "status": "Planned",
      "latitude": -14.5432,
      "longitude": 28.3899,
      "installationDate": "2022-01-27T15:00:30.588306"
    },
    {
      "id": 22,
      "chiefdom": "Chief Chitanda",
      "towerName": "Chama Tower 22",
      "operator": "Zamtel",
      "towerType": "2G",
      "coverageRadius": 18.9,
      "populationCovered": 18967,
      "status": "Planned",
      "latitude": -14.4217,
      "longitude": 28.4806,
      "installationDate": "2022-05-04T15:00:30.588351"
    },
    {
      "id": 23,
      "chiefdom": "Chief Chitanda",
      "towerName": "Mpika Tower 23",
      "operator": "Zamtel",
      "towerType": "4G",
      "coverageRadius": 17.4,
      "populationCovered": 13766,
      "status": "Planned",
      "latitude": -14.3781,
      "longitude": 28.4033,
      "installationDate": "2025-11-08T15:00:30.588359"
    },
    {
      "id": 24,
      "chiefdom": "Chief Chitanda",
      "towerName": "Chalimbana Tower 24",
      "operator": "Zamtel",
      "towerType": "4G",
      "coverageRadius": 17.9,
      "populationCovered": 22866,
      "status": "Operational",
      "latitude": -14.4673,
      "longitude": 28.5227,
      "installationDate": "2022-09-21T15:00:30.588367"
    },
    {
      "id": 25,
      "chiefdom": "Chief Chitanda",
      "towerName": "Kalabo Tower 25",
      "operator": "Zamtel",
      "towerType": "4G",
      "coverageRadius": 16.7,
      "populationCovered": 15300,
      "status": "Maintenance",
      "latitude": -14.3819,
      "longitude": 28.4031,
      "installationDate": "2022-01-18T15:00:30.588374"
    },
    {
      "id": 26,
      "chiefdom": "Chief Chitanda",
      "towerName": "Gwembe Tower 26",
      "operator": "Airtel",
      "towerType": "2G",
      "coverageRadius": 5.4,
      "populationCovered": 4934,
      "status": "Planned",
      "latitude": -14.4054,
      "longitude": 28.4457,
      "installationDate": "2025-11-11T15:00:30.588381"
    },
    {
      "id": 27,
      "chiefdom": "Chief Chitanda",
      "towerName": "Senanga Tower 27",
      "operator": "Airtel",
      "towerType": "2G",
      "coverageRadius": 13.1,
      "populationCovered": 24448,
      "status": "Maintenance",
      "latitude": -14.519,
      "longitude": 28.3703,
      "installationDate": "2024-09-18T15:00:30.588388"
    },
    {
      "id": 28,
      "chiefdom": "Chief Chitanda",
      "towerName": "Luanshya Tower 28",
      "operator": "Airtel",
      "towerType": "2G",
      "coverageRadius": 10.3,
      "populationCovered": 9495,
      "status": "Planned",
      "latitude": -14.4267,
      "longitude": 28.4361,
      "installationDate": "2022-07-10T15:00:30.588395"
    },
    {
      "id": 29,
      "chiefdom": "Chief Chitanda",
      "towerName": "Kitwe Tower 29",
      "operator": "MTN",
      "towerType": "2G",
      "coverageRadius": 11.8,
      "populationCovered": 20061,
      "status": "Maintenance",
      "latitude": -14.4083,
      "longitude": 28.4003,
      "installationDate": "2026-01-11T15:00:30.588402"
    },
    {
      "id": 30,
      "chiefdom": "Chief Chitanda",
      "towerName": "Sesheke Tower 30",
      "operator": "MTN",
      "towerType": "4G",
      "coverageRadius": 15.3,
      "populationCovered": 19899,
      "status": "Planned",
      "latitude": -14.3791,
      "longitude": 28.5274,
      "installationDate": "2025-01-03T15:00:30.588409"
    },
    {
      "id": 31,
      "chiefdom": "Chief Chitanda",
      "towerName": "Chadiza Tower 31",
      "operator": "Airtel",
      "towerType": "4G",
      "coverageRadius": 16.4,
      "populationCovered": 9327,
      "status": "Planned",
      "latitude": -14.4979,
      "longitude": 28.4913,
      "installationDate": "2023-03-04T15:00:30.588423"
    },
    {
      "id": 32,
      "chiefdom": "Chief Chitanda",
      "towerName": "Vubwi Tower 32",
      "operator": "Airtel",
      "towerType": "2G",
      "coverageRadius": 17.3,
      "populationCovered": 11530,
      "status": "Planned",
      "latitude": -14.517,
      "longitude": 28.4855,
      "installationDate": "2021-11-12T15:00:30.588430"
    },
    {
      "id": 33,
      "chiefdom": "Chief Chitanda",
      "towerName": "Chipapa Tower 33",
      "operator": "Zamtel",
      "towerType": "2G",
      "coverageRadius": 14.7,
      "populationCovered": 9486,
      "status": "Planned",
      "latitude": -14.5412,
      "longitude": 28.3595,
      "installationDate": "2023-09-22T15:00:30.588437"
    },
    {
      "id": 34,
      "chiefdom": "Chief Chitanda",
      "towerName": "Kasama Tower 34",
      "operator": "MTN",
      "towerType": "3G",
      "coverageRadius": 11.5,
      "populationCovered": 10074,
      "status": "Planned",
      "latitude": -14.4013,
      "longitude": 28.4501,
      "installationDate": "2025-12-16T15:00:30.588444"
    },
    {
      "id": 35,
      "chiefdom": "Chief Chitanda",
      "towerName": "Samfya Tower 35",
      "operator": "Zamtel",
      "towerType": "3G",
      "coverageRadius": 17.4,
      "populationCovered": 14761,
      "status": "Operational",
      "latitude": -14.3559,
      "longitude": 28.3748,
      "installationDate": "2023-12-15T15:00:30.588451"
    },
    {
      "id": 36,
      "chiefdom": "Chief Chitanda",
      "towerName": "Samfya Tower 36",
      "operator": "Zamtel",
      "towerType": "2G",
      "coverageRadius": 15.3,
      "populationCovered": 18377,
      "status": "Maintenance",
      "latitude": -14.4565,
      "longitude": 28.4193,
      "installationDate": "2025-05-06T15:00:30.588458"
    },
    {
      "id": 37,
      "chiefdom": "Chief Chitanda",
      "towerName": "Luwingu Tower 37",
      "operator": "Airtel",
      "towerType": "3G",
      "coverageRadius": 9.7,
      "populationCovered": 6169,
      "status": "Maintenance",
      "latitude": -14.4072,
      "longitude": 28.5362,
      "installationDate": "2024-10-24T15:00:30.588465"
    },
    {
      "id": 38,
      "chiefdom": "Chief Chitanda",
      "towerName": "Samfya Tower 38",
      "operator": "Airtel",
      "towerType": "4G",
      "coverageRadius": 8.5,
      "populationCovered": 14715,
      "status": "Planned",
      "latitude": -14.3909,
      "longitude": 28.3849,
      "installationDate": "2025-11-20T15:00:30.588472"
    },
    {
      "id": 39,
      "chiefdom": "Chief Chitanda",
      "towerName": "Chililabombwe Tower 39",
      "operator": "Zamtel",
      "towerType": "4G",
      "coverageRadius": 17.1,
      "populationCovered": 20499,
      "status": "Planned",
      "latitude": -14.3838,
      "longitude": 28.3795,
      "installationDate": "2023-11-02T15:00:30.588479"
    },
    {
      "id": 40,
      "chiefdom": "Chief Chitanda",
      "towerName": "Mumbwa Tower 40",
      "operator": "Airtel",
      "towerType": "2G",
      "coverageRadius": 15.7,
      "populationCovered": 23980,
      "status": "Planned",
      "latitude": -14.5333,
      "longitude": 28.4478,
      "installationDate": "2022-08-02T15:00:30.588486"
    },
    {
      "id": 41,
      "chiefdom": "Chief Chitanda",
      "towerName": "Kalulushi Tower 41",
      "operator": "Zamtel",
      "towerType": "4G",
      "coverageRadius": 17.6,
      "populationCovered": 17252,
      "status": "Planned",
      "latitude": -14.4359,
      "longitude": 28.4914,
      "installationDate": "2023-10-16T15:00:30.588493"
    },
    {
      "id": 42,
      "chiefdom": "Chief Chitanda",
      "towerName": "Kawambwa Tower 42",
      "operator": "Zamtel",
      "towerType": "4G",
      "coverageRadius": 15.4,
      "populationCovered": 13340,
      "status": "Operational",
      "latitude": -14.4615,
      "longitude": 28.3935,
      "installationDate": "2021-11-25T15:00:30.588500"
    },
    {
      "id": 43,
      "chiefdom": "Chief Chitanda",
      "towerName": "Mufulira Tower 43",
      "operator": "MTN",
      "towerType": "2G",
      "coverageRadius": 19.3,
      "populationCovered": 15775,
      "status": "Operational",
      "latitude": -14.3845,
      "longitude": 28.3557,
      "installationDate": "2021-06-18T15:00:30.588506"
    },
    {
      "id": 44,
      "chiefdom": "Chief Chitanda",
      "towerName": "Mufulira Tower 44",
      "operator": "Airtel",
      "towerType": "2G",
      "coverageRadius": 17.8,
      "populationCovered": 16026,
      "status": "Maintenance",
      "latitude": -14.5003,
      "longitude": 28.4398,
      "installationDate": "2023-01-20T15:00:30.588513"
    },
    {
      "id": 45,
      "chiefdom": "Chief Chitanda",
      "towerName": "Mbabala Tower 45",
      "operator": "MTN",
      "towerType": "2G",
      "coverageRadius": 7.6,
      "populationCovered": 12583,
      "status": "Maintenance",
      "latitude": -14.5045,
      "longitude": 28.37,
      "installationDate": "2025-05-12T15:00:30.588520"
    },
    {
      "id": 46,
      "chiefdom": "Chief Chitanda",
      "towerName": "Lundazi Tower 46",
      "operator": "Airtel",
      "towerType": "4G",
      "coverageRadius": 8.7,
      "populationCovered": 10994,
      "status": "Maintenance",
      "latitude": -14.4052,
      "longitude": 28.4735,
      "installationDate": "2023-02-17T15:00:30.588527"
    },
    {
      "id": 47,
      "chiefdom": "Chief Chitanda",
      "towerName": "Sesheke Tower 47",
      "operator": "MTN",
      "towerType": "2G",
      "coverageRadius": 7.4,
      "populationCovered": 23896,
      "status": "Planned",
      "latitude": -14.4832,
      "longitude": 28.4218,
      "installationDate": "2024-01-08T15:00:30.588534"
    },
    {
      "id": 48,
      "chiefdom": "Chief Chitanda",
      "towerName": "Sinazongwe Tower 48",
      "operator": "Airtel",
      "towerType": "3G",
      "coverageRadius": 8.5,
      "populationCovered": 7817,
      "status": "Maintenance",
      "latitude": -14.3956,
      "longitude": 28.5348,
      "installationDate": "2023-03-17T15:00:30.588541"
    },
    {
      "id": 49,
      "chiefdom": "Chief Chitanda",
      "towerName": "Samfya Tower 49",
      "operator": "Airtel",
      "towerType": "4G",
      "coverageRadius": 18.6,
      "populationCovered": 7455,
      "status": "Planned",
      "latitude": -14.4706,
      "longitude": 28.3521,
      "installationDate": "2022-03-15T15:00:30.588548"
    },
    {
      "id": 50,
      "chiefdom": "Chief Chitanda",
      "towerName": "Mwembezhi Tower 50",
      "operator": "MTN",
      "towerType": "3G",
      "coverageRadius": 18.9,
      "populationCovered": 24843,
      "status": "Maintenance",
      "latitude": -14.4309,
      "longitude": 28.3651,
      "installationDate": "2022-05-09T15:00:30.588554"
    }
  ],
  "connectivityAreas": [
    {
      "id": 1,
      "chiefdom": "Chief Chitanda",
      "areaName": "Mbabala Connectivity 1",
      "population": 5357,
      "mobileSignalQuality": "Excellent",
      "internetAvailability": "None",
      "roadAccess": "Poor",
      "electricityAccess": true,
      "latitude": -14.4051,
      "longitude": 28.3971
    },
    {
      "id": 2,
      "chiefdom": "Chief Chitanda",
      "areaName": "Mkushi Connectivity 2",
      "population": 6189,
      "mobileSignalQuality": "Poor",
      "internetAvailability": "Available",
      "roadAccess": "Poor",
      "electricityAccess": true,
      "latitude": -14.441,
      "longitude": 28.3577
    },
    {
      "id": 3,
      "chiefdom": "Chief Chitanda",
      "areaName": "Solwezi Connectivity 3",
      "population": 4268,
      "mobileSignalQuality": "Good",
      "internetAvailability": "Available",
      "roadAccess": "Good",
      "electricityAccess": true,
      "latitude": -14.5486,
      "longitude": 28.4395
    },
    {
      "id": 4,
      "chiefdom": "Chief Chitanda",
      "areaName": "Sinazongwe Connectivity 4",
      "population": 6327,
      "mobileSignalQuality": "None",
      "internetAvailability": "Limited",
      "roadAccess": "Poor",
      "electricityAccess": true,
      "latitude": -14.4035,
      "longitude": 28.4196
    },
    {
      "id": 5,
      "chiefdom": "Chief Chitanda",
      "areaName": "Mambwe Connectivity 5",
      "population": 13646,
      "mobileSignalQuality": "Fair",
      "internetAvailability": "Available",
      "roadAccess": "Poor",
      "electricityAccess": true,
      "latitude": -14.54,
      "longitude": 28.3746
    },
    {
      "id": 6,
      "chiefdom": "Chief Chitanda",
      "areaName": "Kasempa Connectivity 6",
      "population": 8846,
      "mobileSignalQuality": "Fair",
      "internetAvailability": "None",
      "roadAccess": "Poor",
      "electricityAccess": true,
      "latitude": -14.4842,
      "longitude": 28.4669
    },
    {
      "id": 7,
      "chiefdom": "Chief Chitanda",
      "areaName": "Sikanze Connectivity 7",
      "population": 3780,
      "mobileSignalQuality": "Excellent",
      "internetAvailability": "Available",
      "roadAccess": "Fair",
      "electricityAccess": true,
      "latitude": -14.3764,
      "longitude": 28.4243
    },
    {
      "id": 8,
      "chiefdom": "Chief Chitanda",
      "areaName": "Nyimba Connectivity 8",
      "population": 10285,
      "mobileSignalQuality": "Poor",
      "internetAvailability": "None",
      "roadAccess": "Fair",
      "electricityAccess": true,
      "latitude": -14.5234,
      "longitude": 28.3649
    },
    {
      "id": 9,
      "chiefdom": "Chief Chitanda",
      "areaName": "Shimabala Connectivity 9",
      "population": 10150,
      "mobileSignalQuality": "Poor",
      "internetAvailability": "Limited",
      "roadAccess": "Poor",
      "electricityAccess": true,
      "latitude": -14.3897,
      "longitude": 28.436
    },
    {
      "id": 10,
      "chiefdom": "Chief Chitanda",
      "areaName": "Lundazi Connectivity 10",
      "population": 7502,
      "mobileSignalQuality": "Fair",
      "internetAvailability": "Limited",
      "roadAccess": "Good",
      "electricityAccess": false,
      "latitude": -14.3962,
      "longitude": 28.5172
    },
    {
      "id": 11,
      "chiefdom": "Chief Chitanda",
      "areaName": "Petauke Connectivity 11",
      "population": 4240,
      "mobileSignalQuality": "Good",
      "internetAvailability": "Available",
      "roadAccess": "Poor",
      "electricityAccess": true,
      "latitude": -14.3924,
      "longitude": 28.5447
    },
    {
      "id": 12,
      "chiefdom": "Chief Chitanda",
      "areaName": "Zambezi Connectivity 12",
      "population": 8310,
      "mobileSignalQuality": "None",
      "internetAvailability": "None",
      "roadAccess": "Poor",
      "electricityAccess": false,
      "latitude": -14.3794,
      "longitude": 28.3919
    },
    {
      "id": 13,
      "chiefdom": "Chief Chitanda",
      "areaName": "Chinsali Connectivity 13",
      "population": 9245,
      "mobileSignalQuality": "Excellent",
      "internetAvailability": "Available",
      "roadAccess": "Poor",
      "electricityAccess": true,
      "latitude": -14.4853,
      "longitude": 28.4356
    },
    {
      "id": 14,
      "chiefdom": "Chief Chitanda",
      "areaName": "Solwezi Connectivity 14",
      "population": 14650,
      "mobileSignalQuality": "Excellent",
      "internetAvailability": "Limited",
      "roadAccess": "Fair",
      "electricityAccess": false,
      "latitude": -14.4009,
      "longitude": 28.445
    },
    {
      "id": 15,
      "chiefdom": "Chief Chitanda",
      "areaName": "Kasempa Connectivity 15",
      "population": 11298,
      "mobileSignalQuality": "Excellent",
      "internetAvailability": "Limited",
      "roadAccess": "Good",
      "electricityAccess": false,
      "latitude": -14.3603,
      "longitude": 28.4155
    },
    {
      "id": 16,
      "chiefdom": "Chief Chitanda",
      "areaName": "Mbala Connectivity 16",
      "population": 14814,
      "mobileSignalQuality": "Good",
      "internetAvailability": "Limited",
      "roadAccess": "Poor",
      "electricityAccess": true,
      "latitude": -14.3719,
      "longitude": 28.4148
    },
    {
      "id": 17,
      "chiefdom": "Chief Chitanda",
      "areaName": "Senanga Connectivity 17",
      "population": 6353,
      "mobileSignalQuality": "None",
      "internetAvailability": "Available",
      "roadAccess": "Fair",
      "electricityAccess": true,
      "latitude": -14.4597,
      "longitude": 28.5008
    },
    {
      "id": 18,
      "chiefdom": "Chief Chitanda",
      "areaName": "Chalimbana Connectivity 18",
      "population": 12298,
      "mobileSignalQuality": "Excellent",
      "internetAvailability": "Limited",
      "roadAccess": "Good",
      "electricityAccess": true,
      "latitude": -14.4707,
      "longitude": 28.3774
    },
    {
      "id": 19,
      "chiefdom": "Chief Chitanda",
      "areaName": "Mansa Connectivity 19",
      "population": 7874,
      "mobileSignalQuality": "Fair",
      "internetAvailability": "None",
      "roadAccess": "Fair",
      "electricityAccess": true,
      "latitude": -14.3767,
      "longitude": 28.3766
    },
    {
      "id": 20,
      "chiefdom": "Chief Chitanda",
      "areaName": "Senanga Connectivity 20",
      "population": 9926,
      "mobileSignalQuality": "None",
      "internetAvailability": "None",
      "roadAccess": "Poor",
      "electricityAccess": true,
      "latitude": -14.4597,
      "longitude": 28.3736
    },
    {
      "id": 21,
      "chiefdom": "Chief Chitanda",
      "areaName": "Chilanga Connectivity 21",
      "population": 2543,
      "mobileSignalQuality": "Excellent",
      "internetAvailability": "None",
      "roadAccess": "Poor",
      "electricityAccess": true,
      "latitude": -14.4526,
      "longitude": 28.5246
    },
    {
      "id": 22,
      "chiefdom": "Chief Chitanda",
      "areaName": "Meanwood Connectivity 22",
      "population": 11123,
      "mobileSignalQuality": "Fair",
      "internetAvailability": "None",
      "roadAccess": "Poor",
      "electricityAccess": false,
      "latitude": -14.5151,
      "longitude": 28.5174
    },
    {
      "id": 23,
      "chiefdom": "Chief Chitanda",
      "areaName": "Mkushi Connectivity 23",
      "population": 7676,
      "mobileSignalQuality": "Good",
      "internetAvailability": "None",
      "roadAccess": "Poor",
      "electricityAccess": true,
      "latitude": -14.4271,
      "longitude": 28.5236
    },
    {
      "id": 24,
      "chiefdom": "Chief Chitanda",
      "areaName": "Siavonga Connectivity 24",
      "population": 13721,
      "mobileSignalQuality": "Good",
      "internetAvailability": "None",
      "roadAccess": "Fair",
      "electricityAccess": true,
      "latitude": -14.445,
      "longitude": 28.3931
    },
    {
      "id": 25,
      "chiefdom": "Chief Chitanda",
      "areaName": "Kitwe Connectivity 25",
      "population": 9393,
      "mobileSignalQuality": "Poor",
      "internetAvailability": "Available",
      "roadAccess": "Fair",
      "electricityAccess": true,
      "latitude": -14.5014,
      "longitude": 28.3763
    },
    {
      "id": 26,
      "chiefdom": "Chief Chitanda",
      "areaName": "Chililabombwe Connectivity 26",
      "population": 11022,
      "mobileSignalQuality": "Excellent",
      "internetAvailability": "Limited",
      "roadAccess": "Poor",
      "electricityAccess": true,
      "latitude": -14.3527,
      "longitude": 28.4551
    },
    {
      "id": 27,
      "chiefdom": "Chief Chitanda",
      "areaName": "Kapiri Connectivity 27",
      "population": 5459,
      "mobileSignalQuality": "Excellent",
      "internetAvailability": "None",
      "roadAccess": "Good",
      "electricityAccess": true,
      "latitude": -14.366,
      "longitude": 28.3733
    },
    {
      "id": 28,
      "chiefdom": "Chief Chitanda",
      "areaName": "Livingstone Connectivity 28",
      "population": 5483,
      "mobileSignalQuality": "Fair",
      "internetAvailability": "None",
      "roadAccess": "Fair",
      "electricityAccess": false,
      "latitude": -14.3807,
      "longitude": 28.4937
    },
    {
      "id": 29,
      "chiefdom": "Chief Chitanda",
      "areaName": "Mpika Connectivity 29",
      "population": 14081,
      "mobileSignalQuality": "None",
      "internetAvailability": "None",
      "roadAccess": "Fair",
      "electricityAccess": true,
      "latitude": -14.3708,
      "longitude": 28.4431
    },
    {
      "id": 30,
      "chiefdom": "Chief Chitanda",
      "areaName": "Luanshya Connectivity 30",
      "population": 12454,
      "mobileSignalQuality": "None",
      "internetAvailability": "Limited",
      "roadAccess": "Fair",
      "electricityAccess": true,
      "latitude": -14.4461,
      "longitude": 28.5349
    },
    {
      "id": 31,
      "chiefdom": "Chief Chitanda",
      "areaName": "Kanakantapa Connectivity 31",
      "population": 12341,
      "mobileSignalQuality": "None",
      "internetAvailability": "Limited",
      "roadAccess": "Fair",
      "electricityAccess": true,
      "latitude": -14.4583,
      "longitude": 28.431
    },
    {
      "id": 32,
      "chiefdom": "Chief Chitanda",
      "areaName": "Choma Connectivity 32",
      "population": 5748,
      "mobileSignalQuality": "Good",
      "internetAvailability": "None",
      "roadAccess": "Fair",
      "electricityAccess": false,
      "latitude": -14.4923,
      "longitude": 28.5465
    },
    {
      "id": 33,
      "chiefdom": "Chief Chitanda",
      "areaName": "Chingola Connectivity 33",
      "population": 13840,
      "mobileSignalQuality": "Fair",
      "internetAvailability": "None",
      "roadAccess": "Fair",
      "electricityAccess": true,
      "latitude": -14.5269,
      "longitude": 28.4008
    },
    {
      "id": 34,
      "chiefdom": "Chief Chitanda",
      "areaName": "Mumbwa Connectivity 34",
      "population": 4439,
      "mobileSignalQuality": "Excellent",
      "internetAvailability": "Available",
      "roadAccess": "Poor",
      "electricityAccess": false,
      "latitude": -14.455,
      "longitude": 28.4447
    },
    {
      "id": 35,
      "chiefdom": "Chief Chitanda",
      "areaName": "Kalomo Connectivity 35",
      "population": 4341,
      "mobileSignalQuality": "Good",
      "internetAvailability": "None",
      "roadAccess": "Good",
      "electricityAccess": false,
      "latitude": -14.3697,
      "longitude": 28.4969
    },
    {
      "id": 36,
      "chiefdom": "Chief Chitanda",
      "areaName": "Senanga Connectivity 36",
      "population": 8877,
      "mobileSignalQuality": "Poor",
      "internetAvailability": "Limited",
      "roadAccess": "Fair",
      "electricityAccess": true,
      "latitude": -14.3739,
      "longitude": 28.5079
    },
    {
      "id": 37,
      "chiefdom": "Chief Chitanda",
      "areaName": "Katete Connectivity 37",
      "population": 12990,
      "mobileSignalQuality": "Fair",
      "internetAvailability": "Limited",
      "roadAccess": "Fair",
      "electricityAccess": false,
      "latitude": -14.4713,
      "longitude": 28.4694
    },
    {
      "id": 38,
      "chiefdom": "Chief Chitanda",
      "areaName": "Chinsali Connectivity 38",
      "population": 3706,
      "mobileSignalQuality": "Good",
      "internetAvailability": "Available",
      "roadAccess": "Fair",
      "electricityAccess": false,
      "latitude": -14.4762,
      "longitude": 28.5261
    },
    {
      "id": 39,
      "chiefdom": "Chief Chitanda",
      "areaName": "Mazabuka Connectivity 39",
      "population": 6019,
      "mobileSignalQuality": "Fair",
      "internetAvailability": "Available",
      "roadAccess": "Good",
      "electricityAccess": false,
      "latitude": -14.4841,
      "longitude": 28.3918
    },
    {
      "id": 40,
      "chiefdom": "Chief Chitanda",
      "areaName": "Chama Connectivity 40",
      "population": 8940,
      "mobileSignalQuality": "None",
      "internetAvailability": "Available",
      "roadAccess": "Poor",
      "electricityAccess": true,
      "latitude": -14.4696,
      "longitude": 28.5271
    },
    {
      "id": 41,
      "chiefdom": "Chief Chitanda",
      "areaName": "Mwembezhi Connectivity 41",
      "population": 8982,
      "mobileSignalQuality": "Excellent",
      "internetAvailability": "Limited",
      "roadAccess": "Fair",
      "electricityAccess": true,
      "latitude": -14.4907,
      "longitude": 28.3717
    },
    {
      "id": 42,
      "chiefdom": "Chief Chitanda",
      "areaName": "Mufulira Connectivity 42",
      "population": 14710,
      "mobileSignalQuality": "None",
      "internetAvailability": "None",
      "roadAccess": "Fair",
      "electricityAccess": true,
      "latitude": -14.4568,
      "longitude": 28.5122
    },
    {
      "id": 43,
      "chiefdom": "Chief Chitanda",
      "areaName": "Sinazongwe Connectivity 43",
      "population": 3505,
      "mobileSignalQuality": "None",
      "internetAvailability": "Limited",
      "roadAccess": "Fair",
      "electricityAccess": true,
      "latitude": -14.3532,
      "longitude": 28.507
    },
    {
      "id": 44,
      "chiefdom": "Chief Chitanda",
      "areaName": "Ngwerere Connectivity 44",
      "population": 6509,
      "mobileSignalQuality": "Excellent",
      "internetAvailability": "Limited",
      "roadAccess": "Poor",
      "electricityAccess": true,
      "latitude": -14.4581,
      "longitude": 28.4427
    },
    {
      "id": 45,
      "chiefdom": "Chief Chitanda",
      "areaName": "Kasempa Connectivity 45",
      "population": 8337,
      "mobileSignalQuality": "Fair",
      "internetAvailability": "None",
      "roadAccess": "Poor",
      "electricityAccess": true,
      "latitude": -14.5253,
      "longitude": 28.4834
    },
    {
      "id": 46,
      "chiefdom": "Chief Chitanda",
      "areaName": "Chalimbana Connectivity 46",
      "population": 5293,
      "mobileSignalQuality": "Poor",
      "internetAvailability": "Limited",
      "roadAccess": "Poor",
      "electricityAccess": true,
      "latitude": -14.4812,
      "longitude": 28.4974
    },
    {
      "id": 47,
      "chiefdom": "Chief Chitanda",
      "areaName": "Luanshya Connectivity 47",
      "population": 2329,
      "mobileSignalQuality": "Fair",
      "internetAvailability": "Limited",
      "roadAccess": "Good",
      "electricityAccess": true,
      "latitude": -14.5455,
      "longitude": 28.5014
    },
    {
      "id": 48,
      "chiefdom": "Chief Chitanda",
      "areaName": "Mufumbwe Connectivity 48",
      "population": 4502,
      "mobileSignalQuality": "None",
      "internetAvailability": "None",
      "roadAccess": "Poor",
      "electricityAccess": false,
      "latitude": -14.53,
      "longitude": 28.3609
    },
    {
      "id": 49,
      "chiefdom": "Chief Chitanda",
      "areaName": "Mumbwa Connectivity 49",
      "population": 10220,
      "mobileSignalQuality": "Fair",
      "internetAvailability": "Limited",
      "roadAccess": "Good",
      "electricityAccess": true,
      "latitude": -14.3646,
      "longitude": 28.5492
    },
    {
      "id": 50,
      "chiefdom": "Chief Chitanda",
      "areaName": "Kaoma Connectivity 50",
      "population": 2261,
      "mobileSignalQuality": "Fair",
      "internetAvailability": "None",
      "roadAccess": "Poor",
      "electricityAccess": true,
      "latitude": -14.4865,
      "longitude": 28.3783
    }
  ],
  "bridges": [
    {
      "id": 1,
      "chiefdom": "Chief Chitanda",
      "bridgeName": "Isoka Bridge 1",
      "bridgeType": "Wooden",
      "lengthMeters": 261,
      "condition": "Poor",
      "waterBody": "Creek",
      "trafficCapacity": "Heavy",
      "lastInspection": "2025-03-12T15:00:30.588718",
      "latitude": -14.3923,
      "longitude": 28.3991
    },
    {
      "id": 2,
      "chiefdom": "Chief Chitanda",
      "bridgeName": "Lundazi Bridge 2",
      "bridgeType": "Suspension",
      "lengthMeters": 236,
      "condition": "Fair",
      "waterBody": "Creek",
      "trafficCapacity": "Light",
      "lastInspection": "2025-12-31T15:00:30.588725",
      "latitude": -14.4863,
      "longitude": 28.3948
    },
    {
      "id": 3,
      "chiefdom": "Chief Chitanda",
      "bridgeName": "Chalala Bridge 3",
      "bridgeType": "Suspension",
      "lengthMeters": 195,
      "condition": "Critical",
      "waterBody": "Creek",
      "trafficCapacity": "Medium",
      "lastInspection": "2025-05-24T15:00:30.588732",
      "latitude": -14.45,
      "longitude": 28.5285
    },
    {
      "id": 4,
      "chiefdom": "Chief Chitanda",
      "bridgeName": "Luanshya Bridge 4",
      "bridgeType": "Suspension",
      "lengthMeters": 181,
      "condition": "Good",
      "waterBody": "River",
      "trafficCapacity": "Light",
      "lastInspection": "2025-05-11T15:00:30.588740",
      "latitude": -14.3741,
      "longitude": 28.4402
    },
    {
      "id": 5,
      "chiefdom": "Chief Chitanda",
      "bridgeName": "Kapiri Bridge 5",
      "bridgeType": "Suspension",
      "lengthMeters": 142,
      "condition": "Fair",
      "waterBody": "Creek",
      "trafficCapacity": "Heavy",
      "lastInspection": "2025-02-08T15:00:30.588747",
      "latitude": -14.541,
      "longitude": 28.3509
    },
    {
      "id": 6,
      "chiefdom": "Chief Chitanda",
      "bridgeName": "Nakatindi Bridge 6",
      "bridgeType": "Suspension",
      "lengthMeters": 264,
      "condition": "Critical",
      "waterBody": "Creek",
      "trafficCapacity": "Light",
      "lastInspection": "2025-11-22T15:00:30.588754",
      "latitude": -14.4808,
      "longitude": 28.5334
    },
    {
      "id": 7,
      "chiefdom": "Chief Chitanda",
      "bridgeName": "Kawambwa Bridge 7",
      "bridgeType": "Steel",
      "lengthMeters": 131,
      "condition": "Good",
      "waterBody": "River",
      "trafficCapacity": "Light",
      "lastInspection": "2025-12-07T15:00:30.588761",
      "latitude": -14.5098,
      "longitude": 28.5124
    },
    {
      "id": 8,
      "chiefdom": "Chief Chitanda",
      "bridgeName": "Kalabo Bridge 8",
      "bridgeType": "Steel",
      "lengthMeters": 110,
      "condition": "Good",
      "waterBody": "Stream",
      "trafficCapacity": "Heavy",
      "lastInspection": "2025-02-19T15:00:30.588768",
      "latitude": -14.3899,
      "longitude": 28.4449
    },
    {
      "id": 9,
      "chiefdom": "Chief Chitanda",
      "bridgeName": "Chililabombwe Bridge 9",
      "bridgeType": "Suspension",
      "lengthMeters": 27,
      "condition": "Critical",
      "waterBody": "Creek",
      "trafficCapacity": "Medium",
      "lastInspection": "2025-06-11T15:00:30.588774",
      "latitude": -14.4781,
      "longitude": 28.4327
    },
    {
      "id": 10,
      "chiefdom": "Chief Chitanda",
      "bridgeName": "Chisamba Bridge 10",
      "bridgeType": "Steel",
      "lengthMeters": 237,
      "condition": "Poor",
      "waterBody": "River",
      "trafficCapacity": "Medium",
      "lastInspection": "2025-06-30T15:00:30.588781",
      "latitude": -14.3932,
      "longitude": 28.5485
    }
  ]
}