{
  "populationDemographics": {
    "id": 1,
    "chiefdom": "Chief Nzamane",
    "district": "Katete",
    "province": "Eastern",
    "totalPopulation": 71999,
    "numberOfVillages": 32,
    "numberOfHouseholds": 17502,
    "malePopulation": 29041,
    "femalePopulation": 34180,
    "youthPopulation": 27552,
    "elderlyPopulation": 2761,
    "populationDensity": 47.8,
    "censusDate": "2025-08-19T15:00:30.687029"
  },
  "villages": [
    {
      "id": 1,
      "name": "Chongwe Central 1",
      "chiefdom": "Chief Nzamane",
      "population": 13456,
      "numberOfHouseholds": 2123,
      "villageHead": "Mrs. Linda Chiluba",
      "latitude": -13.9759,
      "longitude": 31.9462,
      "distanceToNearestHospital": 5.2,
      "distanceToNearestSchool": 0.9,
      "primaryEconomicActivity": "Mining",
      "hasElectricity": true,
      "hasCleanWater": true
    },
    {
      "id": 2,
      "name": "Kafue Riverside 1",
      "chiefdom": "Chief Nzamane",
      "population": 6728,
      "numberOfHouseholds": 1068,
      "villageHead": "Mrs. Elizabeth Mutale",
      "latitude": -14.0719,
      "longitude": 32.0512,
      "distanceToNearestHospital": 5.7,
      "distanceToNearestSchool": 10.5,
      "primaryEconomicActivity": "Mining",
      "hasElectricity": false,
      "hasCleanWater": false
    },
    {
      "id": 3,
      "name": "Munyumba 1",
      "chiefdom": "Chief Nzamane",
      "population": 3176,
      "numberOfHouseholds": 767,
      "villageHead": "Mr. William Chisenga",
      "latitude": -14.079,
      "longitude": 32.0571,
      "distanceToNearestHospital": 6.7,
      "distanceToNearestSchool": 11.1,
      "primaryEconomicActivity": "Farming",
      "hasElectricity": true,
      "hasCleanWater": true
    },
    {
      "id": 4,
      "name": "Kalingalinga 1",
      "chiefdom": "Chief Nzamane",
      "population": 10669,
      "numberOfHouseholds": 657,
      "villageHead": "Mrs. Joyce Banda",
      "latitude": -13.9912,
      "longitude": 31.9901,
      "distanceToNearestHospital": 20.7,
      "distanceToNearestSchool": 10.9,
      "primaryEconomicActivity": "Trading",
      "hasElectricity": false,
      "hasCleanWater": false
    },
    {
      "id": 5,
      "name": "Chilanga 1",
      "chiefdom": "Chief Nzamane",
      "population": 3268,
      "numberOfHouseholds": 2850,
      "villageHead": "Mr. Steven Daka",
      "latitude": -14.0331,
      "longitude": 32.0794,
      "distanceToNearestHospital": 4.5,
      "distanceToNearestSchool": 3.6,
      "primaryEconomicActivity": "Farming",
      "hasElectricity": true,
      "hasCleanWater": false
    },
    {
      "id": 6,
      "name": "Makeni 1",
      "chiefdom": "Chief Nzamane",
      "population": 9948,
      "numberOfHouseholds": 1499,
      "villageHead": "Mrs. Beatrice Nkhoma",
      "latitude": -14.0535,
      "longitude": 32.0577,
      "distanceToNearestHospital": 24.6,
      "distanceToNearestSchool": 5.7,
      "primaryEconomicActivity": "Services",
      "hasElectricity": true,
      "hasCleanWater": true
    },
    {
      "id": 7,
      "name": "Ngwerere 1",
      "chiefdom": "Chief Nzamane",
      "population": 11308,
      "numberOfHouseholds": 2980,
      "villageHead": "Mr. Richard Zimba",
      "latitude": -14.1459,
      "longitude": 32.0904,
      "distanceToNearestHospital": 13.1,
      "distanceToNearestSchool": 9.5,
      "primaryEconomicActivity": "Trading",
      "hasElectricity": false,
      "hasCleanWater": true
    },
    {
      "id": 8,
      "name": "Lilayi 1",
      "chiefdom": "Chief Nzamane",
      "population": 9867,
      "numberOfHouseholds": 1995,
      "villageHead": "Mr. David Mwale",
      "latitude": -13.9802,
      "longitude": 31.9951,
      "distanceToNearestHospital": 11.6,
      "distanceToNearestSchool": 8.2,
      "primaryEconomicActivity": "Farming",
      "hasElectricity": false,
      "hasCleanWater": false
    },
    {
      "id": 9,
      "name": "Palabana 1",
      "chiefdom": "Chief Nzamane",
      "population": 7556,
      "numberOfHouseholds": 1017,
      "villageHead": "Mrs. Rose Mwila",
      "latitude": -14.0757,
      "longitude": 32.078,
      "distanceToNearestHospital": 10.3,
      "distanceToNearestSchool": 7.2,
      "primaryEconomicActivity": "Mining",
      "hasElectricity": true,
      "hasCleanWater": true
    },
    {
      "id": 10,
      "name": "Chainda 1",
      "chiefdom": "Chief Nzamane",
      "population": 952,
      "numberOfHouseholds": 2150,
      "villageHead": "Mr. Vincent Hachipuka",
      "latitude": -14.1059,
      "longitude": 32.1092,
      "distanceToNearestHospital": 6.3,
      "distanceToNearestSchool": 7.0,
      "primaryEconomicActivity": "Services",
      "hasElectricity": false,
      "hasCleanWater": false
    },
    {
      "id": 11,
      "name": "Meanwood 1",
      "chiefdom": "Chief Nzamane",
      "population": 6716,
      "numberOfHouseholds": 2914,
      "villageHead": "Mrs. Helen Kalaba",
      "latitude": -14.1286,
      "longitude": 32.1094,
      "distanceToNearestHospital": 10.2,
      "distanceToNearestSchool": 7.9,
      "primaryEconomicActivity": "Fishing",
      "hasElectricity": false,
      "hasCleanWater": true
    },
    {
      "id": 12,
      "name": "Leopards Hill 1",
      "chiefdom": "Chief Nzamane",
      "population": 8516,
      "numberOfHouseholds": 1331,
      "villageHead": "Mrs. Beatrice Nkhoma",
      "latitude": -14.1616,
      "longitude": 32.0497,
      "distanceToNearestHospital": 22.6,
      "distanceToNearestSchool": 3.9,
      "primaryEconomicActivity": "Mining",
      "hasElectricity": false,
      "hasCleanWater": true
    },
    {
      "id": 13,
      "name": "Chalala 1",
      "chiefdom": "Chief Nzamane",
      "population": 5899,
      "numberOfHouseholds": 963,
      "villageHead": "Mrs. Beatrice Nkhoma",
      "latitude": -14.1433,
      "longitude": 32.0024,
      "distanceToNearestHospital": 2.9,
      "distanceToNearestSchool": 3.1,
      "primaryEconomicActivity": "Farming",
      "hasElectricity": false,
      "hasCleanWater": false
    },
    {
      "id": 14,
      "name": "Sikanze 1",
      "chiefdom": "Chief Nzamane",
      "population": 3482,
      "numberOfHouseholds": 1831,
      "villageHead": "Mr. Vincent Hachipuka",
      "latitude": -14.0853,
      "longitude": 32.0434,
      "distanceToNearestHospital": 12.8,
      "distanceToNearestSchool": 10.1,
      "primaryEconomicActivity": "Mining",
      "hasElectricity": false,
      "hasCleanWater": true
    },
    {
      "id": 15,
      "name": "Nyimba 1",
      "chiefdom": "Chief Nzamane",
      "population": 14829,
      "numberOfHouseholds": 1681,
      "villageHead": "Mrs. Christine Kunda",
      "latitude": -14.0789,
      "longitude": 32.1293,
      "distanceToNearestHospital": 15.5,
      "distanceToNearestSchool": 10.1,
      "primaryEconomicActivity": "Fishing",
      "hasElectricity": true,
      "hasCleanWater": false
    },
    {
      "id": 16,
      "name": "Luangwa 1",
      "chiefdom": "Chief Nzamane",
      "population": 13218,
      "numberOfHouseholds": 2467,
      "villageHead": "Mr. Daniel Sakala",
      "latitude": -14.1278,
      "longitude": 31.9974,
      "distanceToNearestHospital": 22.0,
      "distanceToNearestSchool": 8.2,
      "primaryEconomicActivity": "Fishing",
      "hasElectricity": true,
      "hasCleanWater": false
    },
    {
      "id": 17,
      "name": "Mpanshya 1",
      "chiefdom": "Chief Nzamane",
      "population": 7592,
      "numberOfHouseholds": 1757,
      "villageHead": "Mr. Richard Zimba",
      "latitude": -14.05,
      "longitude": 32.1314,
      "distanceToNearestHospital": 2.7,
      "distanceToNearestSchool": 3.8,
      "primaryEconomicActivity": "Services",
      "hasElectricity": false,
      "hasCleanWater": true
    },
    {
      "id": 18,
      "name": "Mutumbi 1",
      "chiefdom": "Chief Nzamane",
      "population": 1420,
      "numberOfHouseholds": 444,
      "villageHead": "Mr. Peter Sikalonga",
      "latitude": -14.037,
      "longitude": 32.0532,
      "distanceToNearestHospital": 24.3,
      "distanceToNearestSchool": 6.2,
      "primaryEconomicActivity": "Mining",
      "hasElectricity": false,
      "hasCleanWater": true
    },
    {
      "id": 19,
      "name": "Kanakantapa 1",
      "chiefdom": "Chief Nzamane",
      "population": 10027,
      "numberOfHouseholds": 1028,
      "villageHead": "Mr. Patrick Zulu",
      "latitude": -14.0558,
      "longitude": 32.0947,
      "distanceToNearestHospital": 14.0,
      "distanceToNearestSchool": 10.1,
      "primaryEconomicActivity": "Services",
      "hasElectricity": true,
      "hasCleanWater": true
    },
    {
      "id": 20,
      "name": "Mwembezhi 1",
      "chiefdom": "Chief Nzamane",
      "population": 12830,
      "numberOfHouseholds": 389,
      "villageHead": "Mrs. Agnes Mbewe",
      "latitude": -13.9721,
      "longitude": 31.9672,
      "distanceToNearestHospital": 2.0,
      "distanceToNearestSchool": 10.1,
      "primaryEconomicActivity": "Farming",
      "hasElectricity": true,
      "hasCleanWater": false
    },
    {
      "id": 21,
      "name": "Shimabala 1",
      "chiefdom": "Chief Nzamane",
      "population": 9674,
      "numberOfHouseholds": 485,
      "villageHead": "Mr. Emmanuel Ngulube",
      "latitude": -14.1617,
      "longitude": 32.1178,
      "distanceToNearestHospital": 2.3,
      "distanceToNearestSchool": 11.0,
      "primaryEconomicActivity": "Farming",
      "hasElectricity": false,
      "hasCleanWater": false
    },
    {
      "id": 22,
      "name": "Chisamba 1",
      "chiefdom": "Chief Nzamane",
      "population": 10110,
      "numberOfHouseholds": 930,
      "villageHead": "Mrs. Dorothy Hamoonga",
      "latitude": -14.1483,
      "longitude": 32.1369,
      "distanceToNearestHospital": 3.6,
      "distanceToNearestSchool": 4.4,
      "primaryEconomicActivity": "Fishing",
      "hasElectricity": false,
      "hasCleanWater": true
    },
    {
      "id": 23,
      "name": "Katoba 1",
      "chiefdom": "Chief Nzamane",
      "population": 11104,
      "numberOfHouseholds": 1878,
      "villageHead": "Mr. James Chanda",
      "latitude": -14.0181,
      "longitude": 31.9844,
      "distanceToNearestHospital": 3.1,
      "distanceToNearestSchool": 11.6,
      "primaryEconomicActivity": "Trading",
      "hasElectricity": false,
      "hasCleanWater": true
    },
    {
      "id": 24,
      "name": "Kaunga 1",
      "chiefdom": "Chief Nzamane",
      "population": 4232,
      "numberOfHouseholds": 1648,
      "villageHead": "Mrs. Elizabeth Mutale",
      "latitude": -14.1692,
      "longitude": 32.0653,
      "distanceToNearestHospital": 4.9,
      "distanceToNearestSchool": 9.0,
      "primaryEconomicActivity": "Trading",
      "hasElectricity": true,
      "hasCleanWater": false
    },
    {
      "id": 25,
      "name": "Chipapa 1",
      "chiefdom": "Chief Nzamane",
      "population": 13075,
      "numberOfHouseholds": 843,
      "villageHead": "Mr. Lawrence Kapasa",
      "latitude": -14.0559,
      "longitude": 32.0537,
      "distanceToNearestHospital": 19.2,
      "distanceToNearestSchool": 3.4,
      "primaryEconomicActivity": "Fishing",
      "hasElectricity": false,
      "hasCleanWater": false
    },
    {
      "id": 26,
      "name": "Nakatindi 1",
      "chiefdom": "Chief Nzamane",
      "population": 14496,
      "numberOfHouseholds": 2647,
      "villageHead": "Mr. Charles Bwalya",
      "latitude": -14.0173,
      "longitude": 32.0641,
      "distanceToNearestHospital": 4.0,
      "distanceToNearestSchool": 7.0,
      "primaryEconomicActivity": "Trading",
      "hasElectricity": false,
      "hasCleanWater": false
    },
    {
      "id": 27,
      "name": "Mbabala 1",
      "chiefdom": "Chief Nzamane",
      "population": 8318,
      "numberOfHouseholds": 2471,
      "villageHead": "Mrs. Grace Tembo",
      "latitude": -13.9823,
      "longitude": 32.1391,
      "distanceToNearestHospital": 15.1,
      "distanceToNearestSchool": 8.2,
      "primaryEconomicActivity": "Trading",
      "hasElectricity": false,
      "hasCleanWater": true
    },
    {
      "id": 28,
      "name": "Chalimbana 1",
      "chiefdom": "Chief Nzamane",
      "population": 8776,
      "numberOfHouseholds": 1325,
      "villageHead": "Mr. William Chisenga",
      "latitude": -13.989,
      "longitude": 31.9599,
      "distanceToNearestHospital": 8.2,
      "distanceToNearestSchool": 4.7,
      "primaryEconomicActivity": "Services",
      "hasElectricity": false,
      "hasCleanWater": false
    },
    {
      "id": 29,
      "name": "Kapiri 1",
      "chiefdom": "Chief Nzamane",
      "population": 2399,
      "numberOfHouseholds": 2848,
      "villageHead": "Mr. John Banda",
      "latitude": -14.0659,
      "longitude": 32.1234,
      "distanceToNearestHospital": 3.1,
      "distanceToNearestSchool": 11.0,
      "primaryEconomicActivity": "Farming",
      "hasElectricity": true,
      "hasCleanWater": false
    },
    {
      "id": 30,
      "name": "Lunsemfwa 1",
      "chiefdom": "Chief Nzamane",
      "population": 1985,
      "numberOfHouseholds": 534,
      "villageHead": "Mr. Joseph Lungu",
      "latitude": -14.134,
      "longitude": 31.9623,
      "distanceToNearestHospital": 12.2,
      "distanceToNearestSchool": 0.6,
      "primaryEconomicActivity": "Mining",
      "hasElectricity": false,
      "hasCleanWater": true
    },
    {
      "id": 31,
      "name": "Mumbwa 1",
      "chiefdom": "Chief Nzamane",
      "population": 14247,
      "numberOfHouseholds": 1527,
      "villageHead": "Mr. Patrick Zulu",
      "latitude": -14.1156,
      "longitude": 32.1136,
      "distanceToNearestHospital": 4.9,
      "distanceToNearestSchool": 7.3,
      "primaryEconomicActivity": "Mining",
      "hasElectricity": true,
      "hasCleanWater": false
    },
    {
      "id": 32,
      "name": "Kasempa 1",
      "chiefdom": "Chief Nzamane",
      "population": 14109,
      "numberOfHouseholds": 2750,
      "villageHead": "Mrs. Helen Kalaba",
      "latitude": -14.0263,
      "longitude": 31.9564,
      "distanceToNearestHospital": 23.6,
      "distanceToNearestSchool": 8.2,
      "primaryEconomicActivity": "Trading",
      "hasElectricity": true,
      "hasCleanWater": false
    },
    {
      "id": 33,
      "name": "Mufumbwe 1",
      "chiefdom": "Chief Nzamane",
      "population": 11273,
      "numberOfHouseholds": 1440,
      "villageHead": "Mr. Peter Sikalonga",
      "latitude": -14.0324,
      "longitude": 32.0395,
      "distanceToNearestHospital": 24.0,
      "distanceToNearestSchool": 11.8,
      "primaryEconomicActivity": "Mining",
      "hasElectricity": false,
      "hasCleanWater": false
    },
    {
      "id": 34,
      "name": "Kabwe 1",
      "chiefdom": "Chief Nzamane",
      "population": 8781,
      "numberOfHouseholds": 924,
      "villageHead": "Mrs. Ruth Moyo",
      "latitude": -14.1658,
      "longitude": 32.0457,
      "distanceToNearestHospital": 5.9,
      "distanceToNearestSchool": 10.4,
      "primaryEconomicActivity": "Farming",
      "hasElectricity": false,
      "hasCleanWater": true
    },
    {
      "id": 35,
      "name": "Chibombo 1",
      "chiefdom": "Chief Nzamane",
      "population": 13215,
      "numberOfHouseholds": 1098,
      "villageHead": "Mr. Francis Chipanga",
      "latitude": -14.1251,
      "longitude": 32.053,
      "distanceToNearestHospital": 13.9,
      "distanceToNearestSchool": 11.7,
      "primaryEconomicActivity": "Farming",
      "hasElectricity": true,
      "hasCleanWater": false
    },
    {
      "id": 36,
      "name": "Mkushi 1",
      "chiefdom": "Chief Nzamane",
      "population": 3655,
      "numberOfHouseholds": 215,
      "villageHead": "Mr. Vincent Hachipuka",
      "latitude": -14.1338,
      "longitude": 32.016,
      "distanceToNearestHospital": 7.1,
      "distanceToNearestSchool": 4.8,
      "primaryEconomicActivity": "Trading",
      "hasElectricity": true,
      "hasCleanWater": true
    },
    {
      "id": 37,
      "name": "Serenje 1",
      "chiefdom": "Chief Nzamane",
      "population": 1519,
      "numberOfHouseholds": 2819,
      "villageHead": "Mrs. Joyce Banda",
      "latitude": -13.9954,
      "longitude": 32.0194,
      "distanceToNearestHospital": 6.7,
      "distanceToNearestSchool": 5.1,
      "primaryEconomicActivity": "Mining",
      "hasElectricity": false,
      "hasCleanWater": false
    },
    {
      "id": 38,
      "name": "Mpika 1",
      "chiefdom": "Chief Nzamane",
      "population": 3572,
      "numberOfHouseholds": 2012,
      "villageHead": "Mr. Robert Ngoma",
      "latitude": -14.1345,
      "longitude": 32.0836,
      "distanceToNearestHospital": 3.3,
      "distanceToNearestSchool": 8.0,
      "primaryEconomicActivity": "Trading",
      "hasElectricity": false,
      "hasCleanWater": true
    },
    {
      "id": 39,
      "name": "Nakonde 1",
      "chiefdom": "Chief Nzamane",
      "population": 6374,
      "numberOfHouseholds": 1851,
      "villageHead": "Mrs. Ruth Moyo",
      "latitude": -13.9985,
      "longitude": 32.0756,
      "distanceToNearestHospital": 16.0,
      "distanceToNearestSchool": 7.4,
      "primaryEconomicActivity": "Trading",
      "hasElectricity": true,
      "hasCleanWater": true
    },
    {
      "id": 40,
      "name": "Isoka 1",
      "chiefdom": "Chief Nzamane",
      "population": 1361,
      "numberOfHouseholds": 2534,
      "villageHead": "Mr. James Chanda",
      "latitude": -14.1354,
      "longitude": 32.1378,
      "distanceToNearestHospital": 15.7,
      "distanceToNearestSchool": 4.1,
      "primaryEconomicActivity": "Mining",
      "hasElectricity": false,
      "hasCleanWater": true
    },
    {
      "id": 41,
      "name": "Chinsali 1",
      "chiefdom": "Chief Nzamane",
      "population": 11677,
      "numberOfHouseholds": 2679,
      "villageHead": "Mr. Charles Bwalya",
      "latitude": -14.1153,
      "longitude": 31.9596,
      "distanceToNearestHospital": 5.6,
      "distanceToNearestSchool": 10.9,
      "primaryEconomicActivity": "Mining",
      "hasElectricity": true,
      "hasCleanWater": true
    },
    {
      "id": 42,
      "name": "Kasama 1",
      "chiefdom": "Chief Nzamane",
      "population": 1008,
      "numberOfHouseholds": 211,
      "villageHead": "Mrs. Elizabeth Mutale",
      "latitude": -13.998,
      "longitude": 31.9981,
      "distanceToNearestHospital": 10.6,
      "distanceToNearestSchool": 4.0,
      "primaryEconomicActivity": "Fishing",
      "hasElectricity": true,
      "hasCleanWater": false
    },
    {
      "id": 43,
      "name": "Mbala 1",
      "chiefdom": "Chief Nzamane",
      "population": 9881,
      "numberOfHouseholds": 1133,
      "villageHead": "Mrs. Mary Phiri",
      "latitude": -14.0884,
      "longitude": 32.0686,
      "distanceToNearestHospital": 16.9,
      "distanceToNearestSchool": 8.8,
      "primaryEconomicActivity": "Farming",
      "hasElectricity": true,
      "hasCleanWater": true
    },
    {
      "id": 44,
      "name": "Luwingu 1",
      "chiefdom": "Chief Nzamane",
      "population": 1302,
      "numberOfHouseholds": 585,
      "villageHead": "Mrs. Elizabeth Mutale",
      "latitude": -14.0432,
      "longitude": 31.9897,
      "distanceToNearestHospital": 23.5,
      "distanceToNearestSchool": 11.3,
      "primaryEconomicActivity": "Services",
      "hasElectricity": false,
      "hasCleanWater": true
    },
    {
      "id": 45,
      "name": "Mporokoso 1",
      "chiefdom": "Chief Nzamane",
      "population": 3083,
      "numberOfHouseholds": 258,
      "villageHead": "Mr. Simon Lubinda",
      "latitude": -14.1559,
      "longitude": 32.0861,
      "distanceToNearestHospital": 19.1,
      "distanceToNearestSchool": 10.2,
      "primaryEconomicActivity": "Services",
      "hasElectricity": true,
      "hasCleanWater": true
    },
    {
      "id": 46,
      "name": "Kawambwa 1",
      "chiefdom": "Chief Nzamane",
      "population": 848,
      "numberOfHouseholds": 2513,
      "villageHead": "Mrs. Beatrice Nkhoma",
      "latitude": -13.9884,
      "longitude": 31.9571,
      "distanceToNearestHospital": 17.6,
      "distanceToNearestSchool": 9.8,
      "primaryEconomicActivity": "Trading",
      "hasElectricity": false,
      "hasCleanWater": true
    },
    {
      "id": 47,
      "name": "Mansa 1",
      "chiefdom": "Chief Nzamane",
      "population": 6321,
      "numberOfHouseholds": 854,
      "villageHead": "Mrs. Linda Chiluba",
      "latitude": -13.9819,
      "longitude": 31.9888,
      "distanceToNearestHospital": 16.2,
      "distanceToNearestSchool": 9.6,
      "primaryEconomicActivity": "Fishing",
      "hasElectricity": false,
      "hasCleanWater": false
    },
    {
      "id": 48,
      "name": "Samfya 1",
      "chiefdom": "Chief Nzamane",
      "population": 7755,
      "numberOfHouseholds": 859,
      "villageHead": "Mrs. Florence Mwanza",
      "latitude": -14.117,
      "longitude": 32.0919,
      "distanceToNearestHospital": 3.3,
      "distanceToNearestSchool": 6.1,
      "primaryEconomicActivity": "Trading",
      "hasElectricity": false,
      "hasCleanWater": true
    },
    {
      "id": 49,
      "name": "Nchelenge 1",
      "chiefdom": "Chief Nzamane",
      "population": 4571,
      "numberOfHouseholds": 1025,
      "villageHead": "Mr. Simon Lubinda",
      "latitude": -14.025,
      "longitude": 32.0708,
      "distanceToNearestHospital": 8.2,
      "distanceToNearestSchool": 10.5,
      "primaryEconomicActivity": "Mining",
      "hasElectricity": true,
      "hasCleanWater": true
    },
    {
      "id": 50,
      "name": "Kaputa 1",
      "chiefdom": "Chief Nzamane",
      "population": 7249,
      "numberOfHouseholds": 1189,
      "villageHead": "Mr. Anthony Mulenga",
      "latitude": -14.0014,
      "longitude": 32.0112,
      "distanceToNearestHospital": 23.5,
      "distanceToNearestSchool": 2.0,
      "primaryEconomicActivity": "Services",
      "hasElectricity": false,
      "hasCleanWater": false
    }
  ],
  "infrastructure": [
    {
      "id": 1,
      "chiefdom": "Chief Nzamane",
      "facilityName": "Sinda Facility 1",
      "facilityType": "Water Source",
      "village": "Kanakantapa",
      "capacity": 1388,
      "currentUsage": 1197,
      "status": "Operational",
      "latitude": -14.0878,
      "longitude": 32.0011,
      "lastMaintenance": "2025-11-21T15:00:30.687310"
    },
    {
      "id": 2,
      "chiefdom": "Chief Nzamane",
      "facilityName": "Mbala Facility 2",
      "facilityType": "Secondary School",
      "village": "Chama",
      "capacity": 511,
      "currentUsage": 1473,
      "status": "Needs Repair",
      "latitude": -14.0363,
      "longitude": 32.1216,
      "lastMaintenance": "2025-02-05T15:00:30.687320"
    },
    {
      "id": 3,
      "chiefdom": "Chief Nzamane",
      "facilityName": "Kabompo Facility 3",
      "facilityType": "Water Source",
      "village": "Lundazi",
      "capacity": 208,
      "currentUsage": 1578,
      "status": "Needs Repair",
      "latitude": -14.0128,
      "longitude": 31.9697,
      "lastMaintenance": "2025-05-12T15:00:30.687327"
    },
    {
      "id": 4,
      "chiefdom": "Chief Nzamane",
      "facilityName": "Kaputa Facility 4",
      "facilityType": "Primary School",
      "village": "Nakonde",
      "capacity": 80,
      "currentUsage": 304,
      "status": "Under Construction",
      "latitude": -14.0694,
      "longitude": 32.0154,
      "lastMaintenance": "2025-09-06T15:00:30.687334"
    },
    {
      "id": 5,
      "chiefdom": "Chief Nzamane",
      "facilityName": "Kalabo Facility 5",
      "facilityType": "Secondary School",
      "village": "Mufumbwe",
      "capacity": 1477,
      "currentUsage": 143,
      "status": "Under Construction",
      "latitude": -14.0729,
      "longitude": 32.0354,
      "lastMaintenance": "2025-07-09T15:00:30.687341"
    },
    {
      "id": 6,
      "chiefdom": "Chief Nzamane",
      "facilityName": "Serenje Facility 6",
      "facilityType": "Primary School",
      "village": "Gwembe",
      "capacity": 253,
      "currentUsage": 964,
      "status": "Under Construction",
      "latitude": -14.0243,
      "longitude": 32.1077,
      "lastMaintenance": "2025-05-06T15:00:30.687348"
    },
    {
      "id": 7,
      "chiefdom": "Chief Nzamane",
      "facilityName": "Lilayi Facility 7",
      "facilityType": "Primary School",
      "village": "Kalabo",
      "capacity": 271,
      "currentUsage": 560,
      "status": "Needs Repair",
      "latitude": -14.0986,
      "longitude": 32.1162,
      "lastMaintenance": "2025-05-07T15:00:30.687355"
    },
    {
      "id": 8,
      "chiefdom": "Chief Nzamane",
      "facilityName": "Kasama Facility 8",
      "facilityType": "Primary School",
      "village": "Sinazongwe",
      "capacity": 333,
      "currentUsage": 310,
      "status": "Under Construction",
      "latitude": -14.0771,
      "longitude": 32.1399,
      "lastMaintenance": "2025-05-24T15:00:30.687361"
    },
    {
      "id": 9,
      "chiefdom": "Chief Nzamane",
      "facilityName": "Mufumbwe Facility 9",
      "facilityType": "Water Source",
      "village": "Monze",
      "capacity": 134,
      "currentUsage": 848,
      "status": "Operational",
      "latitude": -14.1206,
      "longitude": 32.0334,
      "lastMaintenance": "2025-01-20T15:00:30.687368"
    },
    {
      "id": 10,
      "chiefdom": "Chief Nzamane",
      "facilityName": "Chipata Facility 10",
      "facilityType": "Clinic",
      "village": "Livingstone",
      "capacity": 768,
      "currentUsage": 1350,
      "status": "Operational",
      "latitude": -13.9808,
      "longitude": 31.9976,
      "lastMaintenance": "2025-04-01T15:00:30.687375"
    },
    {
      "id": 11,
      "chiefdom": "Chief Nzamane",
      "facilityName": "Kabwe Facility 11",
      "facilityType": "Clinic",
      "village": "Munyumba",
      "capacity": 815,
      "currentUsage": 83,
      "status": "Needs Repair",
      "latitude": -14.1125,
      "longitude": 32.0971,
      "lastMaintenance": "2025-05-12T15:00:30.687382"
    },
    {
      "id": 12,
      "chiefdom": "Chief Nzamane",
      "facilityName": "Chingola Facility 12",
      "facilityType": "Hospital",
      "village": "Nakonde",
      "capacity": 444,
      "currentUsage": 1321,
      "status": "Needs Repair",
      "latitude": -14.1214,
      "longitude": 31.9463,
      "lastMaintenance": "2025-11-29T15:00:30.687389"
    },
    {
      "id": 13,
      "chiefdom": "Chief Nzamane",
      "facilityName": "Mwembezhi Facility 13",
      "facilityType": "Secondary School",
      "village": "Senanga",
      "capacity": 1166,
      "currentUsage": 199,
      "status": "Under Construction",
      "latitude": -14.0582,
      "longitude": 32.1253,
      "lastMaintenance": "2025-01-28T15:00:30.687396"
    },
    {
      "id": 14,
      "chiefdom": "Chief Nzamane",
      "facilityName": "Chalala Facility 14",
      "facilityType": "Hospital",
      "village": "Vubwi",
      "capacity": 554,
      "currentUsage": 50,
      "status": "Under Construction",
      "latitude": -14.1481,
      "longitude": 31.972,
      "lastMaintenance": "2025-02-16T15:00:30.687404"
    },
    {
      "id": 15,
      "chiefdom": "Chief Nzamane",
      "facilityName": "Livingstone Facility 15",
      "facilityType": "Hospital",
      "village": "Nchelenge",
      "capacity": 551,
      "currentUsage": 1420,
      "status": "Operational",
      "latitude": -14.0954,
      "longitude": 32.0421,
      "lastMaintenance": "2025-10-11T15:00:30.687411"
    },
    {
      "id": 16,
      "chiefdom": "Chief Nzamane",
      "facilityName": "Lunsemfwa Facility 16",
      "facilityType": "Secondary School",
      "village": "Zambezi",
      "capacity": 208,
      "currentUsage": 54,
      "status": "Under Construction",
      "latitude": -14.0025,
      "longitude": 32.1062,
      "lastMaintenance": "2025-08-26T15:00:30.687425"
    },
    {
      "id": 17,
      "chiefdom": "Chief Nzamane",
      "facilityName": "Kabwe Facility 17",
      "facilityType": "Clinic",
      "village": "Kaoma",
      "capacity": 1045,
      "currentUsage": 618,
      "status": "Needs Repair",
      "latitude": -14.0613,
      "longitude": 31.9553,
      "lastMaintenance": "2026-01-08T15:00:30.687432"
    },
    {
      "id": 18,
      "chiefdom": "Chief Nzamane",
      "facilityName": "Mumbwa Facility 18",
      "facilityType": "Water Source",
      "village": "Kaoma",
      "capacity": 855,
      "currentUsage": 1190,
      "status": "Needs Repair",
      "latitude": -14.0017,
      "longitude": 32.0101,
      "lastMaintenance": "2025-04-30T15:00:30.687439"
    },
    {
      "id": 19,
      "chiefdom": "Chief Nzamane",
      "facilityName": "Choma Facility 19",
      "facilityType": "Water Source",
      "village": "Monze",
      "capacity": 1410,
      "currentUsage": 830,
      "status": "Operational",
      "latitude": -13.9717,
      "longitude": 31.9696,
      "lastMaintenance": "2025-10-08T15:00:30.687446"
    },
    {
      "id": 20,
      "chiefdom": "Chief Nzamane",
      "facilityName": "Sinazongwe Facility 20",
      "facilityType": "Water Source",
      "village": "Mazabuka",
      "capacity": 569,
      "currentUsage": 1304,
      "status": "Under Construction",
      "latitude": -14.0348,
      "longitude": 32.0124,
      "lastMaintenance": "2025-06-24T15:00:30.687453"
    },
    {
      "id": 21,
      "chiefdom": "Chief Nzamane",
      "facilityName": "Kaputa Facility 21",
      "facilityType": "Water Source",
      "village": "Mkushi",
      "capacity": 1361,
      "currentUsage": 1330,
      "status": "Operational",
      "latitude": -14.0716,
      "longitude": 31.9551,
      "lastMaintenance": "2026-01-07T15:00:30.687460"
    },
    {
      "id": 22,
      "chiefdom": "Chief Nzamane",
      "facilityName": "Mumbwa Facility 22",
      "facilityType": "Primary School",
      "village": "Chisamba",
      "capacity": 66,
      "currentUsage": 185,
      "status": "Operational",
      "latitude": -14.1103,
      "longitude": 31.984,
      "lastMaintenance": "2025-11-14T15:00:30.687467"
    },
    {
      "id": 23,
      "chiefdom": "Chief Nzamane",
      "facilityName": "Siavonga Facility 23",
      "facilityType": "Secondary School",
      "village": "Mufulira",
      "capacity": 296,
      "currentUsage": 1475,
      "status": "Under Construction",
      "latitude": -14.0143,
      "longitude": 32.0266,
      "lastMaintenance": "2025-08-13T15:00:30.687474"
    },
    {
      "id": 24,
      "chiefdom": "Chief Nzamane",
      "facilityName": "Nchelenge Facility 24",
      "facilityType": "Primary School",
      "village": "Chisamba",
      "capacity": 792,
      "currentUsage": 1040,
      "status": "Operational",
      "latitude": -14.143,
      "longitude": 32.1322,
      "lastMaintenance": "2025-12-02T15:00:30.687481"
    },
    {
      "id": 25,
      "chiefdom": "Chief Nzamane",
      "facilityName": "Sinda Facility 25",
      "facilityType": "Primary School",
      "village": "Chibombo",
      "capacity": 906,
      "currentUsage": 1578,
      "status": "Operational",
      "latitude": -14.0058,
      "longitude": 31.9568,
      "lastMaintenance": "2025-05-12T15:00:30.687488"
    },
    {
      "id": 26,
      "chiefdom": "Chief Nzamane",
      "facilityName": "Chainda Facility 26",
      "facilityType": "Secondary School",
      "village": "Kaoma",
      "capacity": 334,
      "currentUsage": 665,
      "status": "Needs Repair",
      "latitude": -14.078,
      "longitude": 31.9802,
      "lastMaintenance": "2025-07-06T15:00:30.687494"
    },
    {
      "id": 27,
      "chiefdom": "Chief Nzamane",
      "facilityName": "Luanshya Facility 27",
      "facilityType": "Hospital",
      "village": "Kasama",
      "capacity": 397,
      "currentUsage": 363,
      "status": "Operational",
      "latitude": -14.128,
      "longitude": 32.0333,
      "lastMaintenance": "2025-11-15T15:00:30.687501"
    },
    {
      "id": 28,
      "chiefdom": "Chief Nzamane",
      "facilityName": "Katoba Facility 28",
      "facilityType": "Hospital",
      "village": "Samfya",
      "capacity": 230,
      "currentUsage": 612,
      "status": "Operational",
      "latitude": -14.1698,
      "longitude": 32.0948,
      "lastMaintenance": "2025-09-15T15:00:30.687508"
    },
    {
      "id": 29,
      "chiefdom": "Chief Nzamane",
      "facilityName": "Sinazongwe Facility 29",
      "facilityType": "Secondary School",
      "village": "Nyimba",
      "capacity": 868,
      "currentUsage": 1326,
      "status": "Under Construction",
      "latitude": -14.1072,
      "longitude": 31.9911,
      "lastMaintenance": "2025-05-30T15:00:30.687515"
    },
    {
      "id": 30,
      "chiefdom": "Chief Nzamane",
      "facilityName": "Senanga Facility 30",
      "facilityType": "Secondary School",
      "village": "Mwinilunga",
      "capacity": 410,
      "currentUsage": 1072,
      "status": "Operational",
      "latitude": -14.1306,
      "longitude": 31.9584,
      "lastMaintenance": "2025-12-08T15:00:30.687522"
    },
    {
      "id": 31,
      "chiefdom": "Chief Nzamane",
      "facilityName": "Choma Facility 31",
      "facilityType": "Secondary School",
      "village": "Lukulu",
      "capacity": 702,
      "currentUsage": 1598,
      "status": "Needs Repair",
      "latitude": -14.1331,
      "longitude": 32.057,
      "lastMaintenance": "2025-07-19T15:00:30.687529"
    },
    {
      "id": 32,
      "chiefdom": "Chief Nzamane",
      "facilityName": "Zambezi Facility 32",
      "facilityType": "Clinic",
      "village": "Kaunga",
      "capacity": 797,
      "currentUsage": 161,
      "status": "Needs Repair",
      "latitude": -14.0524,
      "longitude": 31.9466,
      "lastMaintenance": "2025-05-09T15:00:30.687535"
    },
    {
      "id": 33,
      "chiefdom": "Chief Nzamane",
      "facilityName": "Luanshya Facility 33",
      "facilityType": "Water Source",
      "village": "Mpika",
      "capacity": 1062,
      "currentUsage": 1525,
      "status": "Under Construction",
      "latitude": -14.1478,
      "longitude": 32.0983,
      "lastMaintenance": "2025-08-14T15:00:30.687542"
    },
    {
      "id": 34,
      "chiefdom": "Chief Nzamane",
      "facilityName": "Shimabala Facility 34",
      "facilityType": "Hospital",
      "village": "Kaputa",
      "capacity": 1033,
      "currentUsage": 183,
      "status": "Under Construction",
      "latitude": -14.1682,
      "longitude": 32.1187,
      "lastMaintenance": "2025-04-10T15:00:30.687549"
    },
    {
      "id": 35,
      "chiefdom": "Chief Nzamane",
      "facilityName": "Kasempa Facility 35",
      "facilityType": "Secondary School",
      "village": "Mufulira",
      "capacity": 277,
      "currentUsage": 970,
      "status": "Operational",
      "latitude": -13.9888,
      "longitude": 32.1189,
      "lastMaintenance": "2025-11-15T15:00:30.687556"
    },
    {
      "id": 36,
      "chiefdom": "Chief Nzamane",
      "facilityName": "Serenje Facility 36",
      "facilityType": "Primary School",
      "village": "Chainda",
      "capacity": 962,
      "currentUsage": 710,
      "status": "Operational",
      "latitude": -13.976,
      "longitude": 32.096,
      "lastMaintenance": "2025-12-27T15:00:30.687563"
    },
    {
      "id": 37,
      "chiefdom": "Chief Nzamane",
      "facilityName": "Chipapa Facility 37",
      "facilityType": "Clinic",
      "village": "Sesheke",
      "capacity": 1491,
      "currentUsage": 1385,
      "status": "Needs Repair",
      "latitude": -14.0672,
      "longitude": 32.101,
      "lastMaintenance": "2025-10-02T15:00:30.687570"
    },
    {
      "id": 38,
      "chiefdom": "Chief Nzamane",
      "facilityName": "Gwembe Facility 38",
      "facilityType": "Secondary School",
      "village": "Katoba",
      "capacity": 691,
      "currentUsage": 1531,
      "status": "Needs Repair",
      "latitude": -14.1575,
      "longitude": 32.0121,
      "lastMaintenance": "2025-06-09T15:00:30.687577"
    },
    {
      "id": 39,
      "chiefdom": "Chief Nzamane",
      "facilityName": "Chainda Facility 39",
      "facilityType": "Hospital",
      "village": "Katete",
      "capacity": 82,
      "currentUsage": 1088,
      "status": "Operational",
      "latitude": -14.0445,
      "longitude": 32.045,
      "lastMaintenance": "2025-06-02T15:00:30.687583"
    },
    {
      "id": 40,
      "chiefdom": "Chief Nzamane",
      "facilityName": "Mambwe Facility 40",
      "facilityType": "Secondary School",
      "village": "Solwezi",
      "capacity": 885,
      "currentUsage": 214,
      "status": "Needs Repair",
      "latitude": -14.0775,
      "longitude": 32.0856,
      "lastMaintenance": "2025-03-07T15:00:30.687590"
    },
    {
      "id": 41,
      "chiefdom": "Chief Nzamane",
      "facilityName": "Sikanze Facility 41",
      "facilityType": "Clinic",
      "village": "Chisamba",
      "capacity": 1179,
      "currentUsage": 387,
      "status": "Under Construction",
      "latitude": -14.0526,
      "longitude": 31.9557,
      "lastMaintenance": "2026-01-06T15:00:30.687597"
    },
    {
      "id": 42,
      "chiefdom": "Chief Nzamane",
      "facilityName": "Pemba Facility 42",
      "facilityType": "Clinic",
      "village": "Makeni",
      "capacity": 379,
      "currentUsage": 1427,
      "status": "Needs Repair",
      "latitude": -14.1172,
      "longitude": 31.9516,
      "lastMaintenance": "2025-07-13T15:00:30.687604"
    },
    {
      "id": 43,
      "chiefdom": "Chief Nzamane",
      "facilityName": "Nyimba Facility 43",
      "facilityType": "Secondary School",
      "village": "Mutumbi",
      "capacity": 1027,
      "currentUsage": 60,
      "status": "Under Construction",
      "latitude": -14.0141,
      "longitude": 32.0016,
      "lastMaintenance": "2026-01-17T15:00:30.687611"
    },
    {
      "id": 44,
      "chiefdom": "Chief Nzamane",
      "facilityName": "Kasempa Facility 44",
      "facilityType": "Secondary School",
      "village": "Kalulushi",
      "capacity": 1100,
      "currentUsage": 1385,
      "status": "Under Construction",
      "latitude": -14.075,
      "longitude": 32.0274,
      "lastMaintenance": "2025-01-28T15:00:30.687618"
    },
    {
      "id": 45,
      "chiefdom": "Chief Nzamane",
      "facilityName": "Chililabombwe Facility 45",
      "facilityType": "Water Source",
      "village": "Mazabuka",
      "capacity": 852,
      "currentUsage": 1226,
      "status": "Operational",
      "latitude": -14.1615,
      "longitude": 32.1081,
      "lastMaintenance": "2025-12-25T15:00:30.687625"
    },
    {
      "id": 46,
      "chiefdom": "Chief Nzamane",
      "facilityName": "Chisamba Facility 46",
      "facilityType": "Hospital",
      "village": "Mansa",
      "capacity": 500,
      "currentUsage": 746,
      "status": "Needs Repair",
      "latitude": -14.0675,
      "longitude": 32.0839,
      "lastMaintenance": "2025-10-12T15:00:30.687631"
    },
    {
      "id": 47,
      "chiefdom": "Chief Nzamane",
      "facilityName": "Kaunga Facility 47",
      "facilityType": "Hospital",
      "village": "Zambezi",
      "capacity": 144,
      "currentUsage": 567,
      "status": "Needs Repair",
      "latitude": -14.0279,
      "longitude": 32.0046,
      "lastMaintenance": "2025-11-14T15:00:30.687641"
    },
    {
      "id": 48,
      "chiefdom": "Chief Nzamane",
      "facilityName": "Luwingu Facility 48",
      "facilityType": "Secondary School",
      "village": "Chipapa",
      "capacity": 253,
      "currentUsage": 1233,
      "status": "Under Construction",
      "latitude": -14.1133,
      "longitude": 32.0022,
      "lastMaintenance": "2025-08-10T15:00:30.687649"
    },
    {
      "id": 49,
      "chiefdom": "Chief Nzamane",
      "facilityName": "Kafue Riverside Facility 49",
      "facilityType": "Secondary School",
      "village": "Mkushi",
      "capacity": 80,
      "currentUsage": 161,
      "status": "Operational",
      "latitude": -14.1222,
      "longitude": 31.9927,
      "lastMaintenance": "2025-02-07T15:00:30.687656"
    },
    {
      "id": 50,
      "chiefdom": "Chief Nzamane",
      "facilityName": "Lundazi Facility 50",
      "facilityType": "Water Source",
      "village": "Kalomo",
      "capacity": 1329,
      "currentUsage": 750,
      "status": "Operational",
      "latitude": -14.1487,
      "longitude": 32.012,
      "lastMaintenance": "2025-12-10T15:00:30.687663"
    }
  ]
}