{
  "populationDemographics": {
    "id": 1,
    "chiefdom": "Chief Mukobela",
    "district": "Mumbwa",
    "province": "Central",
    "totalPopulation": 74835,
    "numberOfVillages": 33,
    "numberOfHouseholds": 15882,
    "malePopulation": 28417,
    "femalePopulation": 29837,
    "youthPopulation": 23627,
    "elderlyPopulation": 2947,
    "populationDensity": 44.4,
    "censusDate": "2025-08-13T15:00:30.613869"
  },
  "villages": [
    {
      "id": 1,
      "name": "Chongwe Central 1",
      "chiefdom": "Chief Mukobela",
      "population": 9251,
      "numberOfHouseholds": 343,
      "villageHead": "Mr. Patrick Zulu",
      "latitude": -15.0388,
      "longitude": 27.1185,
      "distanceToNearestHospital": 16.1,
      "distanceToNearestSchool": 8.2,
      "primaryEconomicActivity": "Farming",
      "hasElectricity": true,
      "hasCleanWater": true
    },
    {
      "id": 2,
      "name": "Kafue Riverside 1",
      "chiefdom": "Chief Mukobela",
      "population": 12210,
      "numberOfHouseholds": 1684,
      "villageHead": "Mrs. Catherine Kasonde",
      "latitude": -14.9547,
      "longitude": 27.1596,
      "distanceToNearestHospital": 20.8,
      "distanceToNearestSchool": 4.7,
      "primaryEconomicActivity": "Trading",
      "hasElectricity": true,
      "hasCleanWater": true
    },
    {
      "id": 3,
      "name": "Munyumba 1",
      "chiefdom": "Chief Mukobela",
      "population": 2591,
      "numberOfHouseholds": 2751,
      "villageHead": "Mr. Joseph Lungu",
      "latitude": -14.9756,
      "longitude": 26.9675,
      "distanceToNearestHospital": 12.8,
      "distanceToNearestSchool": 2.9,
      "primaryEconomicActivity": "Fishing",
      "hasElectricity": true,
      "hasCleanWater": true
    },
    {
      "id": 4,
      "name": "Kalingalinga 1",
      "chiefdom": "Chief Mukobela",
      "population": 6983,
      "numberOfHouseholds": 2722,
      "villageHead": "Mr. Joseph Lungu",
      "latitude": -15.0652,
      "longitude": 26.9909,
      "distanceToNearestHospital": 7.5,
      "distanceToNearestSchool": 4.8,
      "primaryEconomicActivity": "Trading",
      "hasElectricity": true,
      "hasCleanWater": true
    },
    {
      "id": 5,
      "name": "Chilanga 1",
      "chiefdom": "Chief Mukobela",
      "population": 12080,
      "numberOfHouseholds": 2607,
      "villageHead": "Mr. Peter Sikalonga",
      "latitude": -14.8912,
      "longitude": 27.0133,
      "distanceToNearestHospital": 11.1,
      "distanceToNearestSchool": 11.1,
      "primaryEconomicActivity": "Services",
      "hasElectricity": true,
      "hasCleanWater": true
    },
    {
      "id": 6,
      "name": "Makeni 1",
      "chiefdom": "Chief Mukobela",
      "population": 9851,
      "numberOfHouseholds": 2770,
      "villageHead": "Mrs. Christine Kunda",
      "latitude": -14.9717,
      "longitude": 27.0732,
      "distanceToNearestHospital": 16.5,
      "distanceToNearestSchool": 4.1,
      "primaryEconomicActivity": "Services",
      "hasElectricity": true,
      "hasCleanWater": true
    },
    {
      "id": 7,
      "name": "Ngwerere 1",
      "chiefdom": "Chief Mukobela",
      "population": 5157,
      "numberOfHouseholds": 1164,
      "villageHead": "Mr. Charles Bwalya",
      "latitude": -14.9356,
      "longitude": 26.9784,
      "distanceToNearestHospital": 15.8,
      "distanceToNearestSchool": 10.9,
      "primaryEconomicActivity": "Services",
      "hasElectricity": false,
      "hasCleanWater": true
    },
    {
      "id": 8,
      "name": "Lilayi 1",
      "chiefdom": "Chief Mukobela",
      "population": 9136,
      "numberOfHouseholds": 1077,
      "villageHead": "Mr. Francis Chipanga",
      "latitude": -14.9292,
      "longitude": 26.9742,
      "distanceToNearestHospital": 7.1,
      "distanceToNearestSchool": 11.3,
      "primaryEconomicActivity": "Trading",
      "hasElectricity": true,
      "hasCleanWater": true
    },
    {
      "id": 9,
      "name": "Palabana 1",
      "chiefdom": "Chief Mukobela",
      "population": 3682,
      "numberOfHouseholds": 1305,
      "villageHead": "Mrs. Grace Tembo",
      "latitude": -15.069,
      "longitude": 27.0778,
      "distanceToNearestHospital": 22.2,
      "distanceToNearestSchool": 8.8,
      "primaryEconomicActivity": "Fishing",
      "hasElectricity": false,
      "hasCleanWater": false
    },
    {
      "id": 10,
      "name": "Chainda 1",
      "chiefdom": "Chief Mukobela",
      "population": 5806,
      "numberOfHouseholds": 2995,
      "villageHead": "Mrs. Joyce Banda",
      "latitude": -15.0076,
      "longitude": 27.1582,
      "distanceToNearestHospital": 3.1,
      "distanceToNearestSchool": 4.3,
      "primaryEconomicActivity": "Fishing",
      "hasElectricity": true,
      "hasCleanWater": false
    },
    {
      "id": 11,
      "name": "Meanwood 1",
      "chiefdom": "Chief Mukobela",
      "population": 5191,
      "numberOfHouseholds": 2947,
      "villageHead": "Mr. Simon Lubinda",
      "latitude": -15.0627,
      "longitude": 27.116,
      "distanceToNearestHospital": 21.6,
      "distanceToNearestSchool": 6.5,
      "primaryEconomicActivity": "Services",
      "hasElectricity": false,
      "hasCleanWater": true
    },
    {
      "id": 12,
      "name": "Leopards Hill 1",
      "chiefdom": "Chief Mukobela",
      "population": 2601,
      "numberOfHouseholds": 1445,
      "villageHead": "Mrs. Agnes Mbewe",
      "latitude": -14.9778,
      "longitude": 27.1234,
      "distanceToNearestHospital": 13.7,
      "distanceToNearestSchool": 4.0,
      "primaryEconomicActivity": "Services",
      "hasElectricity": true,
      "hasCleanWater": false
    },
    {
      "id": 13,
      "name": "Chalala 1",
      "chiefdom": "Chief Mukobela",
      "population": 11387,
      "numberOfHouseholds": 1525,
      "villageHead": "Mr. Anthony Mulenga",
      "latitude": -14.8967,
      "longitude": 27.0544,
      "distanceToNearestHospital": 13.2,
      "distanceToNearestSchool": 9.6,
      "primaryEconomicActivity": "Trading",
      "hasElectricity": true,
      "hasCleanWater": true
    },
    {
      "id": 14,
      "name": "Sikanze 1",
      "chiefdom": "Chief Mukobela",
      "population": 7009,
      "numberOfHouseholds": 2280,
      "villageHead": "Mr. George Nkonde",
      "latitude": -14.9565,
      "longitude": 27.0164,
      "distanceToNearestHospital": 15.1,
      "distanceToNearestSchool": 2.5,
      "primaryEconomicActivity": "Trading",
      "hasElectricity": true,
      "hasCleanWater": false
    },
    {
      "id": 15,
      "name": "Nyimba 1",
      "chiefdom": "Chief Mukobela",
      "population": 2469,
      "numberOfHouseholds": 2282,
      "villageHead": "Mr. Emmanuel Ngulube",
      "latitude": -14.968,
      "longitude": 27.1048,
      "distanceToNearestHospital": 21.7,
      "distanceToNearestSchool": 8.7,
      "primaryEconomicActivity": "Fishing",
      "hasElectricity": true,
      "hasCleanWater": true
    },
    {
      "id": 16,
      "name": "Luangwa 1",
      "chiefdom": "Chief Mukobela",
      "population": 9047,
      "numberOfHouseholds": 2461,
      "villageHead": "Mr. William Chisenga",
      "latitude": -15.0196,
      "longitude": 26.9758,
      "distanceToNearestHospital": 8.5,
      "distanceToNearestSchool": 11.1,
      "primaryEconomicActivity": "Fishing",
      "hasElectricity": false,
      "hasCleanWater": false
    },
    {
      "id": 17,
      "name": "Mpanshya 1",
      "chiefdom": "Chief Mukobela",
      "population": 14002,
      "numberOfHouseholds": 1258,
      "villageHead": "Mrs. Dorothy Hamoonga",
      "latitude": -15.0738,
      "longitude": 27.103,
      "distanceToNearestHospital": 8.1,
      "distanceToNearestSchool": 1.4,
      "primaryEconomicActivity": "Farming",
      "hasElectricity": false,
      "hasCleanWater": true
    },
    {
      "id": 18,
      "name": "Mutumbi 1",
      "chiefdom": "Chief Mukobela",
      "population": 12173,
      "numberOfHouseholds": 2484,
      "villageHead": "Mr. Lawrence Kapasa",
      "latitude": -15.0134,
      "longitude": 27.0973,
      "distanceToNearestHospital": 5.1,
      "distanceToNearestSchool": 4.2,
      "primaryEconomicActivity": "Fishing",
      "hasElectricity": false,
      "hasCleanWater": false
    },
    {
      "id": 19,
      "name": "Kanakantapa 1",
      "chiefdom": "Chief Mukobela",
      "population": 13836,
      "numberOfHouseholds": 1649,
      "villageHead": "Mrs. Sarah Mumba",
      "latitude": -14.8977,
      "longitude": 27.0964,
      "distanceToNearestHospital": 6.3,
      "distanceToNearestSchool": 7.1,
      "primaryEconomicActivity": "Fishing",
      "hasElectricity": true,
      "hasCleanWater": true
    },
    {
      "id": 20,
      "name": "Mwembezhi 1",
      "chiefdom": "Chief Mukobela",
      "population": 6334,
      "numberOfHouseholds": 2607,
      "villageHead": "Mrs. Dorothy Hamoonga",
      "latitude": -14.985,
      "longitude": 27.0096,
      "distanceToNearestHospital": 11.5,
      "distanceToNearestSchool": 11.0,
      "primaryEconomicActivity": "Trading",
      "hasElectricity": false,
      "hasCleanWater": false
    },
    {
      "id": 21,
      "name": "Shimabala 1",
      "chiefdom": "Chief Mukobela",
      "population": 11459,
      "numberOfHouseholds": 2225,
      "villageHead": "Mr. Andrew Sichone",
      "latitude": -14.9641,
      "longitude": 27.1588,
      "distanceToNearestHospital": 21.8,
      "distanceToNearestSchool": 7.4,
      "primaryEconomicActivity": "Mining",
      "hasElectricity": true,
      "hasCleanWater": true
    },
    {
      "id": 22,
      "name": "Chisamba 1",
      "chiefdom": "Chief Mukobela",
      "population": 11025,
      "numberOfHouseholds": 1033,
      "villageHead": "Mr. David Mwale",
      "latitude": -14.9547,
      "longitude": 27.1343,
      "distanceToNearestHospital": 20.9,
      "distanceToNearestSchool": 9.6,
      "primaryEconomicActivity": "Trading",
      "hasElectricity": false,
      "hasCleanWater": true
    },
    {
      "id": 23,
      "name": "Katoba 1",
      "chiefdom": "Chief Mukobela",
      "population": 12651,
      "numberOfHouseholds": 2498,
      "villageHead": "Mrs. Sarah Mumba",
      "latitude": -15.0033,
      "longitude": 26.9644,
      "distanceToNearestHospital": 10.2,
      "distanceToNearestSchool": 9.9,
      "primaryEconomicActivity": "Services",
      "hasElectricity": true,
      "hasCleanWater": true
    },
    {
      "id": 24,
      "name": "Kaunga 1",
      "chiefdom": "Chief Mukobela",
      "population": 13495,
      "numberOfHouseholds": 688,
      "villageHead": "Mr. Simon Lubinda",
      "latitude": -14.9937,
      "longitude": 27.1335,
      "distanceToNearestHospital": 24.4,
      "distanceToNearestSchool": 9.2,
      "primaryEconomicActivity": "Trading",
      "hasElectricity": false,
      "hasCleanWater": false
    },
    {
      "id": 25,
      "name": "Chipapa 1",
      "chiefdom": "Chief Mukobela",
      "population": 1272,
      "numberOfHouseholds": 745,
      "villageHead": "Mrs. Margaret Musonda",
      "latitude": -14.8889,
      "longitude": 26.9908,
      "distanceToNearestHospital": 23.7,
      "distanceToNearestSchool": 11.8,
      "primaryEconomicActivity": "Trading",
      "hasElectricity": true,
      "hasCleanWater": true
    },
    {
      "id": 26,
      "name": "Nakatindi 1",
      "chiefdom": "Chief Mukobela",
      "population": 13107,
      "numberOfHouseholds": 2398,
      "villageHead": "Mr. Lawrence Kapasa",
      "latitude": -14.9959,
      "longitude": 27.0414,
      "distanceToNearestHospital": 10.6,
      "distanceToNearestSchool": 7.8,
      "primaryEconomicActivity": "Trading",
      "hasElectricity": false,
      "hasCleanWater": false
    },
    {
      "id": 27,
      "name": "Mbabala 1",
      "chiefdom": "Chief Mukobela",
      "population": 10705,
      "numberOfHouseholds": 481,
      "villageHead": "Mrs. Joyce Banda",
      "latitude": -14.8814,
      "longitude": 27.0442,
      "distanceToNearestHospital": 6.5,
      "distanceToNearestSchool": 10.5,
      "primaryEconomicActivity": "Fishing",
      "hasElectricity": true,
      "hasCleanWater": true
    },
    {
      "id": 28,
      "name": "Chalimbana 1",
      "chiefdom": "Chief Mukobela",
      "population": 1395,
      "numberOfHouseholds": 1349,
      "villageHead": "Mrs. Agnes Mbewe",
      "latitude": -14.9997,
      "longitude": 27.071,
      "distanceToNearestHospital": 9.9,
      "distanceToNearestSchool": 0.8,
      "primaryEconomicActivity": "Services",
      "hasElectricity": true,
      "hasCleanWater": true
    },
    {
      "id": 29,
      "name": "Kapiri 1",
      "chiefdom": "Chief Mukobela",
      "population": 3154,
      "numberOfHouseholds": 2912,
      "villageHead": "Mr. George Nkonde",
      "latitude": -14.8956,
      "longitude": 27.0793,
      "distanceToNearestHospital": 16.4,
      "distanceToNearestSchool": 7.2,
      "primaryEconomicActivity": "Services",
      "hasElectricity": true,
      "hasCleanWater": true
    },
    {
      "id": 30,
      "name": "Lunsemfwa 1",
      "chiefdom": "Chief Mukobela",
      "population": 4693,
      "numberOfHouseholds": 2814,
      "villageHead": "Mr. Daniel Sakala",
      "latitude": -15.0363,
      "longitude": 27.0727,
      "distanceToNearestHospital": 20.5,
      "distanceToNearestSchool": 11.1,
      "primaryEconomicActivity": "Mining",
      "hasElectricity": true,
      "hasCleanWater": true
    },
    {
      "id": 31,
      "name": "Mumbwa 1",
      "chiefdom": "Chief Mukobela",
      "population": 3390,
      "numberOfHouseholds": 397,
      "villageHead": "Mr. John Banda",
      "latitude": -15.0639,
      "longitude": 26.9755,
      "distanceToNearestHospital": 4.4,
      "distanceToNearestSchool": 7.1,
      "primaryEconomicActivity": "Farming",
      "hasElectricity": false,
      "hasCleanWater": true
    },
    {
      "id": 32,
      "name": "Kasempa 1",
      "chiefdom": "Chief Mukobela",
      "population": 1535,
      "numberOfHouseholds": 661,
      "villageHead": "Mrs. Grace Tembo",
      "latitude": -15.0527,
      "longitude": 27.1241,
      "distanceToNearestHospital": 21.7,
      "distanceToNearestSchool": 9.1,
      "primaryEconomicActivity": "Farming",
      "hasElectricity": true,
      "hasCleanWater": false
    },
    {
      "id": 33,
      "name": "Mufumbwe 1",
      "chiefdom": "Chief Mukobela",
      "population": 2372,
      "numberOfHouseholds": 2516,
      "villageHead": "Mr. Charles Bwalya",
      "latitude": -15.0729,
      "longitude": 26.9669,
      "distanceToNearestHospital": 5.4,
      "distanceToNearestSchool": 3.9,
      "primaryEconomicActivity": "Mining",
      "hasElectricity": true,
      "hasCleanWater": true
    },
    {
      "id": 34,
      "name": "Kabwe 1",
      "chiefdom": "Chief Mukobela",
      "population": 7573,
      "numberOfHouseholds": 1689,
      "villageHead": "Mr. William Chisenga",
      "latitude": -15.0304,
      "longitude": 26.9954,
      "distanceToNearestHospital": 22.6,
      "distanceToNearestSchool": 6.4,
      "primaryEconomicActivity": "Trading",
      "hasElectricity": true,
      "hasCleanWater": true
    },
    {
      "id": 35,
      "name": "Chibombo 1",
      "chiefdom": "Chief Mukobela",
      "population": 913,
      "numberOfHouseholds": 1559,
      "villageHead": "Mr. James Chanda",
      "latitude": -14.9696,
      "longitude": 27.1179,
      "distanceToNearestHospital": 2.4,
      "distanceToNearestSchool": 2.0,
      "primaryEconomicActivity": "Services",
      "hasElectricity": true,
      "hasCleanWater": false
    },
    {
      "id": 36,
      "name": "Mkushi 1",
      "chiefdom": "Chief Mukobela",
      "population": 7619,
      "numberOfHouseholds": 241,
      "villageHead": "Mr. Charles Bwalya",
      "latitude": -14.9396,
      "longitude": 27.1191,
      "distanceToNearestHospital": 14.1,
      "distanceToNearestSchool": 11.1,
      "primaryEconomicActivity": "Fishing",
      "hasElectricity": true,
      "hasCleanWater": true
    },
    {
      "id": 37,
      "name": "Serenje 1",
      "chiefdom": "Chief Mukobela",
      "population": 11929,
      "numberOfHouseholds": 1529,
      "villageHead": "Mr. Peter Sikalonga",
      "latitude": -15.0457,
      "longitude": 27.005,
      "distanceToNearestHospital": 10.9,
      "distanceToNearestSchool": 7.1,
      "primaryEconomicActivity": "Mining",
      "hasElectricity": false,
      "hasCleanWater": true
    },
    {
      "id": 38,
      "name": "Mpika 1",
      "chiefdom": "Chief Mukobela",
      "population": 13280,
      "numberOfHouseholds": 2620,
      "villageHead": "Mr. Francis Chipanga",
      "latitude": -14.9702,
      "longitude": 27.0647,
      "distanceToNearestHospital": 4.3,
      "distanceToNearestSchool": 6.8,
      "primaryEconomicActivity": "Farming",
      "hasElectricity": true,
      "hasCleanWater": false
    },
    {
      "id": 39,
      "name": "Nakonde 1",
      "chiefdom": "Chief Mukobela",
      "population": 837,
      "numberOfHouseholds": 684,
      "villageHead": "Mrs. Alice Mwansa",
      "latitude": -14.9371,
      "longitude": 27.0143,
      "distanceToNearestHospital": 24.2,
      "distanceToNearestSchool": 3.3,
      "primaryEconomicActivity": "Farming",
      "hasElectricity": true,
      "hasCleanWater": true
    },
    {
      "id": 40,
      "name": "Isoka 1",
      "chiefdom": "Chief Mukobela",
      "population": 3453,
      "numberOfHouseholds": 2616,
      "villageHead": "Mr. Richard Zimba",
      "latitude": -14.9145,
      "longitude": 27.0727,
      "distanceToNearestHospital": 7.5,
      "distanceToNearestSchool": 5.4,
      "primaryEconomicActivity": "Fishing",
      "hasElectricity": true,
      "hasCleanWater": true
    },
    {
      "id": 41,
      "name": "Chinsali 1",
      "chiefdom": "Chief Mukobela",
      "population": 3605,
      "numberOfHouseholds": 697,
      "villageHead": "Mr. Robert Ngoma",
      "latitude": -14.9609,
      "longitude": 27.1017,
      "distanceToNearestHospital": 5.1,
      "distanceToNearestSchool": 2.0,
      "primaryEconomicActivity": "Trading",
      "hasElectricity": true,
      "hasCleanWater": true
    },
    {
      "id": 42,
      "name": "Kasama 1",
      "chiefdom": "Chief Mukobela",
      "population": 12672,
      "numberOfHouseholds": 467,
      "villageHead": "Mr. Joseph Lungu",
      "latitude": -15.0537,
      "longitude": 27.1537,
      "distanceToNearestHospital": 7.6,
      "distanceToNearestSchool": 3.0,
      "primaryEconomicActivity": "Farming",
      "hasElectricity": false,
      "hasCleanWater": false
    },
    {
      "id": 43,
      "name": "Mbala 1",
      "chiefdom": "Chief Mukobela",
      "population": 14092,
      "numberOfHouseholds": 239,
      "villageHead": "Mr. Daniel Sakala",
      "latitude": -14.9881,
      "longitude": 27.1585,
      "distanceToNearestHospital": 9.4,
      "distanceToNearestSchool": 4.6,
      "primaryEconomicActivity": "Trading",
      "hasElectricity": false,
      "hasCleanWater": true
    },
    {
      "id": 44,
      "name": "Luwingu 1",
      "chiefdom": "Chief Mukobela",
      "population": 10876,
      "numberOfHouseholds": 405,
      "villageHead": "Mrs. Catherine Kasonde",
      "latitude": -14.8813,
      "longitude": 27.0906,
      "distanceToNearestHospital": 5.8,
      "distanceToNearestSchool": 9.9,
      "primaryEconomicActivity": "Trading",
      "hasElectricity": true,
      "hasCleanWater": false
    },
    {
      "id": 45,
      "name": "Mporokoso 1",
      "chiefdom": "Chief Mukobela",
      "population": 12635,
      "numberOfHouseholds": 2878,
      "villageHead": "Mr. Francis Chipanga",
      "latitude": -14.9677,
      "longitude": 27.1456,
      "distanceToNearestHospital": 16.6,
      "distanceToNearestSchool": 7.8,
      "primaryEconomicActivity": "Farming",
      "hasElectricity": false,
      "hasCleanWater": true
    },
    {
      "id": 46,
      "name": "Kawambwa 1",
      "chiefdom": "Chief Mukobela",
      "population": 4164,
      "numberOfHouseholds": 1157,
      "villageHead": "Mr. Richard Zimba",
      "latitude": -14.9475,
      "longitude": 27.0378,
      "distanceToNearestHospital": 9.8,
      "distanceToNearestSchool": 3.0,
      "primaryEconomicActivity": "Services",
      "hasElectricity": false,
      "hasCleanWater": false
    },
    {
      "id": 47,
      "name": "Mansa 1",
      "chiefdom": "Chief Mukobela",
      "population": 5095,
      "numberOfHouseholds": 1109,
      "villageHead": "Mr. Lawrence Kapasa",
      "latitude": -14.9549,
      "longitude": 27.0666,
      "distanceToNearestHospital": 13.8,
      "distanceToNearestSchool": 8.8,
      "primaryEconomicActivity": "Mining",
      "hasElectricity": false,
      "hasCleanWater": true
    },
    {
      "id": 48,
      "name": "Samfya 1",
      "chiefdom": "Chief Mukobela",
      "population": 7976,
      "numberOfHouseholds": 684,
      "villageHead": "Mrs. Margaret Musonda",
      "latitude": -14.9782,
      "longitude": 27.1387,
      "distanceToNearestHospital": 17.7,
      "distanceToNearestSchool": 10.4,
      "primaryEconomicActivity": "Services",
      "hasElectricity": false,
      "hasCleanWater": false
    },
    {
      "id": 49,
      "name": "Nchelenge 1",
      "chiefdom": "Chief Mukobela",
      "population": 7902,
      "numberOfHouseholds": 1298,
      "villageHead": "Mrs. Rose Mwila",
      "latitude": -15.0681,
      "longitude": 26.9872,
      "distanceToNearestHospital": 2.1,
      "distanceToNearestSchool": 11.4,
      "primaryEconomicActivity": "Fishing",
      "hasElectricity": true,
      "hasCleanWater": true
    },
    {
      "id": 50,
      "name": "Kaputa 1",
      "chiefdom": "Chief Mukobela",
      "population": 12733,
      "numberOfHouseholds": 2949,
      "villageHead": "Mrs. Rose Mwila",
      "latitude": -14.9641,
      "longitude": 27.0633,
      "distanceToNearestHospital": 14.0,
      "distanceToNearestSchool": 11.0,
      "primaryEconomicActivity": "Mining",
      "hasElectricity": false,
      "hasCleanWater": true
    }
  ],
  "infrastructure": [
    {
      "id": 1,
      "chiefdom": "Chief Mukobela",
      "facilityName": "Mwinilunga Facility 1",
      "facilityType": "Hospital",
      "village": "Monze",
      "capacity": 875,
      "currentUsage": 654,
      "status": "Under Construction",
      "latitude": -15.0295,
      "longitude": 27.0876,
      "lastMaintenance": "2025-07-26T15:00:30.614073"
    },
    {
      "id": 2,
      "chiefdom": "Chief Mukobela",
      "facilityName": "Luanshya Facility 2",
      "facilityType": "Primary School",
      "village": "Kabompo",
      "capacity": 146,
      "currentUsage": 359,
      "status": "Under Construction",
      "latitude": -14.8845,
      "longitude": 27.1515,
      "lastMaintenance": "2025-11-20T15:00:30.614081"
    },
    {
      "id": 3,
      "chiefdom": "Chief Mukobela",
      "facilityName": "Kaoma Facility 3",
      "facilityType": "Water Source",
      "village": "Shimabala",
      "capacity": 453,
      "currentUsage": 560,
      "status": "Needs Repair",
      "latitude": -14.8912,
      "longitude": 27.0702,
      "lastMaintenance": "2025-11-19T15:00:30.614088"
    },
    {
      "id": 4,
      "chiefdom": "Chief Mukobela",
      "facilityName": "Sinazongwe Facility 4",
      "facilityType": "Primary School",
      "village": "Kalingalinga",
      "capacity": 299,
      "currentUsage": 495,
      "status": "Needs Repair",
      "latitude": -14.9225,
      "longitude": 27.0656,
      "lastMaintenance": "2025-01-27T15:00:30.614095"
    },
    {
      "id": 5,
      "chiefdom": "Chief Mukobela",
      "facilityName": "Pemba Facility 5",
      "facilityType": "Primary School",
      "village": "Vubwi",
      "capacity": 103,
      "currentUsage": 961,
      "status": "Under Construction",
      "latitude": -15.0305,
      "longitude": 26.9773,
      "lastMaintenance": "2025-05-02T15:00:30.614102"
    },
    {
      "id": 6,
      "chiefdom": "Chief Mukobela",
      "facilityName": "Sinazongwe Facility 6",
      "facilityType": "Water Source",
      "village": "Nchelenge",
      "capacity": 211,
      "currentUsage": 787,
      "status": "Needs Repair",
      "latitude": -14.9471,
      "longitude": 27.0333,
      "lastMaintenance": "2025-04-07T15:00:30.614109"
    },
    {
      "id": 7,
      "chiefdom": "Chief Mukobela",
      "facilityName": "Chalala Facility 7",
      "facilityType": "Water Source",
      "village": "Kawambwa",
      "capacity": 584,
      "currentUsage": 550,
      "status": "Under Construction",
      "latitude": -14.9061,
      "longitude": 27.146,
      "lastMaintenance": "2025-08-11T15:00:30.614116"
    },
    {
      "id": 8,
      "chiefdom": "Chief Mukobela",
      "facilityName": "Gwembe Facility 8",
      "facilityType": "Secondary School",
      "village": "Mumbwa",
      "capacity": 346,
      "currentUsage": 1558,
      "status": "Needs Repair",
      "latitude": -14.9857,
      "longitude": 27.1588,
      "lastMaintenance": "2025-04-15T15:00:30.614122"
    },
    {
      "id": 9,
      "chiefdom": "Chief Mukobela",
      "facilityName": "Mpika Facility 9",
      "facilityType": "Primary School",
      "village": "Shangombo",
      "capacity": 338,
      "currentUsage": 730,
      "status": "Needs Repair",
      "latitude": -15.0685,
      "longitude": 27.1186,
      "lastMaintenance": "2025-02-06T15:00:30.614129"
    },
    {
      "id": 10,
      "chiefdom": "Chief Mukobela",
      "facilityName": "Pemba Facility 10",
      "facilityType": "Clinic",
      "village": "Katoba",
      "capacity": 1047,
      "currentUsage": 1112,
      "status": "Operational",
      "latitude": -15.0512,
      "longitude": 27.0653,
      "lastMaintenance": "2025-07-03T15:00:30.614137"
    },
    {
      "id": 11,
      "chiefdom": "Chief Mukobela",
      "facilityName": "Serenje Facility 11",
      "facilityType": "Hospital",
      "village": "Mazabuka",
      "capacity": 1422,
      "currentUsage": 263,
      "status": "Needs Repair",
      "latitude": -15.0379,
      "longitude": 27.1227,
      "lastMaintenance": "2025-05-21T15:00:30.614144"
    },
    {
      "id": 12,
      "chiefdom": "Chief Mukobela",
      "facilityName": "Siavonga Facility 12",
      "facilityType": "Secondary School",
      "village": "Kasama",
      "capacity": 187,
      "currentUsage": 1126,
      "status": "Needs Repair",
      "latitude": -15.0196,
      "longitude": 27.0316,
      "lastMaintenance": "2025-02-02T15:00:30.614151"
    },
    {
      "id": 13,
      "chiefdom": "Chief Mukobela",
      "facilityName": "Shangombo Facility 13",
      "facilityType": "Clinic",
      "village": "Chainda",
      "capacity": 458,
      "currentUsage": 1579,
      "status": "Under Construction",
      "latitude": -14.9309,
      "longitude": 27.0088,
      "lastMaintenance": "2025-10-06T15:00:30.614157"
    },
    {
      "id": 14,
      "chiefdom": "Chief Mukobela",
      "facilityName": "Chibombo Facility 14",
      "facilityType": "Secondary School",
      "village": "Mporokoso",
      "capacity": 620,
      "currentUsage": 867,
      "status": "Operational",
      "latitude": -14.9163,
      "longitude": 27.0381,
      "lastMaintenance": "2025-12-01T15:00:30.614164"
    },
    {
      "id": 15,
      "chiefdom": "Chief Mukobela",
      "facilityName": "Livingstone Facility 15",
      "facilityType": "Primary School",
      "village": "Kapiri",
      "capacity": 439,
      "currentUsage": 665,
      "status": "Under Construction",
      "latitude": -15.0711,
      "longitude": 27.0585,
      "lastMaintenance": "2025-03-05T15:00:30.614171"
    },
    {
      "id": 16,
      "chiefdom": "Chief Mukobela",
      "facilityName": "Lunsemfwa Facility 16",
      "facilityType": "Primary School",
      "village": "Kasama",
      "capacity": 1426,
      "currentUsage": 952,
      "status": "Under Construction",
      "latitude": -14.8952,
      "longitude": 27.0086,
      "lastMaintenance": "2025-12-12T15:00:30.614178"
    },
    {
      "id": 17,
      "chiefdom": "Chief Mukobela",
      "facilityName": "Gwembe Facility 17",
      "facilityType": "Secondary School",
      "village": "Kalomo",
      "capacity": 1210,
      "currentUsage": 68,
      "status": "Needs Repair",
      "latitude": -14.9709,
      "longitude": 27.1521,
      "lastMaintenance": "2025-11-26T15:00:30.614185"
    },
    {
      "id": 18,
      "chiefdom": "Chief Mukobela",
      "facilityName": "Kaunga Facility 18",
      "facilityType": "Secondary School",
      "village": "Lukulu",
      "capacity": 1168,
      "currentUsage": 1286,
      "status": "Operational",
      "latitude": -14.9061,
      "longitude": 27.1374,
      "lastMaintenance": "2025-08-16T15:00:30.614192"
    },
    {
      "id": 19,
      "chiefdom": "Chief Mukobela",
      "facilityName": "Lukulu Facility 19",
      "facilityType": "Hospital",
      "village": "Chalala",
      "capacity": 1298,
      "currentUsage": 1191,
      "status": "Operational",
      "latitude": -15.0075,
      "longitude": 26.9989,
      "lastMaintenance": "2025-05-16T15:00:30.614198"
    },
    {
      "id": 20,
      "chiefdom": "Chief Mukobela",
      "facilityName": "Serenje Facility 20",
      "facilityType": "Hospital",
      "village": "Mwinilunga",
      "capacity": 826,
      "currentUsage": 362,
      "status": "Under Construction",
      "latitude": -15.0002,
      "longitude": 26.9734,
      "lastMaintenance": "2025-09-05T15:00:30.614205"
    },
    {
      "id": 21,
      "chiefdom": "Chief Mukobela",
      "facilityName": "Mpongwe Facility 21",
      "facilityType": "Secondary School",
      "village": "Lukulu",
      "capacity": 388,
      "currentUsage": 950,
      "status": "Under Construction",
      "latitude": -14.9929,
      "longitude": 27.1247,
      "lastMaintenance": "2025-12-10T15:00:30.614212"
    },
    {
      "id": 22,
      "chiefdom": "Chief Mukobela",
      "facilityName": "Palabana Facility 22",
      "facilityType": "Secondary School",
      "village": "Kitwe",
      "capacity": 681,
      "currentUsage": 789,
      "status": "Operational",
      "latitude": -14.918,
      "longitude": 27.0906,
      "lastMaintenance": "2025-06-28T15:00:30.614219"
    },
    {
      "id": 23,
      "chiefdom": "Chief Mukobela",
      "facilityName": "Monze Facility 23",
      "facilityType": "Secondary School",
      "village": "Kasama",
      "capacity": 223,
      "currentUsage": 1559,
      "status": "Operational",
      "latitude": -14.9583,
      "longitude": 27.1495,
      "lastMaintenance": "2025-08-28T15:00:30.614226"
    },
    {
      "id": 24,
      "chiefdom": "Chief Mukobela",
      "facilityName": "Mpika Facility 24",
      "facilityType": "Water Source",
      "village": "Lunsemfwa",
      "capacity": 842,
      "currentUsage": 811,
      "status": "Needs Repair",
      "latitude": -14.9506,
      "longitude": 27.0964,
      "lastMaintenance": "2025-07-15T15:00:30.614232"
    },
    {
      "id": 25,
      "chiefdom": "Chief Mukobela",
      "facilityName": "Shangombo Facility 25",
      "facilityType": "Secondary School",
      "village": "Kapiri",
      "capacity": 563,
      "currentUsage": 1371,
      "status": "Under Construction",
      "latitude": -14.922,
      "longitude": 26.9895,
      "lastMaintenance": "2026-01-10T15:00:30.614239"
    },
    {
      "id": 26,
      "chiefdom": "Chief Mukobela",
      "facilityName": "Chibombo Facility 26",
      "facilityType": "Hospital",
      "village": "Shangombo",
      "capacity": 77,
      "currentUsage": 1032,
      "status": "Under Construction",
      "latitude": -14.9443,
      "longitude": 27.0223,
      "lastMaintenance": "2025-10-22T15:00:30.614246"
    },
    {
      "id": 27,
      "chiefdom": "Chief Mukobela",
      "facilityName": "Sesheke Facility 27",
      "facilityType": "Hospital",
      "village": "Luanshya",
      "capacity": 778,
      "currentUsage": 1234,
      "status": "Operational",
      "latitude": -15.0126,
      "longitude": 27.1292,
      "lastMaintenance": "2025-10-05T15:00:30.614253"
    },
    {
      "id": 28,
      "chiefdom": "Chief Mukobela",
      "facilityName": "Lunsemfwa Facility 28",
      "facilityType": "Primary School",
      "village": "Kabwe",
      "capacity": 1012,
      "currentUsage": 501,
      "status": "Operational",
      "latitude": -15.0684,
      "longitude": 27.0067,
      "lastMaintenance": "2025-08-31T15:00:30.614260"
    },
    {
      "id": 29,
      "chiefdom": "Chief Mukobela",
      "facilityName": "Chililabombwe Facility 29",
      "facilityType": "Water Source",
      "village": "Makeni",
      "capacity": 956,
      "currentUsage": 1558,
      "status": "Under Construction",
      "latitude": -15.0408,
      "longitude": 27.061,
      "lastMaintenance": "2025-08-15T15:00:30.614267"
    },
    {
      "id": 30,
      "chiefdom": "Chief Mukobela",
      "facilityName": "Kasama Facility 30",
      "facilityType": "Secondary School",
      "village": "Chisamba",
      "capacity": 790,
      "currentUsage": 657,
      "status": "Operational",
      "latitude": -14.9104,
      "longitude": 27.0182,
      "lastMaintenance": "2025-08-04T15:00:30.614274"
    },
    {
      "id": 31,
      "chiefdom": "Chief Mukobela",
      "facilityName": "Lilayi Facility 31",
      "facilityType": "Clinic",
      "village": "Kaputa",
      "capacity": 464,
      "currentUsage": 1477,
      "status": "Operational",
      "latitude": -14.888,
      "longitude": 27.0044,
      "lastMaintenance": "2025-09-21T15:00:30.614280"
    },
    {
      "id": 32,
      "chiefdom": "Chief Mukobela",
      "facilityName": "Mutumbi Facility 32",
      "facilityType": "Primary School",
      "village": "Nchelenge",
      "capacity": 823,
      "currentUsage": 439,
      "status": "Under Construction",
      "latitude": -15.0014,
      "longitude": 27.0699,
      "lastMaintenance": "2025-08-09T15:00:30.614287"
    },
    {
      "id": 33,
      "chiefdom": "Chief Mukobela",
      "facilityName": "Katete Facility 33",
      "facilityType": "Water Source",
      "village": "Kalabo",
      "capacity": 343,
      "currentUsage": 310,
      "status": "Under Construction",
      "latitude": -15.0726,
      "longitude": 27.0661,
      "lastMaintenance": "2025-01-29T15:00:30.614293"
    },
    {
      "id": 34,
      "chiefdom": "Chief Mukobela",
      "facilityName": "Chipata Facility 34",
      "facilityType": "Clinic",
      "village": "Chisamba",
      "capacity": 535,
      "currentUsage": 562,
      "status": "Operational",
      "latitude": -14.9268,
      "longitude": 27.1158,
      "lastMaintenance": "2025-05-13T15:00:30.614300"
    },
    {
      "id": 35,
      "chiefdom": "Chief Mukobela",
      "facilityName": "Mpika Facility 35",
      "facilityType": "Secondary School",
      "village": "Solwezi",
      "capacity": 495,
      "currentUsage": 79,
      "status": "Needs Repair",
      "latitude": -14.9314,
      "longitude": 27.1538,
      "lastMaintenance": "2025-07-23T15:00:30.614307"
    },
    {
      "id": 36,
      "chiefdom": "Chief Mukobela",
      "facilityName": "Sinda Facility 36",
      "facilityType": "Hospital",
      "village": "Nakonde",
      "capacity": 1069,
      "currentUsage": 501,
      "status": "Needs Repair",
      "latitude": -15.0096,
      "longitude": 27.1557,
      "lastMaintenance": "2025-03-14T15:00:30.614314"
    },
    {
      "id": 37,
      "chiefdom": "Chief Mukobela",
      "facilityName": "Chipapa Facility 37",
      "facilityType": "Secondary School",
      "village": "Kaputa",
      "capacity": 617,
      "currentUsage": 864,
      "status": "Under Construction",
      "latitude": -15.0059,
      "longitude": 27.1226,
      "lastMaintenance": "2025-05-09T15:00:30.614320"
    },
    {
      "id": 38,
      "chiefdom": "Chief Mukobela",
      "facilityName": "Kalabo Facility 38",
      "facilityType": "Clinic",
      "village": "Chingola",
      "capacity": 345,
      "currentUsage": 836,
      "status": "Under Construction",
      "latitude": -14.9754,
      "longitude": 27.0207,
      "lastMaintenance": "2025-07-16T15:00:30.614327"
    },
    {
      "id": 39,
      "chiefdom": "Chief Mukobela",
      "facilityName": "Mutumbi Facility 39",
      "facilityType": "Water Source",
      "village": "Kitwe",
      "capacity": 95,
      "currentUsage": 610,
      "status": "Needs Repair",
      "latitude": -15.0792,
      "longitude": 26.9715,
      "lastMaintenance": "2025-08-24T15:00:30.614334"
    },
    {
      "id": 40,
      "chiefdom": "Chief Mukobela",
      "facilityName": "Chipapa Facility 40",
      "facilityType": "Hospital",
      "village": "Chilanga",
      "capacity": 1362,
      "currentUsage": 1372,
      "status": "Needs Repair",
      "latitude": -14.9673,
      "longitude": 27.0931,
      "lastMaintenance": "2025-10-25T15:00:30.614341"
    },
    {
      "id": 41,
      "chiefdom": "Chief Mukobela",
      "facilityName": "Mambwe Facility 41",
      "facilityType": "Primary School",
      "village": "Luwingu",
      "capacity": 1221,
      "currentUsage": 1135,
      "status": "Operational",
      "latitude": -14.9487,
      "longitude": 27.1281,
      "lastMaintenance": "2025-12-17T15:00:30.614348"
    },
    {
      "id": 42,
      "chiefdom": "Chief Mukobela",
      "facilityName": "Chililabombwe Facility 42",
      "facilityType": "Clinic",
      "village": "Kanakantapa",
      "capacity": 1405,
      "currentUsage": 104,
      "status": "Operational",
      "latitude": -15.0445,
      "longitude": 27.103,
      "lastMaintenance": "2025-08-10T15:00:30.614355"
    },
    {
      "id": 43,
      "chiefdom": "Chief Mukobela",
      "facilityName": "Mpanshya Facility 43",
      "facilityType": "Clinic",
      "village": "Mpanshya",
      "capacity": 979,
      "currentUsage": 84,
      "status": "Needs Repair",
      "latitude": -15.0271,
      "longitude": 27.0665,
      "lastMaintenance": "2025-10-25T15:00:30.614361"
    },
    {
      "id": 44,
      "chiefdom": "Chief Mukobela",
      "facilityName": "Nakatindi Facility 44",
      "facilityType": "Water Source",
      "village": "Kawambwa",
      "capacity": 894,
      "currentUsage": 482,
      "status": "Needs Repair",
      "latitude": -14.8982,
      "longitude": 26.9931,
      "lastMaintenance": "2025-03-19T15:00:30.614368"
    },
    {
      "id": 45,
      "chiefdom": "Chief Mukobela",
      "facilityName": "Mongu Facility 45",
      "facilityType": "Clinic",
      "village": "Monze",
      "capacity": 955,
      "currentUsage": 722,
      "status": "Under Construction",
      "latitude": -15.0692,
      "longitude": 27.1063,
      "lastMaintenance": "2025-11-06T15:00:30.614375"
    },
    {
      "id": 46,
      "chiefdom": "Chief Mukobela",
      "facilityName": "Chainda Facility 46",
      "facilityType": "Clinic",
      "village": "Zambezi",
      "capacity": 1114,
      "currentUsage": 1281,
      "status": "Needs Repair",
      "latitude": -14.9685,
      "longitude": 27.1289,
      "lastMaintenance": "2025-09-19T15:00:30.614382"
    },
    {
      "id": 47,
      "chiefdom": "Chief Mukobela",
      "facilityName": "Zambezi Facility 47",
      "facilityType": "Primary School",
      "village": "Mazabuka",
      "capacity": 1207,
      "currentUsage": 1126,
      "status": "Needs Repair",
      "latitude": -14.9717,
      "longitude": 27.0683,
      "lastMaintenance": "2025-01-29T15:00:30.614389"
    },
    {
      "id": 48,
      "chiefdom": "Chief Mukobela",
      "facilityName": "Ndola Facility 48",
      "facilityType": "Water Source",
      "village": "Siavonga",
      "capacity": 429,
      "currentUsage": 1486,
      "status": "Under Construction",
      "latitude": -15.0461,
      "longitude": 26.9694,
      "lastMaintenance": "2025-10-16T15:00:30.614396"
    },
    {
      "id": 49,
      "chiefdom": "Chief Mukobela",
      "facilityName": "Kalulushi Facility 49",
      "facilityType": "Secondary School",
      "village": "Mporokoso",
      "capacity": 751,
      "currentUsage": 304,
      "status": "Operational",
      "latitude": -14.961,
      "longitude": 26.9666,
      "lastMaintenance": "2025-03-07T15:00:30.614402"
    },
    {
      "id": 50,
      "chiefdom": "Chief Mukobela",
      "facilityName": "Kanakantapa Facility 50",
      "facilityType": "Hospital",
      "village": "Lunsemfwa",
      "capacity": 918,
      "currentUsage": 1414,
      "status": "Operational",
      "latitude": -14.9344,
      "longitude": 27.136,
      "lastMaintenance": "2025-11-27T15:00:30.614409"
    }
  ]
}