{
  "populationDemographics": {
    "id": 1,
    "chiefdom": "Chief Kashiba",
    "district": "Samfya",
    "province": "Luapula",
    "totalPopulation": 74448,
    "numberOfVillages": 30,
    "numberOfHouseholds": 12219,
    "malePopulation": 32994,
    "femalePopulation": 36702,
    "youthPopulation": 22981,
    "elderlyPopulation": 4296,
    "populationDensity": 41.9,
    "censusDate": "2025-08-13T15:00:30.730982"
  },
  "villages": [
    {
      "id": 1,
      "name": "Chongwe Central 1",
      "chiefdom": "Chief Kashiba",
      "population": 4795,
      "numberOfHouseholds": 1031,
      "villageHead": "Mrs. Dorothy Hamoonga",
      "latitude": -11.4572,
      "longitude": 29.633,
      "distanceToNearestHospital": 10.6,
      "distanceToNearestSchool": 2.7,
      "primaryEconomicActivity": "Fishing",
      "hasElectricity": false,
      "hasCleanWater": true
    },
    {
      "id": 2,
      "name": "Kafue Riverside 1",
      "chiefdom": "Chief Kashiba",
      "population": 11356,
      "numberOfHouseholds": 2363,
      "villageHead": "Mrs. Patricia Chilufya",
      "latitude": -11.3559,
      "longitude": 29.4997,
      "distanceToNearestHospital": 19.5,
      "distanceToNearestSchool": 8.9,
      "primaryEconomicActivity": "Fishing",
      "hasElectricity": false,
      "hasCleanWater": false
    },
    {
      "id": 3,
      "name": "Munyumba 1",
      "chiefdom": "Chief Kashiba",
      "population": 2916,
      "numberOfHouseholds": 1624,
      "villageHead": "Mrs. Elizabeth Mutale",
      "latitude": -11.4226,
      "longitude": 29.6468,
      "distanceToNearestHospital": 22.3,
      "distanceToNearestSchool": 10.6,
      "primaryEconomicActivity": "Mining",
      "hasElectricity": true,
      "hasCleanWater": true
    },
    {
      "id": 4,
      "name": "Kalingalinga 1",
      "chiefdom": "Chief Kashiba",
      "population": 4050,
      "numberOfHouseholds": 493,
      "villageHead": "Mr. William Chisenga",
      "latitude": -11.3631,
      "longitude": 29.5459,
      "distanceToNearestHospital": 15.3,
      "distanceToNearestSchool": 1.6,
      "primaryEconomicActivity": "Farming",
      "hasElectricity": false,
      "hasCleanWater": true
    },
    {
      "id": 5,
      "name": "Chilanga 1",
      "chiefdom": "Chief Kashiba",
      "population": 3891,
      "numberOfHouseholds": 358,
      "villageHead": "Mrs. Agnes Mbewe",
      "latitude": -11.2966,
      "longitude": 29.5657,
      "distanceToNearestHospital": 18.4,
      "distanceToNearestSchool": 5.5,
      "primaryEconomicActivity": "Farming",
      "hasElectricity": true,
      "hasCleanWater": true
    },
    {
      "id": 6,
      "name": "Makeni 1",
      "chiefdom": "Chief Kashiba",
      "population": 6084,
      "numberOfHouseholds": 576,
      "villageHead": "Mr. Richard Zimba",
      "latitude": -11.4548,
      "longitude": 29.6306,
      "distanceToNearestHospital": 24.4,
      "distanceToNearestSchool": 10.8,
      "primaryEconomicActivity": "Mining",
      "hasElectricity": true,
      "hasCleanWater": true
    },
    {
      "id": 7,
      "name": "Ngwerere 1",
      "chiefdom": "Chief Kashiba",
      "population": 4882,
      "numberOfHouseholds": 1462,
      "villageHead": "Mrs. Rose Mwila",
      "latitude": -11.2903,
      "longitude": 29.6023,
      "distanceToNearestHospital": 21.9,
      "distanceToNearestSchool": 0.9,
      "primaryEconomicActivity": "Services",
      "hasElectricity": false,
      "hasCleanWater": true
    },
    {
      "id": 8,
      "name": "Lilayi 1",
      "chiefdom": "Chief Kashiba",
      "population": 5831,
      "numberOfHouseholds": 1508,
      "villageHead": "Mrs. Florence Mwanza",
      "latitude": -11.3127,
      "longitude": 29.6498,
      "distanceToNearestHospital": 19.1,
      "distanceToNearestSchool": 4.6,
      "primaryEconomicActivity": "Mining",
      "hasElectricity": true,
      "hasCleanWater": true
    },
    {
      "id": 9,
      "name": "Palabana 1",
      "chiefdom": "Chief Kashiba",
      "population": 9164,
      "numberOfHouseholds": 1379,
      "villageHead": "Mr. Charles Bwalya",
      "latitude": -11.4429,
      "longitude": 29.5347,
      "distanceToNearestHospital": 24.3,
      "distanceToNearestSchool": 2.5,
      "primaryEconomicActivity": "Services",
      "hasElectricity": false,
      "hasCleanWater": true
    },
    {
      "id": 10,
      "name": "Chainda 1",
      "chiefdom": "Chief Kashiba",
      "population": 4072,
      "numberOfHouseholds": 1217,
      "villageHead": "Mrs. Catherine Kasonde",
      "latitude": -11.4478,
      "longitude": 29.4961,
      "distanceToNearestHospital": 12.7,
      "distanceToNearestSchool": 8.5,
      "primaryEconomicActivity": "Services",
      "hasElectricity": true,
      "hasCleanWater": true
    },
    {
      "id": 11,
      "name": "Meanwood 1",
      "chiefdom": "Chief Kashiba",
      "population": 2008,
      "numberOfHouseholds": 2061,
      "villageHead": "Mrs. Helen Kalaba",
      "latitude": -11.4022,
      "longitude": 29.5495,
      "distanceToNearestHospital": 16.4,
      "distanceToNearestSchool": 5.3,
      "primaryEconomicActivity": "Fishing",
      "hasElectricity": false,
      "hasCleanWater": true
    },
    {
      "id": 12,
      "name": "Leopards Hill 1",
      "chiefdom": "Chief Kashiba",
      "population": 7105,
      "numberOfHouseholds": 700,
      "villageHead": "Mrs. Alice Mwansa",
      "latitude": -11.4593,
      "longitude": 29.6347,
      "distanceToNearestHospital": 7.7,
      "distanceToNearestSchool": 3.5,
      "primaryEconomicActivity": "Trading",
      "hasElectricity": true,
      "hasCleanWater": true
    },
    {
      "id": 13,
      "name": "Chalala 1",
      "chiefdom": "Chief Kashiba",
      "population": 3741,
      "numberOfHouseholds": 2850,
      "villageHead": "Mr. Lawrence Kapasa",
      "latitude": -11.2631,
      "longitude": 29.5902,
      "distanceToNearestHospital": 19.9,
      "distanceToNearestSchool": 6.2,
      "primaryEconomicActivity": "Services",
      "hasElectricity": true,
      "hasCleanWater": true
    },
    {
      "id": 14,
      "name": "Sikanze 1",
      "chiefdom": "Chief Kashiba",
      "population": 6871,
      "numberOfHouseholds": 2152,
      "villageHead": "Mr. Steven Daka",
      "latitude": -11.3808,
      "longitude": 29.5971,
      "distanceToNearestHospital": 24.2,
      "distanceToNearestSchool": 10.2,
      "primaryEconomicActivity": "Mining",
      "hasElectricity": true,
      "hasCleanWater": true
    },
    {
      "id": 15,
      "name": "Nyimba 1",
      "chiefdom": "Chief Kashiba",
      "population": 8990,
      "numberOfHouseholds": 1075,
      "villageHead": "Mrs. Ruth Moyo",
      "latitude": -11.3293,
      "longitude": 29.4921,
      "distanceToNearestHospital": 20.1,
      "distanceToNearestSchool": 1.0,
      "primaryEconomicActivity": "Services",
      "hasElectricity": false,
      "hasCleanWater": true
    },
    {
      "id": 16,
      "name": "Luangwa 1",
      "chiefdom": "Chief Kashiba",
      "population": 8413,
      "numberOfHouseholds": 2777,
      "villageHead": "Mrs. Sarah Mumba",
      "latitude": -11.3679,
      "longitude": 29.5255,
      "distanceToNearestHospital": 16.7,
      "distanceToNearestSchool": 1.4,
      "primaryEconomicActivity": "Mining",
      "hasElectricity": true,
      "hasCleanWater": true
    },
    {
      "id": 17,
      "name": "Mpanshya 1",
      "chiefdom": "Chief Kashiba",
      "population": 8408,
      "numberOfHouseholds": 238,
      "villageHead": "Mrs. Linda Chiluba",
      "latitude": -11.3071,
      "longitude": 29.4653,
      "distanceToNearestHospital": 21.6,
      "distanceToNearestSchool": 10.1,
      "primaryEconomicActivity": "Farming",
      "hasElectricity": false,
      "hasCleanWater": false
    },
    {
      "id": 18,
      "name": "Mutumbi 1",
      "chiefdom": "Chief Kashiba",
      "population": 2893,
      "numberOfHouseholds": 1175,
      "villageHead": "Mr. Richard Zimba",
      "latitude": -11.3176,
      "longitude": 29.467,
      "distanceToNearestHospital": 21.4,
      "distanceToNearestSchool": 2.7,
      "primaryEconomicActivity": "Fishing",
      "hasElectricity": false,
      "hasCleanWater": true
    },
    {
      "id": 19,
      "name": "Kanakantapa 1",
      "chiefdom": "Chief Kashiba",
      "population": 9117,
      "numberOfHouseholds": 519,
      "villageHead": "Mr. John Banda",
      "latitude": -11.2779,
      "longitude": 29.4798,
      "distanceToNearestHospital": 18.1,
      "distanceToNearestSchool": 5.2,
      "primaryEconomicActivity": "Trading",
      "hasElectricity": true,
      "hasCleanWater": true
    },
    {
      "id": 20,
      "name": "Mwembezhi 1",
      "chiefdom": "Chief Kashiba",
      "population": 11869,
      "numberOfHouseholds": 1285,
      "villageHead": "Mrs. Florence Mwanza",
      "latitude": -11.3092,
      "longitude": 29.6089,
      "distanceToNearestHospital": 7.1,
      "distanceToNearestSchool": 1.5,
      "primaryEconomicActivity": "Trading",
      "hasElectricity": false,
      "hasCleanWater": true
    },
    {
      "id": 21,
      "name": "Shimabala 1",
      "chiefdom": "Chief Kashiba",
      "population": 14993,
      "numberOfHouseholds": 2101,
      "villageHead": "Mr. Daniel Sakala",
      "latitude": -11.4159,
      "longitude": 29.5078,
      "distanceToNearestHospital": 23.7,
      "distanceToNearestSchool": 2.4,
      "primaryEconomicActivity": "Farming",
      "hasElectricity": false,
      "hasCleanWater": false
    },
    {
      "id": 22,
      "name": "Chisamba 1",
      "chiefdom": "Chief Kashiba",
      "population": 11437,
      "numberOfHouseholds": 1120,
      "villageHead": "Mr. Emmanuel Ngulube",
      "latitude": -11.266,
      "longitude": 29.6455,
      "distanceToNearestHospital": 21.0,
      "distanceToNearestSchool": 8.0,
      "primaryEconomicActivity": "Services",
      "hasElectricity": true,
      "hasCleanWater": true
    },
    {
      "id": 23,
      "name": "Katoba 1",
      "chiefdom": "Chief Kashiba",
      "population": 10020,
      "numberOfHouseholds": 1310,
      "villageHead": "Mr. Emmanuel Ngulube",
      "latitude": -11.4228,
      "longitude": 29.5347,
      "distanceToNearestHospital": 13.5,
      "distanceToNearestSchool": 2.4,
      "primaryEconomicActivity": "Trading",
      "hasElectricity": false,
      "hasCleanWater": false
    },
    {
      "id": 24,
      "name": "Kaunga 1",
      "chiefdom": "Chief Kashiba",
      "population": 6085,
      "numberOfHouseholds": 2966,
      "villageHead": "Mrs. Florence Mwanza",
      "latitude": -11.4246,
      "longitude": 29.5605,
      "distanceToNearestHospital": 3.0,
      "distanceToNearestSchool": 0.8,
      "primaryEconomicActivity": "Fishing",
      "hasElectricity": true,
      "hasCleanWater": false
    },
    {
      "id": 25,
      "name": "Chipapa 1",
      "chiefdom": "Chief Kashiba",
      "population": 14588,
      "numberOfHouseholds": 2272,
      "villageHead": "Mr. Michael Nyirenda",
      "latitude": -11.356,
      "longitude": 29.5666,
      "distanceToNearestHospital": 22.3,
      "distanceToNearestSchool": 9.4,
      "primaryEconomicActivity": "Farming",
      "hasElectricity": true,
      "hasCleanWater": true
    },
    {
      "id": 26,
      "name": "Nakatindi 1",
      "chiefdom": "Chief Kashiba",
      "population": 9880,
      "numberOfHouseholds": 1617,
      "villageHead": "Mrs. Sarah Mumba",
      "latitude": -11.3624,
      "longitude": 29.6147,
      "distanceToNearestHospital": 12.9,
      "distanceToNearestSchool": 6.6,
      "primaryEconomicActivity": "Fishing",
      "hasElectricity": true,
      "hasCleanWater": true
    },
    {
      "id": 27,
      "name": "Mbabala 1",
      "chiefdom": "Chief Kashiba",
      "population": 3159,
      "numberOfHouseholds": 2044,
      "villageHead": "Mrs. Grace Tembo",
      "latitude": -11.4162,
      "longitude": 29.4609,
      "distanceToNearestHospital": 21.0,
      "distanceToNearestSchool": 10.5,
      "primaryEconomicActivity": "Services",
      "hasElectricity": true,
      "hasCleanWater": false
    },
    {
      "id": 28,
      "name": "Chalimbana 1",
      "chiefdom": "Chief Kashiba",
      "population": 5050,
      "numberOfHouseholds": 2034,
      "villageHead": "Mr. Charles Bwalya",
      "latitude": -11.3672,
      "longitude": 29.4939,
      "distanceToNearestHospital": 22.7,
      "distanceToNearestSchool": 4.2,
      "primaryEconomicActivity": "Trading",
      "hasElectricity": false,
      "hasCleanWater": true
    },
    {
      "id": 29,
      "name": "Kapiri 1",
      "chiefdom": "Chief Kashiba",
      "population": 3294,
      "numberOfHouseholds": 210,
      "villageHead": "Mr. Anthony Mulenga",
      "latitude": -11.2609,
      "longitude": 29.5309,
      "distanceToNearestHospital": 20.0,
      "distanceToNearestSchool": 6.2,
      "primaryEconomicActivity": "Services",
      "hasElectricity": true,
      "hasCleanWater": false
    },
    {
      "id": 30,
      "name": "Lunsemfwa 1",
      "chiefdom": "Chief Kashiba",
      "population": 9104,
      "numberOfHouseholds": 776,
      "villageHead": "Mrs. Rose Mwila",
      "latitude": -11.421,
      "longitude": 29.5554,
      "distanceToNearestHospital": 21.4,
      "distanceToNearestSchool": 7.4,
      "primaryEconomicActivity": "Fishing",
      "hasElectricity": false,
      "hasCleanWater": false
    },
    {
      "id": 31,
      "name": "Mumbwa 1",
      "chiefdom": "Chief Kashiba",
      "population": 13304,
      "numberOfHouseholds": 1412,
      "villageHead": "Mr. Francis Chipanga",
      "latitude": -11.3474,
      "longitude": 29.4527,
      "distanceToNearestHospital": 7.8,
      "distanceToNearestSchool": 2.3,
      "primaryEconomicActivity": "Services",
      "hasElectricity": true,
      "hasCleanWater": true
    },
    {
      "id": 32,
      "name": "Kasempa 1",
      "chiefdom": "Chief Kashiba",
      "population": 4675,
      "numberOfHouseholds": 1274,
      "villageHead": "Mrs. Helen Kalaba",
      "latitude": -11.3436,
      "longitude": 29.4904,
      "distanceToNearestHospital": 15.5,
      "distanceToNearestSchool": 4.2,
      "primaryEconomicActivity": "Mining",
      "hasElectricity": true,
      "hasCleanWater": false
    },
    {
      "id": 33,
      "name": "Mufumbwe 1",
      "chiefdom": "Chief Kashiba",
      "population": 9717,
      "numberOfHouseholds": 1809,
      "villageHead": "Mr. Emmanuel Ngulube",
      "latitude": -11.4397,
      "longitude": 29.5212,
      "distanceToNearestHospital": 8.3,
      "distanceToNearestSchool": 6.3,
      "primaryEconomicActivity": "Services",
      "hasElectricity": false,
      "hasCleanWater": false
    },
    {
      "id": 34,
      "name": "Kabwe 1",
      "chiefdom": "Chief Kashiba",
      "population": 14052,
      "numberOfHouseholds": 234,
      "villageHead": "Mrs. Florence Mwanza",
      "latitude": -11.3867,
      "longitude": 29.4575,
      "distanceToNearestHospital": 20.9,
      "distanceToNearestSchool": 5.0,
      "primaryEconomicActivity": "Mining",
      "hasElectricity": false,
      "hasCleanWater": true
    },
    {
      "id": 35,
      "name": "Chibombo 1",
      "chiefdom": "Chief Kashiba",
      "population": 11170,
      "numberOfHouseholds": 1343,
      "villageHead": "Mr. George Nkonde",
      "latitude": -11.3224,
      "longitude": 29.4634,
      "distanceToNearestHospital": 22.6,
      "distanceToNearestSchool": 5.4,
      "primaryEconomicActivity": "Mining",
      "hasElectricity": true,
      "hasCleanWater": true
    },
    {
      "id": 36,
      "name": "Mkushi 1",
      "chiefdom": "Chief Kashiba",
      "population": 11319,
      "numberOfHouseholds": 437,
      "villageHead": "Mrs. Alice Mwansa",
      "latitude": -11.3108,
      "longitude": 29.496,
      "distanceToNearestHospital": 5.8,
      "distanceToNearestSchool": 3.3,
      "primaryEconomicActivity": "Mining",
      "hasElectricity": true,
      "hasCleanWater": false
    },
    {
      "id": 37,
      "name": "Serenje 1",
      "chiefdom": "Chief Kashiba",
      "population": 4295,
      "numberOfHouseholds": 2715,
      "villageHead": "Mr. Daniel Sakala",
      "latitude": -11.2903,
      "longitude": 29.5741,
      "distanceToNearestHospital": 2.9,
      "distanceToNearestSchool": 8.1,
      "primaryEconomicActivity": "Mining",
      "hasElectricity": true,
      "hasCleanWater": true
    },
    {
      "id": 38,
      "name": "Mpika 1",
      "chiefdom": "Chief Kashiba",
      "population": 6779,
      "numberOfHouseholds": 1301,
      "villageHead": "Mr. Robert Ngoma",
      "latitude": -11.3756,
      "longitude": 29.5715,
      "distanceToNearestHospital": 24.3,
      "distanceToNearestSchool": 11.2,
      "primaryEconomicActivity": "Services",
      "hasElectricity": true,
      "hasCleanWater": false
    },
    {
      "id": 39,
      "name": "Nakonde 1",
      "chiefdom": "Chief Kashiba",
      "population": 13095,
      "numberOfHouseholds": 1707,
      "villageHead": "Mrs. Christine Kunda",
      "latitude": -11.3262,
      "longitude": 29.6137,
      "distanceToNearestHospital": 21.1,
      "distanceToNearestSchool": 4.9,
      "primaryEconomicActivity": "Mining",
      "hasElectricity": true,
      "hasCleanWater": false
    },
    {
      "id": 40,
      "name": "Isoka 1",
      "chiefdom": "Chief Kashiba",
      "population": 7355,
      "numberOfHouseholds": 2387,
      "villageHead": "Mr. Joseph Lungu",
      "latitude": -11.3843,
      "longitude": 29.5499,
      "distanceToNearestHospital": 5.3,
      "distanceToNearestSchool": 5.2,
      "primaryEconomicActivity": "Farming",
      "hasElectricity": true,
      "hasCleanWater": true
    },
    {
      "id": 41,
      "name": "Chinsali 1",
      "chiefdom": "Chief Kashiba",
      "population": 8330,
      "numberOfHouseholds": 1767,
      "villageHead": "Mrs. Christine Kunda",
      "latitude": -11.3806,
      "longitude": 29.6499,
      "distanceToNearestHospital": 11.5,
      "distanceToNearestSchool": 10.3,
      "primaryEconomicActivity": "Services",
      "hasElectricity": false,
      "hasCleanWater": true
    },
    {
      "id": 42,
      "name": "Kasama 1",
      "chiefdom": "Chief Kashiba",
      "population": 10772,
      "numberOfHouseholds": 2611,
      "villageHead": "Mrs. Elizabeth Mutale",
      "latitude": -11.4226,
      "longitude": 29.6248,
      "distanceToNearestHospital": 20.1,
      "distanceToNearestSchool": 11.6,
      "primaryEconomicActivity": "Services",
      "hasElectricity": true,
      "hasCleanWater": true
    },
    {
      "id": 43,
      "name": "Mbala 1",
      "chiefdom": "Chief Kashiba",
      "population": 4114,
      "numberOfHouseholds": 1206,
      "villageHead": "Mrs. Margaret Musonda",
      "latitude": -11.371,
      "longitude": 29.4695,
      "distanceToNearestHospital": 13.6,
      "distanceToNearestSchool": 1.1,
      "primaryEconomicActivity": "Mining",
      "hasElectricity": true,
      "hasCleanWater": false
    },
    {
      "id": 44,
      "name": "Luwingu 1",
      "chiefdom": "Chief Kashiba",
      "population": 9854,
      "numberOfHouseholds": 2083,
      "villageHead": "Mr. John Banda",
      "latitude": -11.409,
      "longitude": 29.5156,
      "distanceToNearestHospital": 20.1,
      "distanceToNearestSchool": 8.2,
      "primaryEconomicActivity": "Services",
      "hasElectricity": false,
      "hasCleanWater": true
    },
    {
      "id": 45,
      "name": "Mporokoso 1",
      "chiefdom": "Chief Kashiba",
      "population": 12727,
      "numberOfHouseholds": 615,
      "villageHead": "Mrs. Patricia Chilufya",
      "latitude": -11.3866,
      "longitude": 29.5975,
      "distanceToNearestHospital": 15.8,
      "distanceToNearestSchool": 2.9,
      "primaryEconomicActivity": "Mining",
      "hasElectricity": false,
      "hasCleanWater": true
    },
    {
      "id": 46,
      "name": "Kawambwa 1",
      "chiefdom": "Chief Kashiba",
      "population": 3375,
      "numberOfHouseholds": 1309,
      "villageHead": "Mrs. Christine Kunda",
      "latitude": -11.3612,
      "longitude": 29.4977,
      "distanceToNearestHospital": 16.4,
      "distanceToNearestSchool": 3.4,
      "primaryEconomicActivity": "Trading",
      "hasElectricity": false,
      "hasCleanWater": true
    },
    {
      "id": 47,
      "name": "Mansa 1",
      "chiefdom": "Chief Kashiba",
      "population": 9456,
      "numberOfHouseholds": 2312,
      "villageHead": "Mrs. Catherine Kasonde",
      "latitude": -11.3224,
      "longitude": 29.5248,
      "distanceToNearestHospital": 18.1,
      "distanceToNearestSchool": 11.8,
      "primaryEconomicActivity": "Services",
      "hasElectricity": true,
      "hasCleanWater": true
    },
    {
      "id": 48,
      "name": "Samfya 1",
      "chiefdom": "Chief Kashiba",
      "population": 3907,
      "numberOfHouseholds": 2700,
      "villageHead": "Mrs. Mary Phiri",
      "latitude": -11.3471,
      "longitude": 29.471,
      "distanceToNearestHospital": 8.6,
      "distanceToNearestSchool": 10.6,
      "primaryEconomicActivity": "Services",
      "hasElectricity": false,
      "hasCleanWater": false
    },
    {
      "id": 49,
      "name": "Nchelenge 1",
      "chiefdom": "Chief Kashiba",
      "population": 6405,
      "numberOfHouseholds": 2983,
      "villageHead": "Mr. Francis Chipanga",
      "latitude": -11.3423,
      "longitude": 29.5329,
      "distanceToNearestHospital": 16.8,
      "distanceToNearestSchool": 1.3,
      "primaryEconomicActivity": "Fishing",
      "hasElectricity": true,
      "hasCleanWater": false
    },
    {
      "id": 50,
      "name": "Kaputa 1",
      "chiefdom": "Chief Kashiba",
      "population": 11447,
      "numberOfHouseholds": 2694,
      "villageHead": "Mrs. Grace Tembo",
      "latitude": -11.3173,
      "longitude": 29.5013,
      "distanceToNearestHospital": 21.3,
      "distanceToNearestSchool": 6.9,
      "primaryEconomicActivity": "Trading",
      "hasElectricity": false,
      "hasCleanWater": true
    }
  ],
  "infrastructure": [
    {
      "id": 1,
      "chiefdom": "Chief Kashiba",
      "facilityName": "Mambwe Facility 1",
      "facilityType": "Hospital",
      "village": "Chilanga",
      "capacity": 1470,
      "currentUsage": 231,
      "status": "Operational",
      "latitude": -11.2768,
      "longitude": 29.4984,
      "lastMaintenance": "2025-01-26T15:00:30.731187"
    },
    {
      "id": 2,
      "chiefdom": "Chief Kashiba",
      "facilityName": "Mporokoso Facility 2",
      "facilityType": "Hospital",
      "village": "Kaputa",
      "capacity": 442,
      "currentUsage": 550,
      "status": "Needs Repair",
      "latitude": -11.4323,
      "longitude": 29.5253,
      "lastMaintenance": "2026-01-09T15:00:30.731194"
    },
    {
      "id": 3,
      "chiefdom": "Chief Kashiba",
      "facilityName": "Gwembe Facility 3",
      "facilityType": "Hospital",
      "village": "Chipapa",
      "capacity": 697,
      "currentUsage": 753,
      "status": "Operational",
      "latitude": -11.2618,
      "longitude": 29.4557,
      "lastMaintenance": "2025-06-04T15:00:30.731201"
    },
    {
      "id": 4,
      "chiefdom": "Chief Kashiba",
      "facilityName": "Kalulushi Facility 4",
      "facilityType": "Secondary School",
      "village": "Kasempa",
      "capacity": 1451,
      "currentUsage": 369,
      "status": "Operational",
      "latitude": -11.4226,
      "longitude": 29.6006,
      "lastMaintenance": "2025-12-22T15:00:30.731208"
    },
    {
      "id": 5,
      "chiefdom": "Chief Kashiba",
      "facilityName": "Mwinilunga Facility 5",
      "facilityType": "Hospital",
      "village": "Mwinilunga",
      "capacity": 1220,
      "currentUsage": 804,
      "status": "Under Construction",
      "latitude": -11.4366,
      "longitude": 29.5201,
      "lastMaintenance": "2025-12-31T15:00:30.731215"
    },
    {
      "id": 6,
      "chiefdom": "Chief Kashiba",
      "facilityName": "Kalomo Facility 6",
      "facilityType": "Clinic",
      "village": "Chadiza",
      "capacity": 1391,
      "currentUsage": 327,
      "status": "Needs Repair",
      "latitude": -11.3964,
      "longitude": 29.6321,
      "lastMaintenance": "2025-12-05T15:00:30.731222"
    },
    {
      "id": 7,
      "chiefdom": "Chief Kashiba",
      "facilityName": "Shimabala Facility 7",
      "facilityType": "Water Source",
      "village": "Chalimbana",
      "capacity": 713,
      "currentUsage": 766,
      "status": "Operational",
      "latitude": -11.2948,
      "longitude": 29.5582,
      "lastMaintenance": "2025-02-12T15:00:30.731229"
    },
    {
      "id": 8,
      "chiefdom": "Chief Kashiba",
      "facilityName": "Sesheke Facility 8",
      "facilityType": "Hospital",
      "village": "Kaunga",
      "capacity": 1010,
      "currentUsage": 967,
      "status": "Under Construction",
      "latitude": -11.318,
      "longitude": 29.5972,
      "lastMaintenance": "2025-08-16T15:00:30.731236"
    },
    {
      "id": 9,
      "chiefdom": "Chief Kashiba",
      "facilityName": "Kalabo Facility 9",
      "facilityType": "Clinic",
      "village": "Meanwood",
      "capacity": 1092,
      "currentUsage": 773,
      "status": "Operational",
      "latitude": -11.3175,
      "longitude": 29.5702,
      "lastMaintenance": "2025-08-16T15:00:30.731242"
    },
    {
      "id": 10,
      "chiefdom": "Chief Kashiba",
      "facilityName": "Ngwerere Facility 10",
      "facilityType": "Water Source",
      "village": "Luangwa",
      "capacity": 823,
      "currentUsage": 398,
      "status": "Under Construction",
      "latitude": -11.3455,
      "longitude": 29.5595,
      "lastMaintenance": "2025-08-11T15:00:30.731249"
    },
    {
      "id": 11,
      "chiefdom": "Chief Kashiba",
      "facilityName": "Luwingu Facility 11",
      "facilityType": "Water Source",
      "village": "Kasempa",
      "capacity": 661,
      "currentUsage": 947,
      "status": "Needs Repair",
      "latitude": -11.3336,
      "longitude": 29.4525,
      "lastMaintenance": "2025-06-21T15:00:30.731256"
    },
    {
      "id": 12,
      "chiefdom": "Chief Kashiba",
      "facilityName": "Kafue Riverside Facility 12",
      "facilityType": "Hospital",
      "village": "Chingola",
      "capacity": 154,
      "currentUsage": 139,
      "status": "Operational",
      "latitude": -11.4508,
      "longitude": 29.5948,
      "lastMaintenance": "2025-05-13T15:00:30.731264"
    },
    {
      "id": 13,
      "chiefdom": "Chief Kashiba",
      "facilityName": "Luwingu Facility 13",
      "facilityType": "Water Source",
      "village": "Chongwe Central",
      "capacity": 691,
      "currentUsage": 593,
      "status": "Operational",
      "latitude": -11.3487,
      "longitude": 29.4599,
      "lastMaintenance": "2025-07-20T15:00:30.731271"
    },
    {
      "id": 14,
      "chiefdom": "Chief Kashiba",
      "facilityName": "Mporokoso Facility 14",
      "facilityType": "Primary School",
      "village": "Mbala",
      "capacity": 931,
      "currentUsage": 1560,
      "status": "Needs Repair",
      "latitude": -11.2841,
      "longitude": 29.4704,
      "lastMaintenance": "2025-06-04T15:00:30.731278"
    },
    {
      "id": 15,
      "chiefdom": "Chief Kashiba",
      "facilityName": "Kabompo Facility 15",
      "facilityType": "Primary School",
      "village": "Choma",
      "capacity": 1396,
      "currentUsage": 445,
      "status": "Under Construction",
      "latitude": -11.3215,
      "longitude": 29.524,
      "lastMaintenance": "2025-06-09T15:00:30.731284"
    },
    {
      "id": 16,
      "chiefdom": "Chief Kashiba",
      "facilityName": "Isoka Facility 16",
      "facilityType": "Primary School",
      "village": "Lunsemfwa",
      "capacity": 144,
      "currentUsage": 354,
      "status": "Needs Repair",
      "latitude": -11.4368,
      "longitude": 29.4592,
      "lastMaintenance": "2025-09-27T15:00:30.731291"
    },
    {
      "id": 17,
      "chiefdom": "Chief Kashiba",
      "facilityName": "Sinda Facility 17",
      "facilityType": "Clinic",
      "village": "Chipata",
      "capacity": 626,
      "currentUsage": 1240,
      "status": "Operational",
      "latitude": -11.2724,
      "longitude": 29.5226,
      "lastMaintenance": "2025-09-12T15:00:30.731299"
    },
    {
      "id": 18,
      "chiefdom": "Chief Kashiba",
      "facilityName": "Katete Facility 18",
      "facilityType": "Secondary School",
      "village": "Shangombo",
      "capacity": 1451,
      "currentUsage": 1412,
      "status": "Under Construction",
      "latitude": -11.3228,
      "longitude": 29.5203,
      "lastMaintenance": "2025-08-08T15:00:30.731305"
    },
    {
      "id": 19,
      "chiefdom": "Chief Kashiba",
      "facilityName": "Vubwi Facility 19",
      "facilityType": "Clinic",
      "village": "Kawambwa",
      "capacity": 1233,
      "currentUsage": 920,
      "status": "Operational",
      "latitude": -11.4074,
      "longitude": 29.563,
      "lastMaintenance": "2025-08-11T15:00:30.731312"
    },
    {
      "id": 20,
      "chiefdom": "Chief Kashiba",
      "facilityName": "Isoka Facility 20",
      "facilityType": "Water Source",
      "village": "Vubwi",
      "capacity": 1354,
      "currentUsage": 182,
      "status": "Operational",
      "latitude": -11.456,
      "longitude": 29.5105,
      "lastMaintenance": "2025-01-28T15:00:30.731319"
    },
    {
      "id": 21,
      "chiefdom": "Chief Kashiba",
      "facilityName": "Kalulushi Facility 21",
      "facilityType": "Hospital",
      "village": "Vubwi",
      "capacity": 514,
      "currentUsage": 393,
      "status": "Under Construction",
      "latitude": -11.3158,
      "longitude": 29.632,
      "lastMaintenance": "2025-07-18T15:00:30.731326"
    },
    {
      "id": 22,
      "chiefdom": "Chief Kashiba",
      "facilityName": "Choma Facility 22",
      "facilityType": "Water Source",
      "village": "Mkushi",
      "capacity": 362,
      "currentUsage": 1248,
      "status": "Under Construction",
      "latitude": -11.3506,
      "longitude": 29.5961,
      "lastMaintenance": "2025-08-03T15:00:30.731333"
    },
    {
      "id": 23,
      "chiefdom": "Chief Kashiba",
      "facilityName": "Chongwe Central Facility 23",
      "facilityType": "Primary School",
      "village": "Ndola",
      "capacity": 1100,
      "currentUsage": 219,
      "status": "Under Construction",
      "latitude": -11.4228,
      "longitude": 29.5489,
      "lastMaintenance": "2025-02-01T15:00:30.731339"
    },
    {
      "id": 24,
      "chiefdom": "Chief Kashiba",
      "facilityName": "Kalomo Facility 24",
      "facilityType": "Primary School",
      "village": "Lunsemfwa",
      "capacity": 1189,
      "currentUsage": 43,
      "status": "Operational",
      "latitude": -11.4488,
      "longitude": 29.6343,
      "lastMaintenance": "2025-03-14T15:00:30.731346"
    },
    {
      "id": 25,
      "chiefdom": "Chief Kashiba",
      "facilityName": "Lukulu Facility 25",
      "facilityType": "Primary School",
      "village": "Chinsali",
      "capacity": 372,
      "currentUsage": 1225,
      "status": "Needs Repair",
      "latitude": -11.3225,
      "longitude": 29.6441,
      "lastMaintenance": "2025-03-23T15:00:30.731353"
    },
    {
      "id": 26,
      "chiefdom": "Chief Kashiba",
      "facilityName": "Mwembezhi Facility 26",
      "facilityType": "Hospital",
      "village": "Chalimbana",
      "capacity": 1224,
      "currentUsage": 59,
      "status": "Needs Repair",
      "latitude": -11.4064,
      "longitude": 29.6323,
      "lastMaintenance": "2025-07-23T15:00:30.731360"
    },
    {
      "id": 27,
      "chiefdom": "Chief Kashiba",
      "facilityName": "Chingola Facility 27",
      "facilityType": "Primary School",
      "village": "Mongu",
      "capacity": 1404,
      "currentUsage": 214,
      "status": "Needs Repair",
      "latitude": -11.2768,
      "longitude": 29.5858,
      "lastMaintenance": "2025-05-01T15:00:30.731367"
    },
    {
      "id": 28,
      "chiefdom": "Chief Kashiba",
      "facilityName": "Makeni Facility 28",
      "facilityType": "Primary School",
      "village": "Chalimbana",
      "capacity": 790,
      "currentUsage": 330,
      "status": "Needs Repair",
      "latitude": -11.3724,
      "longitude": 29.5843,
      "lastMaintenance": "2025-03-04T15:00:30.731373"
    },
    {
      "id": 29,
      "chiefdom": "Chief Kashiba",
      "facilityName": "Luanshya Facility 29",
      "facilityType": "Secondary School",
      "village": "Chongwe Central",
      "capacity": 1067,
      "currentUsage": 606,
      "status": "Operational",
      "latitude": -11.2654,
      "longitude": 29.4562,
      "lastMaintenance": "2025-08-20T15:00:30.731380"
    },
    {
      "id": 30,
      "chiefdom": "Chief Kashiba",
      "facilityName": "Samfya Facility 30",
      "facilityType": "Secondary School",
      "village": "Mufumbwe",
      "capacity": 391,
      "currentUsage": 650,
      "status": "Needs Repair",
      "latitude": -11.3936,
      "longitude": 29.4811,
      "lastMaintenance": "2025-05-09T15:00:30.731387"
    },
    {
      "id": 31,
      "chiefdom": "Chief Kashiba",
      "facilityName": "Kapiri Facility 31",
      "facilityType": "Primary School",
      "village": "Chilanga",
      "capacity": 504,
      "currentUsage": 313,
      "status": "Under Construction",
      "latitude": -11.4144,
      "longitude": 29.4504,
      "lastMaintenance": "2025-11-26T15:00:30.731394"
    },
    {
      "id": 32,
      "chiefdom": "Chief Kashiba",
      "facilityName": "Chalala Facility 32",
      "facilityType": "Hospital",
      "village": "Mkushi",
      "capacity": 1323,
      "currentUsage": 476,
      "status": "Under Construction",
      "latitude": -11.3307,
      "longitude": 29.5974,
      "lastMaintenance": "2025-05-07T15:00:30.731401"
    },
    {
      "id": 33,
      "chiefdom": "Chief Kashiba",
      "facilityName": "Mwembezhi Facility 33",
      "facilityType": "Water Source",
      "village": "Chipapa",
      "capacity": 900,
      "currentUsage": 218,
      "status": "Operational",
      "latitude": -11.4569,
      "longitude": 29.4729,
      "lastMaintenance": "2025-07-07T15:00:30.731408"
    },
    {
      "id": 34,
      "chiefdom": "Chief Kashiba",
      "facilityName": "Chingola Facility 34",
      "facilityType": "Clinic",
      "village": "Kasempa",
      "capacity": 1490,
      "currentUsage": 1299,
      "status": "Needs Repair",
      "latitude": -11.2692,
      "longitude": 29.6002,
      "lastMaintenance": "2025-05-22T15:00:30.731420"
    },
    {
      "id": 35,
      "chiefdom": "Chief Kashiba",
      "facilityName": "Solwezi Facility 35",
      "facilityType": "Water Source",
      "village": "Mpongwe",
      "capacity": 1126,
      "currentUsage": 941,
      "status": "Operational",
      "latitude": -11.4219,
      "longitude": 29.5074,
      "lastMaintenance": "2025-06-28T15:00:30.731427"
    },
    {
      "id": 36,
      "chiefdom": "Chief Kashiba",
      "facilityName": "Sikanze Facility 36",
      "facilityType": "Water Source",
      "village": "Luanshya",
      "capacity": 645,
      "currentUsage": 1177,
      "status": "Under Construction",
      "latitude": -11.4258,
      "longitude": 29.6462,
      "lastMaintenance": "2025-12-05T15:00:30.731434"
    },
    {
      "id": 37,
      "chiefdom": "Chief Kashiba",
      "facilityName": "Mambwe Facility 37",
      "facilityType": "Water Source",
      "village": "Pemba",
      "capacity": 884,
      "currentUsage": 642,
      "status": "Needs Repair",
      "latitude": -11.4108,
      "longitude": 29.5516,
      "lastMaintenance": "2026-01-07T15:00:30.731441"
    },
    {
      "id": 38,
      "chiefdom": "Chief Kashiba",
      "facilityName": "Shimabala Facility 38",
      "facilityType": "Clinic",
      "village": "Kasempa",
      "capacity": 1073,
      "currentUsage": 1488,
      "status": "Under Construction",
      "latitude": -11.3131,
      "longitude": 29.4648,
      "lastMaintenance": "2025-08-04T15:00:30.731448"
    },
    {
      "id": 39,
      "chiefdom": "Chief Kashiba",
      "facilityName": "Makeni Facility 39",
      "facilityType": "Primary School",
      "village": "Luangwa",
      "capacity": 976,
      "currentUsage": 370,
      "status": "Operational",
      "latitude": -11.4574,
      "longitude": 29.6378,
      "lastMaintenance": "2025-11-11T15:00:30.731455"
    },
    {
      "id": 40,
      "chiefdom": "Chief Kashiba",
      "facilityName": "Pemba Facility 40",
      "facilityType": "Secondary School",
      "village": "Kitwe",
      "capacity": 1487,
      "currentUsage": 178,
      "status": "Under Construction",
      "latitude": -11.3316,
      "longitude": 29.6377,
      "lastMaintenance": "2025-09-01T15:00:30.731462"
    },
    {
      "id": 41,
      "chiefdom": "Chief Kashiba",
      "facilityName": "Vubwi Facility 41",
      "facilityType": "Hospital",
      "village": "Chipapa",
      "capacity": 745,
      "currentUsage": 371,
      "status": "Operational",
      "latitude": -11.2911,
      "longitude": 29.4512,
      "lastMaintenance": "2025-05-05T15:00:30.731469"
    },
    {
      "id": 42,
      "chiefdom": "Chief Kashiba",
      "facilityName": "Mufumbwe Facility 42",
      "facilityType": "Secondary School",
      "village": "Kanakantapa",
      "capacity": 190,
      "currentUsage": 1567,
      "status": "Under Construction",
      "latitude": -11.4479,
      "longitude": 29.5337,
      "lastMaintenance": "2025-03-29T15:00:30.731476"
    },
    {
      "id": 43,
      "chiefdom": "Chief Kashiba",
      "facilityName": "Mongu Facility 43",
      "facilityType": "Primary School",
      "village": "Senanga",
      "capacity": 720,
      "currentUsage": 313,
      "status": "Operational",
      "latitude": -11.3099,
      "longitude": 29.4787,
      "lastMaintenance": "2025-03-18T15:00:30.731483"
    },
    {
      "id": 44,
      "chiefdom": "Chief Kashiba",
      "facilityName": "Chililabombwe Facility 44",
      "facilityType": "Hospital",
      "village": "Mutumbi",
      "capacity": 480,
      "currentUsage": 1047,
      "status": "Needs Repair",
      "latitude": -11.3094,
      "longitude": 29.5175,
      "lastMaintenance": "2025-05-23T15:00:30.731489"
    },
    {
      "id": 45,
      "chiefdom": "Chief Kashiba",
      "facilityName": "Kapiri Facility 45",
      "facilityType": "Water Source",
      "village": "Samfya",
      "capacity": 117,
      "currentUsage": 1176,
      "status": "Needs Repair",
      "latitude": -11.2607,
      "longitude": 29.4737,
      "lastMaintenance": "2025-07-03T15:00:30.731496"
    },
    {
      "id": 46,
      "chiefdom": "Chief Kashiba",
      "facilityName": "Mufulira Facility 46",
      "facilityType": "Primary School",
      "village": "Ndola",
      "capacity": 1195,
      "currentUsage": 649,
      "status": "Operational",
      "latitude": -11.389,
      "longitude": 29.4681,
      "lastMaintenance": "2025-05-16T15:00:30.731503"
    },
    {
      "id": 47,
      "chiefdom": "Chief Kashiba",
      "facilityName": "Chisamba Facility 47",
      "facilityType": "Hospital",
      "village": "Siavonga",
      "capacity": 312,
      "currentUsage": 1401,
      "status": "Needs Repair",
      "latitude": -11.3319,
      "longitude": 29.5206,
      "lastMaintenance": "2025-07-22T15:00:30.731510"
    },
    {
      "id": 48,
      "chiefdom": "Chief Kashiba",
      "facilityName": "Samfya Facility 48",
      "facilityType": "Water Source",
      "village": "Luangwa",
      "capacity": 748,
      "currentUsage": 1555,
      "status": "Operational",
      "latitude": -11.3128,
      "longitude": 29.5858,
      "lastMaintenance": "2025-08-06T15:00:30.731517"
    },
    {
      "id": 49,
      "chiefdom": "Chief Kashiba",
      "facilityName": "Kaputa Facility 49",
      "facilityType": "Clinic",
      "village": "Pemba",
      "capacity": 817,
      "currentUsage": 1514,
      "status": "Needs Repair",
      "latitude": -11.3416,
      "longitude": 29.6327,
      "lastMaintenance": "2025-03-14T15:00:30.731524"
    },
    {
      "id": 50,
      "chiefdom": "Chief Kashiba",
      "facilityName": "Chongwe Central Facility 50",
      "facilityType": "Secondary School",
      "village": "Kaputa",
      "capacity": 1423,
      "currentUsage": 136,
      "status": "Needs Repair",
      "latitude": -11.2707,
      "longitude": 29.5691,
      "lastMaintenance": "2025-11-04T15:00:30.731531"
    }
  ]
}