{
  "healthFacilities": [
    {
      "id": 1,
      "chiefdom": "Chief Mushili",
      "district": "Ndola",
      "facilityName": "Chipapa Health 1",
      "facilityType": "Health Post",
      "village": "Luanshya",
      "catchmentPopulation": 22331,
      "numberOfBeds": 170,
      "numberOfDoctors": 12,
      "numberOfNurses": 44,
      "outpatientsPerMonth": 3679,
      "servicesOffered": "General, Emergency, Maternity",
      "status": "Limited",
      "latitude": -12.9351,
      "longitude": 28.5923,
      "averageWalkingDistance": 5.2,
      "lastRenovation": "2025-07-27T15:00:30.629091"
    },
    {
      "id": 2,
      "chiefdom": "Chief Mushili",
      "district": "Ndola",
      "facilityName": "Serenje Health 2",
      "facilityType": "Health Post",
      "village": "Kawambwa",
      "catchmentPopulation": 13306,
      "numberOfBeds": 190,
      "numberOfDoctors": 2,
      "numberOfNurses": 45,
      "outpatientsPerMonth": 3934,
      "servicesOffered": "General, Emergency, Maternity",
      "status": "Limited",
      "latitude": -12.9521,
      "longitude": 28.7219,
      "averageWalkingDistance": 12.0,
      "lastRenovation": "2024-05-25T15:00:30.629100"
    },
    {
      "id": 3,
      "chiefdom": "Chief Mushili",
      "district": "Ndola",
      "facilityName": "Kaunga Health 3",
      "facilityType": "Hospital",
      "village": "Mporokoso",
      "catchmentPopulation": 10262,
      "numberOfBeds": 176,
      "numberOfDoctors": 15,
      "numberOfNurses": 32,
      "outpatientsPerMonth": 1299,
      "servicesOffered": "General, Emergency, Maternity",
      "status": "Limited",
      "latitude": -12.9075,
      "longitude": 28.6441,
      "averageWalkingDistance": 12.3,
      "lastRenovation": "2025-05-22T15:00:30.629110"
    },
    {
      "id": 4,
      "chiefdom": "Chief Mushili",
      "district": "Ndola",
      "facilityName": "Shangombo Health 4",
      "facilityType": "Hospital",
      "village": "Kalabo",
      "catchmentPopulation": 12264,
      "numberOfBeds": 179,
      "numberOfDoctors": 15,
      "numberOfNurses": 7,
      "outpatientsPerMonth": 3863,
      "servicesOffered": "General, Emergency, Maternity",
      "status": "Renovation",
      "latitude": -13.0028,
      "longitude": 28.6988,
      "averageWalkingDistance": 12.5,
      "lastRenovation": "2025-11-26T15:00:30.629119"
    },
    {
      "id": 5,
      "chiefdom": "Chief Mushili",
      "district": "Ndola",
      "facilityName": "Nakatindi Health 5",
      "facilityType": "Health Post",
      "village": "Kanakantapa",
      "catchmentPopulation": 13910,
      "numberOfBeds": 180,
      "numberOfDoctors": 1,
      "numberOfNurses": 49,
      "outpatientsPerMonth": 2826,
      "servicesOffered": "General, Emergency, Maternity",
      "status": "Operational",
      "latitude": -12.9078,
      "longitude": 28.5909,
      "averageWalkingDistance": 6.4,
      "lastRenovation": "2025-05-25T15:00:30.629127"
    },
    {
      "id": 6,
      "chiefdom": "Chief Mushili",
      "district": "Ndola",
      "facilityName": "Mpika Health 6",
      "facilityType": "Health Post",
      "village": "Munyumba",
      "catchmentPopulation": 22970,
      "numberOfBeds": 145,
      "numberOfDoctors": 9,
      "numberOfNurses": 12,
      "outpatientsPerMonth": 3218,
      "servicesOffered": "General, Emergency, Maternity",
      "status": "Operational",
      "latitude": -12.9254,
      "longitude": 28.7286,
      "averageWalkingDistance": 3.4,
      "lastRenovation": "2024-12-15T15:00:30.629136"
    },
    {
      "id": 7,
      "chiefdom": "Chief Mushili",
      "district": "Ndola",
      "facilityName": "Mufumbwe Health 7",
      "facilityType": "Clinic",
      "village": "Mufumbwe",
      "catchmentPopulation": 6287,
      "numberOfBeds": 157,
      "numberOfDoctors": 10,
      "numberOfNurses": 8,
      "outpatientsPerMonth": 2217,
      "servicesOffered": "General, Emergency, Maternity",
      "status": "Limited",
      "latitude": -13.0163,
      "longitude": 28.634,
      "averageWalkingDistance": 4.6,
      "lastRenovation": "2026-01-19T15:00:30.629144"
    },
    {
      "id": 8,
      "chiefdom": "Chief Mushili",
      "district": "Ndola",
      "facilityName": "Mpanshya Health 8",
      "facilityType": "Clinic",
      "village": "Serenje",
      "catchmentPopulation": 28818,
      "numberOfBeds": 103,
      "numberOfDoctors": 1,
      "numberOfNurses": 43,
      "outpatientsPerMonth": 739,
      "servicesOffered": "General, Emergency, Maternity",
      "status": "Renovation",
      "latitude": -13.018,
      "longitude": 28.6785,
      "averageWalkingDistance": 15.0,
      "lastRenovation": "2024-01-31T15:00:30.629153"
    },
    {
      "id": 9,
      "chiefdom": "Chief Mushili",
      "district": "Ndola",
      "facilityName": "Nakatindi Health 9",
      "facilityType": "Clinic",
      "village": "Katoba",
      "catchmentPopulation": 25993,
      "numberOfBeds": 143,
      "numberOfDoctors": 11,
      "numberOfNurses": 27,
      "outpatientsPerMonth": 3580,
      "servicesOffered": "General, Emergency, Maternity",
      "status": "Operational",
      "latitude": -12.9704,
      "longitude": 28.731,
      "averageWalkingDistance": 9.4,
      "lastRenovation": "2025-10-13T15:00:30.629162"
    },
    {
      "id": 10,
      "chiefdom": "Chief Mushili",
      "district": "Ndola",
      "facilityName": "Mpongwe Health 10",
      "facilityType": "Health Post",
      "village": "Chalala",
      "catchmentPopulation": 26238,
      "numberOfBeds": 74,
      "numberOfDoctors": 7,
      "numberOfNurses": 29,
      "outpatientsPerMonth": 3091,
      "servicesOffered": "General, Emergency, Maternity",
      "status": "Renovation",
      "latitude": -12.9835,
      "longitude": 28.6295,
      "averageWalkingDistance": 2.6,
      "lastRenovation": "2025-02-24T15:00:30.629171"
    },
    {
      "id": 11,
      "chiefdom": "Chief Mushili",
      "district": "Ndola",
      "facilityName": "Kasama Health 11",
      "facilityType": "Hospital",
      "village": "Siavonga",
      "catchmentPopulation": 24114,
      "numberOfBeds": 27,
      "numberOfDoctors": 12,
      "numberOfNurses": 21,
      "outpatientsPerMonth": 3163,
      "servicesOffered": "General, Emergency, Maternity",
      "status": "Operational",
      "latitude": -12.9075,
      "longitude": 28.6922,
      "averageWalkingDistance": 2.5,
      "lastRenovation": "2024-11-20T15:00:30.629179"
    },
    {
      "id": 12,
      "chiefdom": "Chief Mushili",
      "district": "Ndola",
      "facilityName": "Makeni Health 12",
      "facilityType": "Clinic",
      "village": "Kabwe",
      "catchmentPopulation": 28516,
      "numberOfBeds": 91,
      "numberOfDoctors": 6,
      "numberOfNurses": 42,
      "outpatientsPerMonth": 2236,
      "servicesOffered": "General, Emergency, Maternity",
      "status": "Renovation",
      "latitude": -12.9076,
      "longitude": 28.6095,
      "averageWalkingDistance": 5.4,
      "lastRenovation": "2024-08-31T15:00:30.629188"
    },
    {
      "id": 13,
      "chiefdom": "Chief Mushili",
      "district": "Ndola",
      "facilityName": "Mumbwa Health 13",
      "facilityType": "Hospital",
      "village": "Shimabala",
      "catchmentPopulation": 14237,
      "numberOfBeds": 85,
      "numberOfDoctors": 7,
      "numberOfNurses": 7,
      "outpatientsPerMonth": 2671,
      "servicesOffered": "General, Emergency, Maternity",
      "status": "Operational",
      "latitude": -13.0598,
      "longitude": 28.6123,
      "averageWalkingDistance": 7.7,
      "lastRenovation": "2024-02-25T15:00:30.629196"
    },
    {
      "id": 14,
      "chiefdom": "Chief Mushili",
      "district": "Ndola",
      "facilityName": "Mpongwe Health 14",
      "facilityType": "Hospital",
      "village": "Kaputa",
      "catchmentPopulation": 15342,
      "numberOfBeds": 70,
      "numberOfDoctors": 8,
      "numberOfNurses": 31,
      "outpatientsPerMonth": 1762,
      "servicesOffered": "General, Emergency, Maternity",
      "status": "Renovation",
      "latitude": -12.9334,
      "longitude": 28.699,
      "averageWalkingDistance": 6.1,
      "lastRenovation": "2024-02-12T15:00:30.629205"
    },
    {
      "id": 15,
      "chiefdom": "Chief Mushili",
      "district": "Ndola",
      "facilityName": "Kanakantapa Health 15",
      "facilityType": "Clinic",
      "village": "Kaoma",
      "catchmentPopulation": 6270,
      "numberOfBeds": 35,
      "numberOfDoctors": 1,
      "numberOfNurses": 47,
      "outpatientsPerMonth": 2463,
      "servicesOffered": "General, Emergency, Maternity",
      "status": "Operational",
      "latitude": -12.8959,
      "longitude": 28.7065,
      "averageWalkingDistance": 14.6,
      "lastRenovation": "2025-06-11T15:00:30.629214"
    },
    {
      "id": 16,
      "chiefdom": "Chief Mushili",
      "district": "Ndola",
      "facilityName": "Isoka Health 16",
      "facilityType": "Health Post",
      "village": "Chalala",
      "catchmentPopulation": 21230,
      "numberOfBeds": 183,
      "numberOfDoctors": 6,
      "numberOfNurses": 18,
      "outpatientsPerMonth": 3991,
      "servicesOffered": "General, Emergency, Maternity",
      "status": "Renovation",
      "latitude": -12.9771,
      "longitude": 28.6459,
      "averageWalkingDistance": 10.7,
      "lastRenovation": "2024-07-10T15:00:30.629222"
    },
    {
      "id": 17,
      "chiefdom": "Chief Mushili",
      "district": "Ndola",
      "facilityName": "Shangombo Health 17",
      "facilityType": "Hospital",
      "village": "Palabana",
      "catchmentPopulation": 9449,
      "numberOfBeds": 33,
      "numberOfDoctors": 13,
      "numberOfNurses": 36,
      "outpatientsPerMonth": 2028,
      "servicesOffered": "General, Emergency, Maternity",
      "status": "Limited",
      "latitude": -13.0221,
      "longitude": 28.651,
      "averageWalkingDistance": 10.3,
      "lastRenovation": "2025-02-07T15:00:30.629231"
    },
    {
      "id": 18,
      "chiefdom": "Chief Mushili",
      "district": "Ndola",
      "facilityName": "Kabwe Health 18",
      "facilityType": "Hospital",
      "village": "Nakatindi",
      "catchmentPopulation": 29170,
      "numberOfBeds": 160,
      "numberOfDoctors": 10,
      "numberOfNurses": 16,
      "outpatientsPerMonth": 3292,
      "servicesOffered": "General, Emergency, Maternity",
      "status": "Limited",
      "latitude": -12.8888,
      "longitude": 28.5765,
      "averageWalkingDistance": 8.5,
      "lastRenovation": "2024-09-29T15:00:30.629239"
    },
    {
      "id": 19,
      "chiefdom": "Chief Mushili",
      "district": "Ndola",
      "facilityName": "Makeni Health 19",
      "facilityType": "Health Post",
      "village": "Meanwood",
      "catchmentPopulation": 8656,
      "numberOfBeds": 167,
      "numberOfDoctors": 2,
      "numberOfNurses": 9,
      "outpatientsPerMonth": 1013,
      "servicesOffered": "General, Emergency, Maternity",
      "status": "Limited",
      "latitude": -12.9027,
      "longitude": 28.556,
      "averageWalkingDistance": 4.9,
      "lastRenovation": "2026-01-10T15:00:30.629248"
    },
    {
      "id": 20,
      "chiefdom": "Chief Mushili",
      "district": "Ndola",
      "facilityName": "Mpanshya Health 20",
      "facilityType": "Clinic",
      "village": "Kapiri",
      "catchmentPopulation": 6229,
      "numberOfBeds": 198,
      "numberOfDoctors": 1,
      "numberOfNurses": 49,
      "outpatientsPerMonth": 2069,
      "servicesOffered": "General, Emergency, Maternity",
      "status": "Operational",
      "latitude": -12.931,
      "longitude": 28.729,
      "averageWalkingDistance": 11.7,
      "lastRenovation": "2024-10-23T15:00:30.629256"
    },
    {
      "id": 21,
      "chiefdom": "Chief Mushili",
      "district": "Ndola",
      "facilityName": "Munyumba Health 21",
      "facilityType": "Hospital",
      "village": "Kawambwa",
      "catchmentPopulation": 18323,
      "numberOfBeds": 105,
      "numberOfDoctors": 5,
      "numberOfNurses": 50,
      "outpatientsPerMonth": 2167,
      "servicesOffered": "General, Emergency, Maternity",
      "status": "Limited",
      "latitude": -12.9973,
      "longitude": 28.6367,
      "averageWalkingDistance": 5.7,
      "lastRenovation": "2025-07-05T15:00:30.629265"
    },
    {
      "id": 22,
      "chiefdom": "Chief Mushili",
      "district": "Ndola",
      "facilityName": "Chilanga Health 22",
      "facilityType": "Hospital",
      "village": "Mazabuka",
      "catchmentPopulation": 18417,
      "numberOfBeds": 163,
      "numberOfDoctors": 15,
      "numberOfNurses": 24,
      "outpatientsPerMonth": 2897,
      "servicesOffered": "General, Emergency, Maternity",
      "status": "Operational",
      "latitude": -13.0137,
      "longitude": 28.5422,
      "averageWalkingDistance": 14.7,
      "lastRenovation": "2025-09-23T15:00:30.629273"
    },
    {
      "id": 23,
      "chiefdom": "Chief Mushili",
      "district": "Ndola",
      "facilityName": "Chililabombwe Health 23",
      "facilityType": "Clinic",
      "village": "Pemba",
      "catchmentPopulation": 21479,
      "numberOfBeds": 59,
      "numberOfDoctors": 15,
      "numberOfNurses": 22,
      "outpatientsPerMonth": 3205,
      "servicesOffered": "General, Emergency, Maternity",
      "status": "Renovation",
      "latitude": -13.0326,
      "longitude": 28.5816,
      "averageWalkingDistance": 4.8,
      "lastRenovation": "2024-08-30T15:00:30.629281"
    },
    {
      "id": 24,
      "chiefdom": "Chief Mushili",
      "district": "Ndola",
      "facilityName": "Kasempa Health 24",
      "facilityType": "Clinic",
      "village": "Kabwe",
      "catchmentPopulation": 7618,
      "numberOfBeds": 47,
      "numberOfDoctors": 3,
      "numberOfNurses": 21,
      "outpatientsPerMonth": 2906,
      "servicesOffered": "General, Emergency, Maternity",
      "status": "Operational",
      "latitude": -12.875,
      "longitude": 28.6956,
      "averageWalkingDistance": 14.4,
      "lastRenovation": "2024-12-29T15:00:30.629290"
    },
    {
      "id": 25,
      "chiefdom": "Chief Mushili",
      "district": "Ndola",
      "facilityName": "Kalomo Health 25",
      "facilityType": "Health Post",
      "village": "Mpanshya",
      "catchmentPopulation": 14236,
      "numberOfBeds": 44,
      "numberOfDoctors": 8,
      "numberOfNurses": 5,
      "outpatientsPerMonth": 3667,
      "servicesOffered": "General, Emergency, Maternity",
      "status": "Renovation",
      "latitude": -12.9793,
      "longitude": 28.6433,
      "averageWalkingDistance": 11.3,
      "lastRenovation": "2024-10-24T15:00:30.629299"
    },
    {
      "id": 26,
      "chiefdom": "Chief Mushili",
      "district": "Ndola",
      "facilityName": "Chipata Health 26",
      "facilityType": "Hospital",
      "village": "Samfya",
      "catchmentPopulation": 13356,
      "numberOfBeds": 62,
      "numberOfDoctors": 8,
      "numberOfNurses": 34,
      "outpatientsPerMonth": 3377,
      "servicesOffered": "General, Emergency, Maternity",
      "status": "Limited",
      "latitude": -12.9433,
      "longitude": 28.6165,
      "averageWalkingDistance": 14.2,
      "lastRenovation": "2024-04-28T15:00:30.629308"
    },
    {
      "id": 27,
      "chiefdom": "Chief Mushili",
      "district": "Ndola",
      "facilityName": "Ngwerere Health 27",
      "facilityType": "Hospital",
      "village": "Meanwood",
      "catchmentPopulation": 21216,
      "numberOfBeds": 76,
      "numberOfDoctors": 9,
      "numberOfNurses": 13,
      "outpatientsPerMonth": 1643,
      "servicesOffered": "General, Emergency, Maternity",
      "status": "Limited",
      "latitude": -12.9785,
      "longitude": 28.5706,
      "averageWalkingDistance": 7.6,
      "lastRenovation": "2024-03-07T15:00:30.629316"
    },
    {
      "id": 28,
      "chiefdom": "Chief Mushili",
      "district": "Ndola",
      "facilityName": "Gwembe Health 28",
      "facilityType": "Hospital",
      "village": "Kaunga",
      "catchmentPopulation": 23165,
      "numberOfBeds": 104,
      "numberOfDoctors": 4,
      "numberOfNurses": 10,
      "outpatientsPerMonth": 1646,
      "servicesOffered": "General, Emergency, Maternity",
      "status": "Limited",
      "latitude": -12.9521,
      "longitude": 28.5579,
      "averageWalkingDistance": 10.8,
      "lastRenovation": "2025-03-11T15:00:30.629324"
    },
    {
      "id": 29,
      "chiefdom": "Chief Mushili",
      "district": "Ndola",
      "facilityName": "Chinsali Health 29",
      "facilityType": "Health Post",
      "village": "Mbabala",
      "catchmentPopulation": 23487,
      "numberOfBeds": 123,
      "numberOfDoctors": 7,
      "numberOfNurses": 21,
      "outpatientsPerMonth": 1182,
      "servicesOffered": "General, Emergency, Maternity",
      "status": "Operational",
      "latitude": -13.0398,
      "longitude": 28.6799,
      "averageWalkingDistance": 11.8,
      "lastRenovation": "2025-12-09T15:00:30.629333"
    },
    {
      "id": 30,
      "chiefdom": "Chief Mushili",
      "district": "Ndola",
      "facilityName": "Choma Health 30",
      "facilityType": "Clinic",
      "village": "Chalala",
      "catchmentPopulation": 16123,
      "numberOfBeds": 27,
      "numberOfDoctors": 7,
      "numberOfNurses": 46,
      "outpatientsPerMonth": 2523,
      "servicesOffered": "General, Emergency, Maternity",
      "status": "Renovation",
      "latitude": -12.9362,
      "longitude": 28.6676,
      "averageWalkingDistance": 9.7,
      "lastRenovation": "2024-08-11T15:00:30.629341"
    },
    {
      "id": 31,
      "chiefdom": "Chief Mushili",
      "district": "Ndola",
      "facilityName": "Palabana Health 31",
      "facilityType": "Hospital",
      "village": "Lunsemfwa",
      "catchmentPopulation": 17927,
      "numberOfBeds": 172,
      "numberOfDoctors": 15,
      "numberOfNurses": 19,
      "outpatientsPerMonth": 3455,
      "servicesOffered": "General, Emergency, Maternity",
      "status": "Limited",
      "latitude": -12.8819,
      "longitude": 28.5465,
      "averageWalkingDistance": 2.8,
      "lastRenovation": "2024-07-30T15:00:30.629350"
    },
    {
      "id": 32,
      "chiefdom": "Chief Mushili",
      "district": "Ndola",
      "facilityName": "Chipapa Health 32",
      "facilityType": "Clinic",
      "village": "Chongwe Central",
      "catchmentPopulation": 16231,
      "numberOfBeds": 85,
      "numberOfDoctors": 13,
      "numberOfNurses": 46,
      "outpatientsPerMonth": 1286,
      "servicesOffered": "General, Emergency, Maternity",
      "status": "Renovation",
      "latitude": -13.0405,
      "longitude": 28.6095,
      "averageWalkingDistance": 3.8,
      "lastRenovation": "2024-08-26T15:00:30.629359"
    },
    {
      "id": 33,
      "chiefdom": "Chief Mushili",
      "district": "Ndola",
      "facilityName": "Lukulu Health 33",
      "facilityType": "Health Post",
      "village": "Monze",
      "catchmentPopulation": 14980,
      "numberOfBeds": 192,
      "numberOfDoctors": 5,
      "numberOfNurses": 17,
      "outpatientsPerMonth": 2593,
      "servicesOffered": "General, Emergency, Maternity",
      "status": "Limited",
      "latitude": -13.0319,
      "longitude": 28.5611,
      "averageWalkingDistance": 12.6,
      "lastRenovation": "2024-12-20T15:00:30.629367"
    },
    {
      "id": 34,
      "chiefdom": "Chief Mushili",
      "district": "Ndola",
      "facilityName": "Nchelenge Health 34",
      "facilityType": "Clinic",
      "village": "Kawambwa",
      "catchmentPopulation": 16870,
      "numberOfBeds": 142,
      "numberOfDoctors": 13,
      "numberOfNurses": 17,
      "outpatientsPerMonth": 2887,
      "servicesOffered": "General, Emergency, Maternity",
      "status": "Renovation",
      "latitude": -12.9585,
      "longitude": 28.6518,
      "averageWalkingDistance": 12.2,
      "lastRenovation": "2025-04-27T15:00:30.629376"
    },
    {
      "id": 35,
      "chiefdom": "Chief Mushili",
      "district": "Ndola",
      "facilityName": "Choma Health 35",
      "facilityType": "Clinic",
      "village": "Kasama",
      "catchmentPopulation": 6858,
      "numberOfBeds": 151,
      "numberOfDoctors": 7,
      "numberOfNurses": 20,
      "outpatientsPerMonth": 2487,
      "servicesOffered": "General, Emergency, Maternity",
      "status": "Renovation",
      "latitude": -12.9707,
      "longitude": 28.6096,
      "averageWalkingDistance": 13.2,
      "lastRenovation": "2025-12-24T15:00:30.629385"
    },
    {
      "id": 36,
      "chiefdom": "Chief Mushili",
      "district": "Ndola",
      "facilityName": "Kaunga Health 36",
      "facilityType": "Health Post",
      "village": "Chalala",
      "catchmentPopulation": 11705,
      "numberOfBeds": 194,
      "numberOfDoctors": 5,
      "numberOfNurses": 37,
      "outpatientsPerMonth": 1676,
      "servicesOffered": "General, Emergency, Maternity",
      "status": "Limited",
      "latitude": -13.0339,
      "longitude": 28.6825,
      "averageWalkingDistance": 10.7,
      "lastRenovation": "2025-08-10T15:00:30.629393"
    },
    {
      "id": 37,
      "chiefdom": "Chief Mushili",
      "district": "Ndola",
      "facilityName": "Kanakantapa Health 37",
      "facilityType": "Clinic",
      "village": "Mufulira",
      "catchmentPopulation": 7540,
      "numberOfBeds": 164,
      "numberOfDoctors": 6,
      "numberOfNurses": 5,
      "outpatientsPerMonth": 3913,
      "servicesOffered": "General, Emergency, Maternity",
      "status": "Limited",
      "latitude": -12.9586,
      "longitude": 28.6786,
      "averageWalkingDistance": 7.0,
      "lastRenovation": "2025-03-03T15:00:30.629402"
    },
    {
      "id": 38,
      "chiefdom": "Chief Mushili",
      "district": "Ndola",
      "facilityName": "Vubwi Health 38",
      "facilityType": "Health Post",
      "village": "Sinda",
      "catchmentPopulation": 21549,
      "numberOfBeds": 196,
      "numberOfDoctors": 2,
      "numberOfNurses": 7,
      "outpatientsPerMonth": 3616,
      "servicesOffered": "General, Emergency, Maternity",
      "status": "Operational",
      "latitude": -13.0063,
      "longitude": 28.606,
      "averageWalkingDistance": 12.0,
      "lastRenovation": "2025-02-16T15:00:30.629410"
    },
    {
      "id": 39,
      "chiefdom": "Chief Mushili",
      "district": "Ndola",
      "facilityName": "Mwembezhi Health 39",
      "facilityType": "Hospital",
      "village": "Petauke",
      "catchmentPopulation": 14250,
      "numberOfBeds": 98,
      "numberOfDoctors": 14,
      "numberOfNurses": 16,
      "outpatientsPerMonth": 3563,
      "servicesOffered": "General, Emergency, Maternity",
      "status": "Limited",
      "latitude": -12.9061,
      "longitude": 28.6129,
      "averageWalkingDistance": 2.7,
      "lastRenovation": "2024-02-21T15:00:30.629425"
    },
    {
      "id": 40,
      "chiefdom": "Chief Mushili",
      "district": "Ndola",
      "facilityName": "Chipata Health 40",
      "facilityType": "Clinic",
      "village": "Lukulu",
      "catchmentPopulation": 18368,
      "numberOfBeds": 53,
      "numberOfDoctors": 11,
      "numberOfNurses": 18,
      "outpatientsPerMonth": 1358,
      "servicesOffered": "General, Emergency, Maternity",
      "status": "Operational",
      "latitude": -12.9176,
      "longitude": 28.6427,
      "averageWalkingDistance": 14.2,
      "lastRenovation": "2025-06-28T15:00:30.629434"
    },
    {
      "id": 41,
      "chiefdom": "Chief Mushili",
      "district": "Ndola",
      "facilityName": "Kawambwa Health 41",
      "facilityType": "Clinic",
      "village": "Katete",
      "catchmentPopulation": 23997,
      "numberOfBeds": 133,
      "numberOfDoctors": 13,
      "numberOfNurses": 16,
      "outpatientsPerMonth": 570,
      "servicesOffered": "General, Emergency, Maternity",
      "status": "Limited",
      "latitude": -12.8945,
      "longitude": 28.6736,
      "averageWalkingDistance": 3.4,
      "lastRenovation": "2025-11-14T15:00:30.629443"
    },
    {
      "id": 42,
      "chiefdom": "Chief Mushili",
      "district": "Ndola",
      "facilityName": "Siavonga Health 42",
      "facilityType": "Health Post",
      "village": "Mporokoso",
      "catchmentPopulation": 8396,
      "numberOfBeds": 153,
      "numberOfDoctors": 13,
      "numberOfNurses": 37,
      "outpatientsPerMonth": 1328,
      "servicesOffered": "General, Emergency, Maternity",
      "status": "Renovation",
      "latitude": -13.0226,
      "longitude": 28.6065,
      "averageWalkingDistance": 6.6,
      "lastRenovation": "2024-12-09T15:00:30.629451"
    },
    {
      "id": 43,
      "chiefdom": "Chief Mushili",
      "district": "Ndola",
      "facilityName": "Lilayi Health 43",
      "facilityType": "Health Post",
      "village": "Livingstone",
      "catchmentPopulation": 14201,
      "numberOfBeds": 118,
      "numberOfDoctors": 9,
      "numberOfNurses": 22,
      "outpatientsPerMonth": 2679,
      "servicesOffered": "General, Emergency, Maternity",
      "status": "Operational",
      "latitude": -13.018,
      "longitude": 28.6155,
      "averageWalkingDistance": 7.0,
      "lastRenovation": "2024-02-07T15:00:30.629460"
    },
    {
      "id": 44,
      "chiefdom": "Chief Mushili",
      "district": "Ndola",
      "facilityName": "Chisamba Health 44",
      "facilityType": "Health Post",
      "village": "Nchelenge",
      "catchmentPopulation": 13359,
      "numberOfBeds": 61,
      "numberOfDoctors": 1,
      "numberOfNurses": 44,
      "outpatientsPerMonth": 2345,
      "servicesOffered": "General, Emergency, Maternity",
      "status": "Limited",
      "latitude": -12.8799,
      "longitude": 28.6808,
      "averageWalkingDistance": 13.4,
      "lastRenovation": "2025-12-14T15:00:30.629469"
    },
    {
      "id": 45,
      "chiefdom": "Chief Mushili",
      "district": "Ndola",
      "facilityName": "Sikanze Health 45",
      "facilityType": "Hospital",
      "village": "Monze",
      "catchmentPopulation": 26321,
      "numberOfBeds": 92,
      "numberOfDoctors": 2,
      "numberOfNurses": 12,
      "outpatientsPerMonth": 2213,
      "servicesOffered": "General, Emergency, Maternity",
      "status": "Renovation",
      "latitude": -12.9701,
      "longitude": 28.66,
      "averageWalkingDistance": 12.2,
      "lastRenovation": "2024-12-21T15:00:30.629478"
    },
    {
      "id": 46,
      "chiefdom": "Chief Mushili",
      "district": "Ndola",
      "facilityName": "Chilanga Health 46",
      "facilityType": "Hospital",
      "village": "Kalulushi",
      "catchmentPopulation": 22042,
      "numberOfBeds": 134,
      "numberOfDoctors": 2,
      "numberOfNurses": 15,
      "outpatientsPerMonth": 2671,
      "servicesOffered": "General, Emergency, Maternity",
      "status": "Limited",
      "latitude": -13.0676,
      "longitude": 28.6781,
      "averageWalkingDistance": 13.9,
      "lastRenovation": "2025-05-14T15:00:30.629486"
    },
    {
      "id": 47,
      "chiefdom": "Chief Mushili",
      "district": "Ndola",
      "facilityName": "Kasempa Health 47",
      "facilityType": "Health Post",
      "village": "Zambezi",
      "catchmentPopulation": 10536,
      "numberOfBeds": 168,
      "numberOfDoctors": 13,
      "numberOfNurses": 48,
      "outpatientsPerMonth": 2787,
      "servicesOffered": "General, Emergency, Maternity",
      "status": "Renovation",
      "latitude": -12.9617,
      "longitude": 28.6444,
      "averageWalkingDistance": 9.3,
      "lastRenovation": "2024-06-24T15:00:30.629495"
    },
    {
      "id": 48,
      "chiefdom": "Chief Mushili",
      "district": "Ndola",
      "facilityName": "Mufulira Health 48",
      "facilityType": "Hospital",
      "village": "Chipata",
      "catchmentPopulation": 24585,
      "numberOfBeds": 188,
      "numberOfDoctors": 8,
      "numberOfNurses": 24,
      "outpatientsPerMonth": 3957,
      "servicesOffered": "General, Emergency, Maternity",
      "status": "Renovation",
      "latitude": -12.8741,
      "longitude": 28.5738,
      "averageWalkingDistance": 8.5,
      "lastRenovation": "2025-03-10T15:00:30.629503"
    },
    {
      "id": 49,
      "chiefdom": "Chief Mushili",
      "district": "Ndola",
      "facilityName": "Kasempa Health 49",
      "facilityType": "Hospital",
      "village": "Lilayi",
      "catchmentPopulation": 22768,
      "numberOfBeds": 103,
      "numberOfDoctors": 2,
      "numberOfNurses": 9,
      "outpatientsPerMonth": 1844,
      "servicesOffered": "General, Emergency, Maternity",
      "status": "Operational",
      "latitude": -13.0366,
      "longitude": 28.5659,
      "averageWalkingDistance": 5.5,
      "lastRenovation": "2025-03-04T15:00:30.629512"
    },
    {
      "id": 50,
      "chiefdom": "Chief Mushili",
      "district": "Ndola",
      "facilityName": "Luanshya Health 50",
      "facilityType": "Clinic",
      "village": "Vubwi",
      "catchmentPopulation": 29666,
      "numberOfBeds": 113,
      "numberOfDoctors": 7,
      "numberOfNurses": 24,
      "outpatientsPerMonth": 2471,
      "servicesOffered": "General, Emergency, Maternity",
      "status": "Renovation",
      "latitude": -12.9329,
      "longitude": 28.6802,
      "averageWalkingDistance": 13.1,
      "lastRenovation": "2025-03-29T15:00:30.629520"
    }
  ],
  "educationFacilities": [
    {
      "id": 1,
      "chiefdom": "Chief Mushili",
      "district": "Ndola",
      "facilityName": "Mkushi School 1",
      "facilityType": "Primary School",
      "village": "Mongu",
      "enrolledStudents": 901,
      "capacity": 1219,
      "numberOfTeachers": 17,
      "numberOfClassrooms": 7,
      "pupilTeacherRatio": 45,
      "passRate": 90.9,
      "status": "Operational",
      "latitude": -12.8744,
      "longitude": 28.6257,
      "averageDistance": 6.8,
      "lastInspection": "2025-12-06T15:00:30.629530"
    },
    {
      "id": 2,
      "chiefdom": "Chief Mushili",
      "district": "Ndola",
      "facilityName": "Chalimbana School 2",
      "facilityType": "Secondary School",
      "village": "Nyimba",
      "enrolledStudents": 1131,
      "capacity": 1387,
      "numberOfTeachers": 42,
      "numberOfClassrooms": 12,
      "pupilTeacherRatio": 35,
      "passRate": 60.4,
      "status": "Overcrowded",
      "latitude": -13.052,
      "longitude": 28.6661,
      "averageDistance": 7.2,
      "lastInspection": "2026-01-06T15:00:30.629540"
    },
    {
      "id": 3,
      "chiefdom": "Chief Mushili",
      "district": "Ndola",
      "facilityName": "Sinazongwe School 3",
      "facilityType": "Primary School",
      "village": "Luangwa",
      "enrolledStudents": 961,
      "capacity": 1195,
      "numberOfTeachers": 47,
      "numberOfClassrooms": 6,
      "pupilTeacherRatio": 38,
      "passRate": 72.9,
      "status": "Overcrowded",
      "latitude": -13.0563,
      "longitude": 28.6226,
      "averageDistance": 5.2,
      "lastInspection": "2025-02-04T15:00:30.629549"
    },
    {
      "id": 4,
      "chiefdom": "Chief Mushili",
      "district": "Ndola",
      "facilityName": "Livingstone School 4",
      "facilityType": "Secondary School",
      "village": "Kalulushi",
      "enrolledStudents": 1149,
      "capacity": 1161,
      "numberOfTeachers": 47,
      "numberOfClassrooms": 19,
      "pupilTeacherRatio": 54,
      "passRate": 62.1,
      "status": "Operational",
      "latitude": -12.9501,
      "longitude": 28.7253,
      "averageDistance": 8.6,
      "lastInspection": "2025-07-04T15:00:30.629558"
    },
    {
      "id": 5,
      "chiefdom": "Chief Mushili",
      "district": "Ndola",
      "facilityName": "Solwezi School 5",
      "facilityType": "Secondary School",
      "village": "Mbala",
      "enrolledStudents": 459,
      "capacity": 731,
      "numberOfTeachers": 22,
      "numberOfClassrooms": 10,
      "pupilTeacherRatio": 33,
      "passRate": 71.5,
      "status": "Operational",
      "latitude": -12.9825,
      "longitude": 28.5458,
      "averageDistance": 8.5,
      "lastInspection": "2025-03-23T15:00:30.629567"
    },
    {
      "id": 6,
      "chiefdom": "Chief Mushili",
      "district": "Ndola",
      "facilityName": "Lunsemfwa School 6",
      "facilityType": "Community School",
      "village": "Mkushi",
      "enrolledStudents": 389,
      "capacity": 347,
      "numberOfTeachers": 12,
      "numberOfClassrooms": 22,
      "pupilTeacherRatio": 53,
      "passRate": 67.8,
      "status": "Overcrowded",
      "latitude": -12.9538,
      "longitude": 28.7041,
      "averageDistance": 7.3,
      "lastInspection": "2025-10-20T15:00:30.629577"
    },
    {
      "id": 7,
      "chiefdom": "Chief Mushili",
      "district": "Ndola",
      "facilityName": "Kalulushi School 7",
      "facilityType": "Primary School",
      "village": "Chinsali",
      "enrolledStudents": 494,
      "capacity": 868,
      "numberOfTeachers": 22,
      "numberOfClassrooms": 16,
      "pupilTeacherRatio": 48,
      "passRate": 71.6,
      "status": "Operational",
      "latitude": -12.9367,
      "longitude": 28.7071,
      "averageDistance": 8.6,
      "lastInspection": "2025-02-18T15:00:30.629586"
    },
    {
      "id": 8,
      "chiefdom": "Chief Mushili",
      "district": "Ndola",
      "facilityName": "Kasempa School 8",
      "facilityType": "Primary School",
      "village": "Sikanze",
      "enrolledStudents": 711,
      "capacity": 495,
      "numberOfTeachers": 10,
      "numberOfClassrooms": 17,
      "pupilTeacherRatio": 40,
      "passRate": 61.3,
      "status": "Operational",
      "latitude": -12.9202,
      "longitude": 28.6802,
      "averageDistance": 9.9,
      "lastInspection": "2025-12-20T15:00:30.629595"
    },
    {
      "id": 9,
      "chiefdom": "Chief Mushili",
      "district": "Ndola",
      "facilityName": "Kasama School 9",
      "facilityType": "Community School",
      "village": "Kasempa",
      "enrolledStudents": 945,
      "capacity": 340,
      "numberOfTeachers": 12,
      "numberOfClassrooms": 23,
      "pupilTeacherRatio": 43,
      "passRate": 81.7,
      "status": "Operational",
      "latitude": -13.0645,
      "longitude": 28.5872,
      "averageDistance": 3.0,
      "lastInspection": "2025-04-19T15:00:30.629604"
    },
    {
      "id": 10,
      "chiefdom": "Chief Mushili",
      "district": "Ndola",
      "facilityName": "Kalomo School 10",
      "facilityType": "Community School",
      "village": "Palabana",
      "enrolledStudents": 252,
      "capacity": 578,
      "numberOfTeachers": 39,
      "numberOfClassrooms": 19,
      "pupilTeacherRatio": 33,
      "passRate": 94.1,
      "status": "Operational",
      "latitude": -13.0151,
      "longitude": 28.6737,
      "averageDistance": 5.1,
      "lastInspection": "2026-01-02T15:00:30.629613"
    },
    {
      "id": 11,
      "chiefdom": "Chief Mushili",
      "district": "Ndola",
      "facilityName": "Mwinilunga School 11",
      "facilityType": "Secondary School",
      "village": "Mwinilunga",
      "enrolledStudents": 277,
      "capacity": 496,
      "numberOfTeachers": 18,
      "numberOfClassrooms": 26,
      "pupilTeacherRatio": 40,
      "passRate": 61.3,
      "status": "Operational",
      "latitude": -12.9417,
      "longitude": 28.642,
      "averageDistance": 1.4,
      "lastInspection": "2025-11-17T15:00:30.629622"
    },
    {
      "id": 12,
      "chiefdom": "Chief Mushili",
      "district": "Ndola",
      "facilityName": "Shangombo School 12",
      "facilityType": "Primary School",
      "village": "Kasempa",
      "enrolledStudents": 648,
      "capacity": 345,
      "numberOfTeachers": 44,
      "numberOfClassrooms": 16,
      "pupilTeacherRatio": 46,
      "passRate": 93.9,
      "status": "Overcrowded",
      "latitude": -12.8852,
      "longitude": 28.6056,
      "averageDistance": 2.0,
      "lastInspection": "2025-06-20T15:00:30.629631"
    },
    {
      "id": 13,
      "chiefdom": "Chief Mushili",
      "district": "Ndola",
      "facilityName": "Chinsali School 13",
      "facilityType": "Community School",
      "village": "Ngwerere",
      "enrolledStudents": 727,
      "capacity": 594,
      "numberOfTeachers": 21,
      "numberOfClassrooms": 23,
      "pupilTeacherRatio": 46,
      "passRate": 79.3,
      "status": "Overcrowded",
      "latitude": -13.0479,
      "longitude": 28.6985,
      "averageDistance": 8.0,
      "lastInspection": "2025-05-09T15:00:30.629640"
    },
    {
      "id": 14,
      "chiefdom": "Chief Mushili",
      "district": "Ndola",
      "facilityName": "Luwingu School 14",
      "facilityType": "Primary School",
      "village": "Kanakantapa",
      "enrolledStudents": 815,
      "capacity": 1468,
      "numberOfTeachers": 11,
      "numberOfClassrooms": 19,
      "pupilTeacherRatio": 36,
      "passRate": 74.9,
      "status": "Overcrowded",
      "latitude": -12.9781,
      "longitude": 28.7116,
      "averageDistance": 7.6,
      "lastInspection": "2025-10-23T15:00:30.629649"
    },
    {
      "id": 15,
      "chiefdom": "Chief Mushili",
      "district": "Ndola",
      "facilityName": "Chinsali School 15",
      "facilityType": "Secondary School",
      "village": "Lilayi",
      "enrolledStudents": 463,
      "capacity": 1313,
      "numberOfTeachers": 37,
      "numberOfClassrooms": 24,
      "pupilTeacherRatio": 28,
      "passRate": 73.5,
      "status": "Operational",
      "latitude": -12.9069,
      "longitude": 28.5444,
      "averageDistance": 3.6,
      "lastInspection": "2025-02-14T15:00:30.629658"
    },
    {
      "id": 16,
      "chiefdom": "Chief Mushili",
      "district": "Ndola",
      "facilityName": "Kapiri School 16",
      "facilityType": "Community School",
      "village": "Gwembe",
      "enrolledStudents": 375,
      "capacity": 1264,
      "numberOfTeachers": 18,
      "numberOfClassrooms": 9,
      "pupilTeacherRatio": 54,
      "passRate": 94.3,
      "status": "Overcrowded",
      "latitude": -12.9616,
      "longitude": 28.6945,
      "averageDistance": 4.8,
      "lastInspection": "2025-05-11T15:00:30.629667"
    },
    {
      "id": 17,
      "chiefdom": "Chief Mushili",
      "district": "Ndola",
      "facilityName": "Sikanze School 17",
      "facilityType": "Community School",
      "village": "Shangombo",
      "enrolledStudents": 630,
      "capacity": 1022,
      "numberOfTeachers": 22,
      "numberOfClassrooms": 13,
      "pupilTeacherRatio": 51,
      "passRate": 60.4,
      "status": "Operational",
      "latitude": -13.0411,
      "longitude": 28.6362,
      "averageDistance": 3.3,
      "lastInspection": "2025-04-11T15:00:30.629676"
    },
    {
      "id": 18,
      "chiefdom": "Chief Mushili",
      "district": "Ndola",
      "facilityName": "Luanshya School 18",
      "facilityType": "Community School",
      "village": "Kaputa",
      "enrolledStudents": 382,
      "capacity": 1126,
      "numberOfTeachers": 35,
      "numberOfClassrooms": 16,
      "pupilTeacherRatio": 50,
      "passRate": 81.1,
      "status": "Overcrowded",
      "latitude": -13.0208,
      "longitude": 28.5592,
      "averageDistance": 6.2,
      "lastInspection": "2025-05-28T15:00:30.629685"
    },
    {
      "id": 19,
      "chiefdom": "Chief Mushili",
      "district": "Ndola",
      "facilityName": "Monze School 19",
      "facilityType": "Secondary School",
      "village": "Ndola",
      "enrolledStudents": 731,
      "capacity": 739,
      "numberOfTeachers": 49,
      "numberOfClassrooms": 9,
      "pupilTeacherRatio": 52,
      "passRate": 64.3,
      "status": "Operational",
      "latitude": -12.9662,
      "longitude": 28.6659,
      "averageDistance": 2.7,
      "lastInspection": "2025-10-18T15:00:30.629694"
    },
    {
      "id": 20,
      "chiefdom": "Chief Mushili",
      "district": "Ndola",
      "facilityName": "Chainda School 20",
      "facilityType": "Secondary School",
      "village": "Ndola",
      "enrolledStudents": 225,
      "capacity": 759,
      "numberOfTeachers": 9,
      "numberOfClassrooms": 7,
      "pupilTeacherRatio": 47,
      "passRate": 68.7,
      "status": "Operational",
      "latitude": -12.9323,
      "longitude": 28.6352,
      "averageDistance": 4.1,
      "lastInspection": "2025-10-18T15:00:30.629704"
    },
    {
      "id": 21,
      "chiefdom": "Chief Mushili",
      "district": "Ndola",
      "facilityName": "Chipata School 21",
      "facilityType": "Primary School",
      "village": "Ngwerere",
      "enrolledStudents": 1103,
      "capacity": 329,
      "numberOfTeachers": 10,
      "numberOfClassrooms": 13,
      "pupilTeacherRatio": 39,
      "passRate": 87.3,
      "status": "Overcrowded",
      "latitude": -12.9209,
      "longitude": 28.689,
      "averageDistance": 7.8,
      "lastInspection": "2025-09-24T15:00:30.629713"
    },
    {
      "id": 22,
      "chiefdom": "Chief Mushili",
      "district": "Ndola",
      "facilityName": "Mbabala School 22",
      "facilityType": "Primary School",
      "village": "Kalulushi",
      "enrolledStudents": 309,
      "capacity": 407,
      "numberOfTeachers": 24,
      "numberOfClassrooms": 17,
      "pupilTeacherRatio": 28,
      "passRate": 88.1,
      "status": "Overcrowded",
      "latitude": -13.0059,
      "longitude": 28.5658,
      "averageDistance": 5.5,
      "lastInspection": "2025-10-21T15:00:30.629722"
    },
    {
      "id": 23,
      "chiefdom": "Chief Mushili",
      "district": "Ndola",
      "facilityName": "Kanakantapa School 23",
      "facilityType": "Community School",
      "village": "Kaunga",
      "enrolledStudents": 396,
      "capacity": 1193,
      "numberOfTeachers": 9,
      "numberOfClassrooms": 12,
      "pupilTeacherRatio": 34,
      "passRate": 62.1,
      "status": "Overcrowded",
      "latitude": -13.0133,
      "longitude": 28.5648,
      "averageDistance": 3.8,
      "lastInspection": "2025-08-17T15:00:30.629731"
    },
    {
      "id": 24,
      "chiefdom": "Chief Mushili",
      "district": "Ndola",
      "facilityName": "Kafue Riverside School 24",
      "facilityType": "Secondary School",
      "village": "Kapiri",
      "enrolledStudents": 449,
      "capacity": 734,
      "numberOfTeachers": 38,
      "numberOfClassrooms": 18,
      "pupilTeacherRatio": 43,
      "passRate": 84.4,
      "status": "Operational",
      "latitude": -12.9625,
      "longitude": 28.5962,
      "averageDistance": 8.5,
      "lastInspection": "2025-09-16T15:00:30.629740"
    },
    {
      "id": 25,
      "chiefdom": "Chief Mushili",
      "district": "Ndola",
      "facilityName": "Kabompo School 25",
      "facilityType": "Secondary School",
      "village": "Kawambwa",
      "enrolledStudents": 986,
      "capacity": 1338,
      "numberOfTeachers": 18,
      "numberOfClassrooms": 21,
      "pupilTeacherRatio": 32,
      "passRate": 90.7,
      "status": "Operational",
      "latitude": -13.0407,
      "longitude": 28.6656,
      "averageDistance": 4.9,
      "lastInspection": "2025-09-20T15:00:30.629750"
    },
    {
      "id": 26,
      "chiefdom": "Chief Mushili",
      "district": "Ndola",
      "facilityName": "Mwinilunga School 26",
      "facilityType": "Primary School",
      "village": "Chama",
      "enrolledStudents": 1171,
      "capacity": 604,
      "numberOfTeachers": 33,
      "numberOfClassrooms": 22,
      "pupilTeacherRatio": 37,
      "passRate": 75.7,
      "status": "Operational",
      "latitude": -12.8801,
      "longitude": 28.6865,
      "averageDistance": 8.0,
      "lastInspection": "2025-12-08T15:00:30.629758"
    },
    {
      "id": 27,
      "chiefdom": "Chief Mushili",
      "district": "Ndola",
      "facilityName": "Shangombo School 27",
      "facilityType": "Community School",
      "village": "Nchelenge",
      "enrolledStudents": 1071,
      "capacity": 1157,
      "numberOfTeachers": 24,
      "numberOfClassrooms": 16,
      "pupilTeacherRatio": 48,
      "passRate": 64.3,
      "status": "Operational",
      "latitude": -13.0548,
      "longitude": 28.601,
      "averageDistance": 9.2,
      "lastInspection": "2025-04-08T15:00:30.629768"
    },
    {
      "id": 28,
      "chiefdom": "Chief Mushili",
      "district": "Ndola",
      "facilityName": "Pemba School 28",
      "facilityType": "Primary School",
      "village": "Kalomo",
      "enrolledStudents": 428,
      "capacity": 793,
      "numberOfTeachers": 26,
      "numberOfClassrooms": 20,
      "pupilTeacherRatio": 46,
      "passRate": 65.7,
      "status": "Operational",
      "latitude": -12.9383,
      "longitude": 28.6461,
      "averageDistance": 5.6,
      "lastInspection": "2025-11-12T15:00:30.629777"
    },
    {
      "id": 29,
      "chiefdom": "Chief Mushili",
      "district": "Ndola",
      "facilityName": "Kaputa School 29",
      "facilityType": "Community School",
      "village": "Kasempa",
      "enrolledStudents": 440,
      "capacity": 1228,
      "numberOfTeachers": 8,
      "numberOfClassrooms": 16,
      "pupilTeacherRatio": 40,
      "passRate": 63.2,
      "status": "Overcrowded",
      "latitude": -12.8755,
      "longitude": 28.6813,
      "averageDistance": 4.4,
      "lastInspection": "2025-02-12T15:00:30.629786"
    },
    {
      "id": 30,
      "chiefdom": "Chief Mushili",
      "district": "Ndola",
      "facilityName": "Chadiza School 30",
      "facilityType": "Community School",
      "village": "Chinsali",
      "enrolledStudents": 462,
      "capacity": 545,
      "numberOfTeachers": 27,
      "numberOfClassrooms": 23,
      "pupilTeacherRatio": 43,
      "passRate": 87.0,
      "status": "Overcrowded",
      "latitude": -12.9001,
      "longitude": 28.5408,
      "averageDistance": 9.7,
      "lastInspection": "2025-11-04T15:00:30.629795"
    },
    {
      "id": 31,
      "chiefdom": "Chief Mushili",
      "district": "Ndola",
      "facilityName": "Kasama School 31",
      "facilityType": "Primary School",
      "village": "Petauke",
      "enrolledStudents": 805,
      "capacity": 301,
      "numberOfTeachers": 12,
      "numberOfClassrooms": 27,
      "pupilTeacherRatio": 41,
      "passRate": 63.9,
      "status": "Overcrowded",
      "latitude": -13.0533,
      "longitude": 28.6358,
      "averageDistance": 2.9,
      "lastInspection": "2025-08-04T15:00:30.629804"
    },
    {
      "id": 32,
      "chiefdom": "Chief Mushili",
      "district": "Ndola",
      "facilityName": "Choma School 32",
      "facilityType": "Primary School",
      "village": "Chinsali",
      "enrolledStudents": 520,
      "capacity": 780,
      "numberOfTeachers": 25,
      "numberOfClassrooms": 28,
      "pupilTeacherRatio": 40,
      "passRate": 66.5,
      "status": "Operational",
      "latitude": -12.9426,
      "longitude": 28.6328,
      "averageDistance": 9.4,
      "lastInspection": "2025-07-25T15:00:30.629813"
    },
    {
      "id": 33,
      "chiefdom": "Chief Mushili",
      "district": "Ndola",
      "facilityName": "Mongu School 33",
      "facilityType": "Primary School",
      "village": "Katete",
      "enrolledStudents": 1157,
      "capacity": 356,
      "numberOfTeachers": 38,
      "numberOfClassrooms": 21,
      "pupilTeacherRatio": 44,
      "passRate": 62.0,
      "status": "Operational",
      "latitude": -13.0566,
      "longitude": 28.71,
      "averageDistance": 6.5,
      "lastInspection": "2025-01-21T15:00:30.629822"
    },
    {
      "id": 34,
      "chiefdom": "Chief Mushili",
      "district": "Ndola",
      "facilityName": "Zambezi School 34",
      "facilityType": "Primary School",
      "village": "Nchelenge",
      "enrolledStudents": 724,
      "capacity": 816,
      "numberOfTeachers": 40,
      "numberOfClassrooms": 21,
      "pupilTeacherRatio": 45,
      "passRate": 87.3,
      "status": "Operational",
      "latitude": -13.0486,
      "longitude": 28.692,
      "averageDistance": 9.0,
      "lastInspection": "2025-04-25T15:00:30.629831"
    },
    {
      "id": 35,
      "chiefdom": "Chief Mushili",
      "district": "Ndola",
      "facilityName": "Makeni School 35",
      "facilityType": "Primary School",
      "village": "Luangwa",
      "enrolledStudents": 207,
      "capacity": 985,
      "numberOfTeachers": 8,
      "numberOfClassrooms": 12,
      "pupilTeacherRatio": 55,
      "passRate": 92.2,
      "status": "Operational",
      "latitude": -12.9086,
      "longitude": 28.6943,
      "averageDistance": 1.6,
      "lastInspection": "2025-10-11T15:00:30.629840"
    },
    {
      "id": 36,
      "chiefdom": "Chief Mushili",
      "district": "Ndola",
      "facilityName": "Chililabombwe School 36",
      "facilityType": "Secondary School",
      "village": "Lukulu",
      "enrolledStudents": 668,
      "capacity": 811,
      "numberOfTeachers": 30,
      "numberOfClassrooms": 11,
      "pupilTeacherRatio": 46,
      "passRate": 63.2,
      "status": "Overcrowded",
      "latitude": -13.0033,
      "longitude": 28.5904,
      "averageDistance": 2.5,
      "lastInspection": "2026-01-02T15:00:30.629849"
    },
    {
      "id": 37,
      "chiefdom": "Chief Mushili",
      "district": "Ndola",
      "facilityName": "Lilayi School 37",
      "facilityType": "Community School",
      "village": "Kawambwa",
      "enrolledStudents": 692,
      "capacity": 489,
      "numberOfTeachers": 40,
      "numberOfClassrooms": 27,
      "pupilTeacherRatio": 44,
      "passRate": 89.9,
      "status": "Overcrowded",
      "latitude": -13.0208,
      "longitude": 28.6488,
      "averageDistance": 1.1,
      "lastInspection": "2025-01-19T15:00:30.629858"
    },
    {
      "id": 38,
      "chiefdom": "Chief Mushili",
      "district": "Ndola",
      "facilityName": "Zambezi School 38",
      "facilityType": "Secondary School",
      "village": "Siavonga",
      "enrolledStudents": 979,
      "capacity": 1387,
      "numberOfTeachers": 27,
      "numberOfClassrooms": 8,
      "pupilTeacherRatio": 44,
      "passRate": 80.2,
      "status": "Operational",
      "latitude": -12.8705,
      "longitude": 28.7184,
      "averageDistance": 1.1,
      "lastInspection": "2025-05-12T15:00:30.629866"
    },
    {
      "id": 39,
      "chiefdom": "Chief Mushili",
      "district": "Ndola",
      "facilityName": "Chipapa School 39",
      "facilityType": "Secondary School",
      "village": "Gwembe",
      "enrolledStudents": 202,
      "capacity": 989,
      "numberOfTeachers": 9,
      "numberOfClassrooms": 9,
      "pupilTeacherRatio": 54,
      "passRate": 79.0,
      "status": "Overcrowded",
      "latitude": -12.9496,
      "longitude": 28.5919,
      "averageDistance": 7.9,
      "lastInspection": "2025-05-08T15:00:30.629876"
    },
    {
      "id": 40,
      "chiefdom": "Chief Mushili",
      "district": "Ndola",
      "facilityName": "Mbala School 40",
      "facilityType": "Primary School",
      "village": "Chongwe Central",
      "enrolledStudents": 749,
      "capacity": 502,
      "numberOfTeachers": 50,
      "numberOfClassrooms": 11,
      "pupilTeacherRatio": 31,
      "passRate": 68.6,
      "status": "Operational",
      "latitude": -12.9907,
      "longitude": 28.6363,
      "averageDistance": 6.2,
      "lastInspection": "2026-01-17T15:00:30.629884"
    },
    {
      "id": 41,
      "chiefdom": "Chief Mushili",
      "district": "Ndola",
      "facilityName": "Lukulu School 41",
      "facilityType": "Secondary School",
      "village": "Nakatindi",
      "enrolledStudents": 606,
      "capacity": 1312,
      "numberOfTeachers": 40,
      "numberOfClassrooms": 20,
      "pupilTeacherRatio": 37,
      "passRate": 61.2,
      "status": "Overcrowded",
      "latitude": -13.0501,
      "longitude": 28.6058,
      "averageDistance": 4.5,
      "lastInspection": "2025-03-11T15:00:30.629894"
    },
    {
      "id": 42,
      "chiefdom": "Chief Mushili",
      "district": "Ndola",
      "facilityName": "Gwembe School 42",
      "facilityType": "Secondary School",
      "village": "Sinazongwe",
      "enrolledStudents": 557,
      "capacity": 941,
      "numberOfTeachers": 34,
      "numberOfClassrooms": 22,
      "pupilTeacherRatio": 39,
      "passRate": 62.9,
      "status": "Operational",
      "latitude": -12.9607,
      "longitude": 28.6343,
      "averageDistance": 8.9,
      "lastInspection": "2025-11-10T15:00:30.629902"
    },
    {
      "id": 43,
      "chiefdom": "Chief Mushili",
      "district": "Ndola",
      "facilityName": "Mporokoso School 43",
      "facilityType": "Community School",
      "village": "Kanakantapa",
      "enrolledStudents": 968,
      "capacity": 785,
      "numberOfTeachers": 48,
      "numberOfClassrooms": 25,
      "pupilTeacherRatio": 34,
      "passRate": 69.2,
      "status": "Operational",
      "latitude": -12.9283,
      "longitude": 28.7009,
      "averageDistance": 7.6,
      "lastInspection": "2025-03-26T15:00:30.629911"
    },
    {
      "id": 44,
      "chiefdom": "Chief Mushili",
      "district": "Ndola",
      "facilityName": "Sinazongwe School 44",
      "facilityType": "Primary School",
      "village": "Luwingu",
      "enrolledStudents": 999,
      "capacity": 1259,
      "numberOfTeachers": 26,
      "numberOfClassrooms": 26,
      "pupilTeacherRatio": 36,
      "passRate": 79.5,
      "status": "Overcrowded",
      "latitude": -12.9525,
      "longitude": 28.6761,
      "averageDistance": 5.6,
      "lastInspection": "2025-09-30T15:00:30.629921"
    },
    {
      "id": 45,
      "chiefdom": "Chief Mushili",
      "district": "Ndola",
      "facilityName": "Mpongwe School 45",
      "facilityType": "Community School",
      "village": "Chalala",
      "enrolledStudents": 778,
      "capacity": 746,
      "numberOfTeachers": 33,
      "numberOfClassrooms": 28,
      "pupilTeacherRatio": 32,
      "passRate": 86.3,
      "status": "Overcrowded",
      "latitude": -12.9927,
      "longitude": 28.6768,
      "averageDistance": 1.4,
      "lastInspection": "2025-02-24T15:00:30.629930"
    },
    {
      "id": 46,
      "chiefdom": "Chief Mushili",
      "district": "Ndola",
      "facilityName": "Kasempa School 46",
      "facilityType": "Primary School",
      "village": "Mongu",
      "enrolledStudents": 866,
      "capacity": 858,
      "numberOfTeachers": 42,
      "numberOfClassrooms": 8,
      "pupilTeacherRatio": 26,
      "passRate": 76.3,
      "status": "Overcrowded",
      "latitude": -12.959,
      "longitude": 28.651,
      "averageDistance": 7.1,
      "lastInspection": "2025-04-28T15:00:30.629939"
    },
    {
      "id": 47,
      "chiefdom": "Chief Mushili",
      "district": "Ndola",
      "facilityName": "Kafue Riverside School 47",
      "facilityType": "Secondary School",
      "village": "Makeni",
      "enrolledStudents": 460,
      "capacity": 565,
      "numberOfTeachers": 8,
      "numberOfClassrooms": 8,
      "pupilTeacherRatio": 53,
      "passRate": 79.3,
      "status": "Overcrowded",
      "latitude": -12.9904,
      "longitude": 28.5761,
      "averageDistance": 4.7,
      "lastInspection": "2025-10-31T15:00:30.629948"
    },
    {
      "id": 48,
      "chiefdom": "Chief Mushili",
      "district": "Ndola",
      "facilityName": "Mumbwa School 48",
      "facilityType": "Community School",
      "village": "Solwezi",
      "enrolledStudents": 320,
      "capacity": 1239,
      "numberOfTeachers": 26,
      "numberOfClassrooms": 6,
      "pupilTeacherRatio": 50,
      "passRate": 85.4,
      "status": "Operational",
      "latitude": -12.9575,
      "longitude": 28.7145,
      "averageDistance": 7.7,
      "lastInspection": "2025-02-08T15:00:30.629957"
    },
    {
      "id": 49,
      "chiefdom": "Chief Mushili",
      "district": "Ndola",
      "facilityName": "Leopards Hill School 49",
      "facilityType": "Community School",
      "village": "Kabompo",
      "enrolledStudents": 251,
      "capacity": 1102,
      "numberOfTeachers": 49,
      "numberOfClassrooms": 12,
      "pupilTeacherRatio": 48,
      "passRate": 72.2,
      "status": "Operational",
      "latitude": -12.9385,
      "longitude": 28.6354,
      "averageDistance": 3.8,
      "lastInspection": "2025-06-11T15:00:30.629966"
    },
    {
      "id": 50,
      "chiefdom": "Chief Mushili",
      "district": "Ndola",
      "facilityName": "Chisamba School 50",
      "facilityType": "Primary School",
      "village": "Mporokoso",
      "enrolledStudents": 1020,
      "capacity": 535,
      "numberOfTeachers": 18,
      "numberOfClassrooms": 27,
      "pupilTeacherRatio": 32,
      "passRate": 72.9,
      "status": "Overcrowded",
      "latitude": -13.0448,
      "longitude": 28.7273,
      "averageDistance": 4.0,
      "lastInspection": "2025-04-01T15:00:30.629975"
    }
  ],
  "coverageAreas": [
    {
      "id": 1,
      "chiefdom": "Chief Mushili",
      "areaName": "Mpongwe Coverage 1",
      "population": 10949,
      "numberOfHealthFacilities": 4,
      "numberOfSchools": 4,
      "averageDistanceToHealth": 16.2,
      "averageDistanceToSchool": 5.2,
      "coverageQuality": "Adequate",
      "latitude": -12.907,
      "longitude": 28.6737
    },
    {
      "id": 2,
      "chiefdom": "Chief Mushili",
      "areaName": "Mpika Coverage 2",
      "population": 5672,
      "numberOfHealthFacilities": 2,
      "numberOfSchools": 8,
      "averageDistanceToHealth": 19.8,
      "averageDistanceToSchool": 6.2,
      "coverageQuality": "Poor",
      "latitude": -13.0537,
      "longitude": 28.6221
    },
    {
      "id": 3,
      "chiefdom": "Chief Mushili",
      "areaName": "Monze Coverage 3",
      "population": 4000,
      "numberOfHealthFacilities": 3,
      "numberOfSchools": 1,
      "averageDistanceToHealth": 18.9,
      "averageDistanceToSchool": 2.7,
      "coverageQuality": "Adequate",
      "latitude": -13.0233,
      "longitude": 28.6863
    },
    {
      "id": 4,
      "chiefdom": "Chief Mushili",
      "areaName": "Ngwerere Coverage 4",
      "population": 14046,
      "numberOfHealthFacilities": 1,
      "numberOfSchools": 7,
      "averageDistanceToHealth": 4.8,
      "averageDistanceToSchool": 6.1,
      "coverageQuality": "Poor",
      "latitude": -12.9958,
      "longitude": 28.7201
    },
    {
      "id": 5,
      "chiefdom": "Chief Mushili",
      "areaName": "Makeni Coverage 5",
      "population": 7631,
      "numberOfHealthFacilities": 5,
      "numberOfSchools": 1,
      "averageDistanceToHealth": 7.1,
      "averageDistanceToSchool": 6.7,
      "coverageQuality": "Critical",
      "latitude": -13.0607,
      "longitude": 28.5525
    },
    {
      "id": 6,
      "chiefdom": "Chief Mushili",
      "areaName": "Chingola Coverage 6",
      "population": 13054,
      "numberOfHealthFacilities": 5,
      "numberOfSchools": 6,
      "averageDistanceToHealth": 15.1,
      "averageDistanceToSchool": 7.7,
      "coverageQuality": "Critical",
      "latitude": -12.9642,
      "longitude": 28.6896
    },
    {
      "id": 7,
      "chiefdom": "Chief Mushili",
      "areaName": "Mpanshya Coverage 7",
      "population": 7455,
      "numberOfHealthFacilities": 2,
      "numberOfSchools": 6,
      "averageDistanceToHealth": 9.0,
      "averageDistanceToSchool": 1.7,
      "coverageQuality": "Good",
      "latitude": -12.8998,
      "longitude": 28.7158
    },
    {
      "id": 8,
      "chiefdom": "Chief Mushili",
      "areaName": "Chinsali Coverage 8",
      "population": 3502,
      "numberOfHealthFacilities": 2,
      "numberOfSchools": 8,
      "averageDistanceToHealth": 18.6,
      "averageDistanceToSchool": 5.9,
      "coverageQuality": "Adequate",
      "latitude": -12.8978,
      "longitude": 28.5488
    },
    {
      "id": 9,
      "chiefdom": "Chief Mushili",
      "areaName": "Sinda Coverage 9",
      "population": 8065,
      "numberOfHealthFacilities": 5,
      "numberOfSchools": 5,
      "averageDistanceToHealth": 16.8,
      "averageDistanceToSchool": 2.0,
      "coverageQuality": "Poor",
      "latitude": -12.9522,
      "longitude": 28.6839
    },
    {
      "id": 10,
      "chiefdom": "Chief Mushili",
      "areaName": "Chisamba Coverage 10",
      "population": 7088,
      "numberOfHealthFacilities": 5,
      "numberOfSchools": 3,
      "averageDistanceToHealth": 9.0,
      "averageDistanceToSchool": 2.0,
      "coverageQuality": "Adequate",
      "latitude": -13.0083,
      "longitude": 28.6772
    },
    {
      "id": 11,
      "chiefdom": "Chief Mushili",
      "areaName": "Sinda Coverage 11",
      "population": 6398,
      "numberOfHealthFacilities": 2,
      "numberOfSchools": 8,
      "averageDistanceToHealth": 6.6,
      "averageDistanceToSchool": 11.0,
      "coverageQuality": "Adequate",
      "latitude": -13.0633,
      "longitude": 28.6977
    },
    {
      "id": 12,
      "chiefdom": "Chief Mushili",
      "areaName": "Chililabombwe Coverage 12",
      "population": 10374,
      "numberOfHealthFacilities": 2,
      "numberOfSchools": 7,
      "averageDistanceToHealth": 10.2,
      "averageDistanceToSchool": 11.0,
      "coverageQuality": "Adequate",
      "latitude": -12.884,
      "longitude": 28.6485
    },
    {
      "id": 13,
      "chiefdom": "Chief Mushili",
      "areaName": "Kasempa Coverage 13",
      "population": 3819,
      "numberOfHealthFacilities": 1,
      "numberOfSchools": 5,
      "averageDistanceToHealth": 4.0,
      "averageDistanceToSchool": 9.5,
      "coverageQuality": "Adequate",
      "latitude": -12.9675,
      "longitude": 28.6678
    },
    {
      "id": 14,
      "chiefdom": "Chief Mushili",
      "areaName": "Choma Coverage 14",
      "population": 5984,
      "numberOfHealthFacilities": 1,
      "numberOfSchools": 5,
      "averageDistanceToHealth": 15.3,
      "averageDistanceToSchool": 5.1,
      "coverageQuality": "Poor",
      "latitude": -12.9047,
      "longitude": 28.6816
    },
    {
      "id": 15,
      "chiefdom": "Chief Mushili",
      "areaName": "Shimabala Coverage 15",
      "population": 13380,
      "numberOfHealthFacilities": 2,
      "numberOfSchools": 3,
      "averageDistanceToHealth": 18.0,
      "averageDistanceToSchool": 8.6,
      "coverageQuality": "Adequate",
      "latitude": -12.9898,
      "longitude": 28.5955
    },
    {
      "id": 16,
      "chiefdom": "Chief Mushili",
      "areaName": "Chongwe Central Coverage 16",
      "population": 12642,
      "numberOfHealthFacilities": 4,
      "numberOfSchools": 1,
      "averageDistanceToHealth": 12.3,
      "averageDistanceToSchool": 2.3,
      "coverageQuality": "Adequate",
      "latitude": -12.9589,
      "longitude": 28.6213
    },
    {
      "id": 17,
      "chiefdom": "Chief Mushili",
      "areaName": "Samfya Coverage 17",
      "population": 6181,
      "numberOfHealthFacilities": 1,
      "numberOfSchools": 4,
      "averageDistanceToHealth": 18.7,
      "averageDistanceToSchool": 7.2,
      "coverageQuality": "Adequate",
      "latitude": -13.0319,
      "longitude": 28.6628
    },
    {
      "id": 18,
      "chiefdom": "Chief Mushili",
      "areaName": "Nakonde Coverage 18",
      "population": 14523,
      "numberOfHealthFacilities": 4,
      "numberOfSchools": 6,
      "averageDistanceToHealth": 8.6,
      "averageDistanceToSchool": 8.2,
      "coverageQuality": "Good",
      "latitude": -12.9841,
      "longitude": 28.6902
    },
    {
      "id": 19,
      "chiefdom": "Chief Mushili",
      "areaName": "Chainda Coverage 19",
      "population": 9999,
      "numberOfHealthFacilities": 5,
      "numberOfSchools": 3,
      "averageDistanceToHealth": 18.9,
      "averageDistanceToSchool": 11.6,
      "coverageQuality": "Critical",
      "latitude": -13.0607,
      "longitude": 28.6332
    },
    {
      "id": 20,
      "chiefdom": "Chief Mushili",
      "areaName": "Kapiri Coverage 20",
      "population": 13459,
      "numberOfHealthFacilities": 3,
      "numberOfSchools": 3,
      "averageDistanceToHealth": 11.9,
      "averageDistanceToSchool": 11.8,
      "coverageQuality": "Good",
      "latitude": -12.9452,
      "longitude": 28.6769
    },
    {
      "id": 21,
      "chiefdom": "Chief Mushili",
      "areaName": "Kafue Riverside Coverage 21",
      "population": 2583,
      "numberOfHealthFacilities": 4,
      "numberOfSchools": 1,
      "averageDistanceToHealth": 18.7,
      "averageDistanceToSchool": 7.8,
      "coverageQuality": "Poor",
      "latitude": -12.9398,
      "longitude": 28.6543
    },
    {
      "id": 22,
      "chiefdom": "Chief Mushili",
      "areaName": "Ndola Coverage 22",
      "population": 14456,
      "numberOfHealthFacilities": 2,
      "numberOfSchools": 6,
      "averageDistanceToHealth": 5.0,
      "averageDistanceToSchool": 3.0,
      "coverageQuality": "Critical",
      "latitude": -13.0642,
      "longitude": 28.6888
    },
    {
      "id": 23,
      "chiefdom": "Chief Mushili",
      "areaName": "Mwinilunga Coverage 23",
      "population": 14226,
      "numberOfHealthFacilities": 1,
      "numberOfSchools": 2,
      "averageDistanceToHealth": 3.0,
      "averageDistanceToSchool": 11.4,
      "coverageQuality": "Adequate",
      "latitude": -13.0359,
      "longitude": 28.5691
    },
    {
      "id": 24,
      "chiefdom": "Chief Mushili",
      "areaName": "Mongu Coverage 24",
      "population": 2064,
      "numberOfHealthFacilities": 3,
      "numberOfSchools": 7,
      "averageDistanceToHealth": 14.9,
      "averageDistanceToSchool": 2.0,
      "coverageQuality": "Adequate",
      "latitude": -13.066,
      "longitude": 28.6597
    },
    {
      "id": 25,
      "chiefdom": "Chief Mushili",
      "areaName": "Nakatindi Coverage 25",
      "population": 4996,
      "numberOfHealthFacilities": 3,
      "numberOfSchools": 7,
      "averageDistanceToHealth": 17.7,
      "averageDistanceToSchool": 10.7,
      "coverageQuality": "Poor",
      "latitude": -13.0046,
      "longitude": 28.5634
    },
    {
      "id": 26,
      "chiefdom": "Chief Mushili",
      "areaName": "Solwezi Coverage 26",
      "population": 3668,
      "numberOfHealthFacilities": 3,
      "numberOfSchools": 8,
      "averageDistanceToHealth": 7.6,
      "averageDistanceToSchool": 9.0,
      "coverageQuality": "Adequate",
      "latitude": -12.9594,
      "longitude": 28.6165
    },
    {
      "id": 27,
      "chiefdom": "Chief Mushili",
      "areaName": "Kaputa Coverage 27",
      "population": 11614,
      "numberOfHealthFacilities": 3,
      "numberOfSchools": 7,
      "averageDistanceToHealth": 19.6,
      "averageDistanceToSchool": 1.8,
      "coverageQuality": "Adequate",
      "latitude": -12.9523,
      "longitude": 28.6717
    },
    {
      "id": 28,
      "chiefdom": "Chief Mushili",
      "areaName": "Kalomo Coverage 28",
      "population": 6799,
      "numberOfHealthFacilities": 5,
      "numberOfSchools": 4,
      "averageDistanceToHealth": 8.8,
      "averageDistanceToSchool": 10.1,
      "coverageQuality": "Good",
      "latitude": -12.8901,
      "longitude": 28.5501
    },
    {
      "id": 29,
      "chiefdom": "Chief Mushili",
      "areaName": "Chinsali Coverage 29",
      "population": 14413,
      "numberOfHealthFacilities": 5,
      "numberOfSchools": 6,
      "averageDistanceToHealth": 14.7,
      "averageDistanceToSchool": 5.8,
      "coverageQuality": "Adequate",
      "latitude": -12.9274,
      "longitude": 28.5535
    },
    {
      "id": 30,
      "chiefdom": "Chief Mushili",
      "areaName": "Lunsemfwa Coverage 30",
      "population": 11507,
      "numberOfHealthFacilities": 5,
      "numberOfSchools": 2,
      "averageDistanceToHealth": 16.7,
      "averageDistanceToSchool": 9.1,
      "coverageQuality": "Poor",
      "latitude": -12.8785,
      "longitude": 28.567
    },
    {
      "id": 31,
      "chiefdom": "Chief Mushili",
      "areaName": "Sesheke Coverage 31",
      "population": 3279,
      "numberOfHealthFacilities": 5,
      "numberOfSchools": 2,
      "averageDistanceToHealth": 12.2,
      "averageDistanceToSchool": 2.0,
      "coverageQuality": "Adequate",
      "latitude": -13.0008,
      "longitude": 28.7153
    },
    {
      "id": 32,
      "chiefdom": "Chief Mushili",
      "areaName": "Lunsemfwa Coverage 32",
      "population": 2364,
      "numberOfHealthFacilities": 3,
      "numberOfSchools": 1,
      "averageDistanceToHealth": 9.9,
      "averageDistanceToSchool": 11.0,
      "coverageQuality": "Critical",
      "latitude": -12.9675,
      "longitude": 28.6757
    },
    {
      "id": 33,
      "chiefdom": "Chief Mushili",
      "areaName": "Livingstone Coverage 33",
      "population": 6794,
      "numberOfHealthFacilities": 2,
      "numberOfSchools": 5,
      "averageDistanceToHealth": 6.5,
      "averageDistanceToSchool": 2.3,
      "coverageQuality": "Critical",
      "latitude": -13.068,
      "longitude": 28.5968
    },
    {
      "id": 34,
      "chiefdom": "Chief Mushili",
      "areaName": "Vubwi Coverage 34",
      "population": 9135,
      "numberOfHealthFacilities": 4,
      "numberOfSchools": 1,
      "averageDistanceToHealth": 16.4,
      "averageDistanceToSchool": 4.9,
      "coverageQuality": "Critical",
      "latitude": -12.9603,
      "longitude": 28.5892
    },
    {
      "id": 35,
      "chiefdom": "Chief Mushili",
      "areaName": "Chalimbana Coverage 35",
      "population": 2470,
      "numberOfHealthFacilities": 1,
      "numberOfSchools": 1,
      "averageDistanceToHealth": 14.3,
      "averageDistanceToSchool": 9.1,
      "coverageQuality": "Adequate",
      "latitude": -12.9368,
      "longitude": 28.5634
    },
    {
      "id": 36,
      "chiefdom": "Chief Mushili",
      "areaName": "Mufumbwe Coverage 36",
      "population": 14163,
      "numberOfHealthFacilities": 4,
      "numberOfSchools": 7,
      "averageDistanceToHealth": 18.4,
      "averageDistanceToSchool": 11.4,
      "coverageQuality": "Critical",
      "latitude": -13.0475,
      "longitude": 28.6226
    },
    {
      "id": 37,
      "chiefdom": "Chief Mushili",
      "areaName": "Chipata Coverage 37",
      "population": 14052,
      "numberOfHealthFacilities": 4,
      "numberOfSchools": 2,
      "averageDistanceToHealth": 2.3,
      "averageDistanceToSchool": 12.0,
      "coverageQuality": "Critical",
      "latitude": -12.9821,
      "longitude": 28.6129
    },
    {
      "id": 38,
      "chiefdom": "Chief Mushili",
      "areaName": "Chipapa Coverage 38",
      "population": 8408,
      "numberOfHealthFacilities": 3,
      "numberOfSchools": 6,
      "averageDistanceToHealth": 3.5,
      "averageDistanceToSchool": 9.5,
      "coverageQuality": "Critical",
      "latitude": -13.0169,
      "longitude": 28.6779
    },
    {
      "id": 39,
      "chiefdom": "Chief Mushili",
      "areaName": "Katoba Coverage 39",
      "population": 7499,
      "numberOfHealthFacilities": 2,
      "numberOfSchools": 1,
      "averageDistanceToHealth": 7.8,
      "averageDistanceToSchool": 2.3,
      "coverageQuality": "Critical",
      "latitude": -13.0138,
      "longitude": 28.5901
    },
    {
      "id": 40,
      "chiefdom": "Chief Mushili",
      "areaName": "Kaputa Coverage 40",
      "population": 8546,
      "numberOfHealthFacilities": 5,
      "numberOfSchools": 5,
      "averageDistanceToHealth": 7.7,
      "averageDistanceToSchool": 11.4,
      "coverageQuality": "Good",
      "latitude": -13.0304,
      "longitude": 28.6727
    },
    {
      "id": 41,
      "chiefdom": "Chief Mushili",
      "areaName": "Kaunga Coverage 41",
      "population": 7471,
      "numberOfHealthFacilities": 2,
      "numberOfSchools": 6,
      "averageDistanceToHealth": 10.2,
      "averageDistanceToSchool": 7.9,
      "coverageQuality": "Good",
      "latitude": -12.9274,
      "longitude": 28.5917
    },
    {
      "id": 42,
      "chiefdom": "Chief Mushili",
      "areaName": "Lilayi Coverage 42",
      "population": 9598,
      "numberOfHealthFacilities": 3,
      "numberOfSchools": 3,
      "averageDistanceToHealth": 15.6,
      "averageDistanceToSchool": 7.9,
      "coverageQuality": "Adequate",
      "latitude": -12.9489,
      "longitude": 28.6687
    },
    {
      "id": 43,
      "chiefdom": "Chief Mushili",
      "areaName": "Katoba Coverage 43",
      "population": 11209,
      "numberOfHealthFacilities": 3,
      "numberOfSchools": 3,
      "averageDistanceToHealth": 15.4,
      "averageDistanceToSchool": 3.9,
      "coverageQuality": "Adequate",
      "latitude": -13.0589,
      "longitude": 28.5896
    },
    {
      "id": 44,
      "chiefdom": "Chief Mushili",
      "areaName": "Palabana Coverage 44",
      "population": 12714,
      "numberOfHealthFacilities": 2,
      "numberOfSchools": 2,
      "averageDistanceToHealth": 10.1,
      "averageDistanceToSchool": 4.6,
      "coverageQuality": "Adequate",
      "latitude": -12.9572,
      "longitude": 28.5807
    },
    {
      "id": 45,
      "chiefdom": "Chief Mushili",
      "areaName": "Pemba Coverage 45",
      "population": 4838,
      "numberOfHealthFacilities": 4,
      "numberOfSchools": 6,
      "averageDistanceToHealth": 13.9,
      "averageDistanceToSchool": 4.0,
      "coverageQuality": "Poor",
      "latitude": -12.9943,
      "longitude": 28.5488
    },
    {
      "id": 46,
      "chiefdom": "Chief Mushili",
      "areaName": "Chainda Coverage 46",
      "population": 6518,
      "numberOfHealthFacilities": 1,
      "numberOfSchools": 2,
      "averageDistanceToHealth": 10.7,
      "averageDistanceToSchool": 8.1,
      "coverageQuality": "Critical",
      "latitude": -13.015,
      "longitude": 28.6512
    },
    {
      "id": 47,
      "chiefdom": "Chief Mushili",
      "areaName": "Mutumbi Coverage 47",
      "population": 4372,
      "numberOfHealthFacilities": 4,
      "numberOfSchools": 2,
      "averageDistanceToHealth": 10.2,
      "averageDistanceToSchool": 5.8,
      "coverageQuality": "Good",
      "latitude": -12.8876,
      "longitude": 28.5802
    },
    {
      "id": 48,
      "chiefdom": "Chief Mushili",
      "areaName": "Mambwe Coverage 48",
      "population": 12695,
      "numberOfHealthFacilities": 1,
      "numberOfSchools": 4,
      "averageDistanceToHealth": 3.1,
      "averageDistanceToSchool": 6.0,
      "coverageQuality": "Adequate",
      "latitude": -12.9644,
      "longitude": 28.6746
    },
    {
      "id": 49,
      "chiefdom": "Chief Mushili",
      "areaName": "Pemba Coverage 49",
      "population": 12950,
      "numberOfHealthFacilities": 1,
      "numberOfSchools": 4,
      "averageDistanceToHealth": 9.1,
      "averageDistanceToSchool": 1.2,
      "coverageQuality": "Good",
      "latitude": -12.9777,
      "longitude": 28.6434
    },
    {
      "id": 50,
      "chiefdom": "Chief Mushili",
      "areaName": "Mkushi Coverage 50",
      "population": 13528,
      "numberOfHealthFacilities": 1,
      "numberOfSchools": 7,
      "averageDistanceToHealth": 19.3,
      "averageDistanceToSchool": 9.7,
      "coverageQuality": "Poor",
      "latitude": -13.0047,
      "longitude": 28.6458
    }
  ]
}