{
  "waterSources": [
    {
      "id": 1,
      "chiefdom": "Chief Mushili",
      "district": "Ndola",
      "sourceName": "Mwinilunga Water Source 1",
      "sourceType": "Piped Water",
      "waterBodyType": "Groundwater",
      "village": "Chama",
      "populationServed": 4084,
      "householdsServed": 449,
      "flowRate": 16650,
      "waterQuality": "Fair",
      "status": "Functional",
      "latitude": -12.982,
      "longitude": 28.6028,
      "averageWalkingDistance": 3.2,
      "lastMaintenance": "2025-10-26T15:00:30.630188",
      "installationYear": "2022-07-29T15:00:30.630192",
      "isProtected": true,
      "isTreated": false,
      "management": "Community"
    },
    {
      "id": 2,
      "chiefdom": "Chief Mushili",
      "district": "Ndola",
      "sourceName": "Chadiza Water Source 2",
      "sourceType": "Well",
      "waterBodyType": "Groundwater",
      "village": "Serenje",
      "populationServed": 9485,
      "householdsServed": 345,
      "flowRate": 31115,
      "waterQuality": "Excellent",
      "status": "Needs Repair",
      "latitude": -12.8713,
      "longitude": 28.588,
      "averageWalkingDistance": 3.0,
      "lastMaintenance": "2025-04-13T15:00:30.630202",
      "installationYear": "2019-08-26T15:00:30.630206",
      "isProtected": false,
      "isTreated": false,
      "management": "Private"
    },
    {
      "id": 3,
      "chiefdom": "Chief Mushili",
      "district": "Ndola",
      "sourceName": "Shangombo Water Source 3",
      "sourceType": "Well",
      "waterBodyType": "Groundwater",
      "village": "Chilanga",
      "populationServed": 6496,
      "householdsServed": 2259,
      "flowRate": 24793,
      "waterQuality": "Excellent",
      "status": "Functional",
      "latitude": -12.9359,
      "longitude": 28.7234,
      "averageWalkingDistance": 4.8,
      "lastMaintenance": "2025-10-21T15:00:30.630215",
      "installationYear": "2016-04-20T15:00:30.630218",
      "isProtected": false,
      "isTreated": false,
      "management": "Community"
    },
    {
      "id": 4,
      "chiefdom": "Chief Mushili",
      "district": "Ndola",
      "sourceName": "Gwembe Water Source 4",
      "sourceType": "Piped Water",
      "waterBodyType": "Groundwater",
      "village": "Chalala",
      "populationServed": 5959,
      "householdsServed": 2215,
      "flowRate": 31706,
      "waterQuality": "Fair",
      "status": "Needs Repair",
      "latitude": -13.0422,
      "longitude": 28.6601,
      "averageWalkingDistance": 4.7,
      "lastMaintenance": "2025-10-22T15:00:30.630227",
      "installationYear": "2019-11-24T15:00:30.630231",
      "isProtected": true,
      "isTreated": false,
      "management": "Government"
    },
    {
      "id": 5,
      "chiefdom": "Chief Mushili",
      "district": "Ndola",
      "sourceName": "Lundazi Water Source 5",
      "sourceType": "Spring",
      "waterBodyType": "Groundwater",
      "village": "Sesheke",
      "populationServed": 10714,
      "householdsServed": 2099,
      "flowRate": 19481,
      "waterQuality": "Good",
      "status": "Needs Repair",
      "latitude": -13.0225,
      "longitude": 28.6536,
      "averageWalkingDistance": 5.0,
      "lastMaintenance": "2025-09-27T15:00:30.630240",
      "installationYear": "2021-02-04T15:00:30.630243",
      "isProtected": true,
      "isTreated": false,
      "management": "NGO"
    },
    {
      "id": 6,
      "chiefdom": "Chief Mushili",
      "district": "Ndola",
      "sourceName": "Mporokoso Water Source 6",
      "sourceType": "Borehole",
      "waterBodyType": "Groundwater",
      "village": "Mansa",
      "populationServed": 13422,
      "householdsServed": 1408,
      "flowRate": 17701,
      "waterQuality": "Excellent",
      "status": "Non-Functional",
      "latitude": -12.8867,
      "longitude": 28.6242,
      "averageWalkingDistance": 2.1,
      "lastMaintenance": "2025-05-15T15:00:30.630252",
      "installationYear": "2024-12-22T15:00:30.630255",
      "isProtected": true,
      "isTreated": false,
      "management": "Government"
    },
    {
      "id": 7,
      "chiefdom": "Chief Mushili",
      "district": "Ndola",
      "sourceName": "Sesheke Water Source 7",
      "sourceType": "Spring",
      "waterBodyType": "Groundwater",
      "village": "Kasempa",
      "populationServed": 2640,
      "householdsServed": 2302,
      "flowRate": 41306,
      "waterQuality": "Excellent",
      "status": "Needs Repair",
      "latitude": -13.0331,
      "longitude": 28.6094,
      "averageWalkingDistance": 0.6,
      "lastMaintenance": "2025-05-16T15:00:30.630264",
      "installationYear": "2022-07-04T15:00:30.630267",
      "isProtected": true,
      "isTreated": false,
      "management": "Private"
    },
    {
      "id": 8,
      "chiefdom": "Chief Mushili",
      "district": "Ndola",
      "sourceName": "Ndola Water Source 8",
      "sourceType": "Piped Water",
      "waterBodyType": "Groundwater",
      "village": "Lilayi",
      "populationServed": 947,
      "householdsServed": 753,
      "flowRate": 5704,
      "waterQuality": "Fair",
      "status": "Non-Functional",
      "latitude": -12.9786,
      "longitude": 28.6904,
      "averageWalkingDistance": 0.6,
      "lastMaintenance": "2025-02-06T15:00:30.630276",
      "installationYear": "2024-08-25T15:00:30.630280",
      "isProtected": false,
      "isTreated": false,
      "management": "Government"
    },
    {
      "id": 9,
      "chiefdom": "Chief Mushili",
      "district": "Ndola",
      "sourceName": "Mongu Water Source 9",
      "sourceType": "Piped Water",
      "waterBodyType": "Groundwater",
      "village": "Shangombo",
      "populationServed": 3595,
      "householdsServed": 2897,
      "flowRate": 21739,
      "waterQuality": "Excellent",
      "status": "Needs Repair",
      "latitude": -12.8968,
      "longitude": 28.567,
      "averageWalkingDistance": 2.9,
      "lastMaintenance": "2025-10-25T15:00:30.630289",
      "installationYear": "2023-12-30T15:00:30.630292",
      "isProtected": true,
      "isTreated": true,
      "management": "Private"
    },
    {
      "id": 10,
      "chiefdom": "Chief Mushili",
      "district": "Ndola",
      "sourceName": "Chingola Water Source 10",
      "sourceType": "Borehole",
      "waterBodyType": "Groundwater",
      "village": "Mpongwe",
      "populationServed": 10279,
      "householdsServed": 2148,
      "flowRate": 9552,
      "waterQuality": "Excellent",
      "status": "Functional",
      "latitude": -12.9931,
      "longitude": 28.7216,
      "averageWalkingDistance": 1.1,
      "lastMaintenance": "2025-04-09T15:00:30.630301",
      "installationYear": "2020-01-03T15:00:30.630304",
      "isProtected": false,
      "isTreated": true,
      "management": "NGO"
    },
    {
      "id": 11,
      "chiefdom": "Chief Mushili",
      "district": "Ndola",
      "sourceName": "Chibombo Water Source 11",
      "sourceType": "Well",
      "waterBodyType": "Groundwater",
      "village": "Kaunga",
      "populationServed": 1391,
      "householdsServed": 435,
      "flowRate": 30446,
      "waterQuality": "Fair",
      "status": "Needs Repair",
      "latitude": -13.0048,
      "longitude": 28.7352,
      "averageWalkingDistance": 4.8,
      "lastMaintenance": "2025-07-04T15:00:30.630313",
      "installationYear": "2024-08-07T15:00:30.630316",
      "isProtected": false,
      "isTreated": true,
      "management": "NGO"
    },
    {
      "id": 12,
      "chiefdom": "Chief Mushili",
      "district": "Ndola",
      "sourceName": "Munyumba Water Source 12",
      "sourceType": "Well",
      "waterBodyType": "Groundwater",
      "village": "Mumbwa",
      "populationServed": 13596,
      "householdsServed": 2394,
      "flowRate": 31976,
      "waterQuality": "Excellent",
      "status": "Non-Functional",
      "latitude": -12.9862,
      "longitude": 28.6403,
      "averageWalkingDistance": 2.3,
      "lastMaintenance": "2025-09-16T15:00:30.630325",
      "installationYear": "2020-03-25T15:00:30.630329",
      "isProtected": true,
      "isTreated": false,
      "management": "Community"
    },
    {
      "id": 13,
      "chiefdom": "Chief Mushili",
      "district": "Ndola",
      "sourceName": "Chama Water Source 13",
      "sourceType": "Well",
      "waterBodyType": "Groundwater",
      "village": "Isoka",
      "populationServed": 11944,
      "householdsServed": 2932,
      "flowRate": 47319,
      "waterQuality": "Poor",
      "status": "Needs Repair",
      "latitude": -12.9593,
      "longitude": 28.6067,
      "averageWalkingDistance": 4.3,
      "lastMaintenance": "2025-10-14T15:00:30.630338",
      "installationYear": "2024-06-27T15:00:30.630342",
      "isProtected": true,
      "isTreated": false,
      "management": "Community"
    },
    {
      "id": 14,
      "chiefdom": "Chief Mushili",
      "district": "Ndola",
      "sourceName": "Gwembe Water Source 14",
      "sourceType": "Spring",
      "waterBodyType": "Groundwater",
      "village": "Kasempa",
      "populationServed": 4240,
      "householdsServed": 283,
      "flowRate": 28242,
      "waterQuality": "Good",
      "status": "Functional",
      "latitude": -12.9806,
      "longitude": 28.7208,
      "averageWalkingDistance": 4.7,
      "lastMaintenance": "2025-01-28T15:00:30.630351",
      "installationYear": "2019-08-26T15:00:30.630354",
      "isProtected": false,
      "isTreated": false,
      "management": "Community"
    },
    {
      "id": 15,
      "chiefdom": "Chief Mushili",
      "district": "Ndola",
      "sourceName": "Shimabala Water Source 15",
      "sourceType": "Piped Water",
      "waterBodyType": "Groundwater",
      "village": "Chainda",
      "populationServed": 6897,
      "householdsServed": 1053,
      "flowRate": 26012,
      "waterQuality": "Fair",
      "status": "Functional",
      "latitude": -13.048,
      "longitude": 28.6305,
      "averageWalkingDistance": 2.0,
      "lastMaintenance": "2025-01-27T15:00:30.630363",
      "installationYear": "2024-11-25T15:00:30.630366",
      "isProtected": true,
      "isTreated": false,
      "management": "NGO"
    },
    {
      "id": 16,
      "chiefdom": "Chief Mushili",
      "district": "Ndola",
      "sourceName": "Mwembezhi Water Source 16",
      "sourceType": "Borehole",
      "waterBodyType": "Groundwater",
      "village": "Choma",
      "populationServed": 7867,
      "householdsServed": 1647,
      "flowRate": 34211,
      "waterQuality": "Good",
      "status": "Functional",
      "latitude": -13.0295,
      "longitude": 28.735,
      "averageWalkingDistance": 2.8,
      "lastMaintenance": "2025-10-05T15:00:30.630375",
      "installationYear": "2024-02-12T15:00:30.630378",
      "isProtected": true,
      "isTreated": false,
      "management": "Government"
    },
    {
      "id": 17,
      "chiefdom": "Chief Mushili",
      "district": "Ndola",
      "sourceName": "Kalingalinga Water Source 17",
      "sourceType": "Borehole",
      "waterBodyType": "Groundwater",
      "village": "Mbabala",
      "populationServed": 10820,
      "householdsServed": 2949,
      "flowRate": 16028,
      "waterQuality": "Poor",
      "status": "Needs Repair",
      "latitude": -13.0157,
      "longitude": 28.7306,
      "averageWalkingDistance": 3.7,
      "lastMaintenance": "2025-10-11T15:00:30.630387",
      "installationYear": "2016-08-07T15:00:30.630390",
      "isProtected": true,
      "isTreated": false,
      "management": "Government"
    },
    {
      "id": 18,
      "chiefdom": "Chief Mushili",
      "district": "Ndola",
      "sourceName": "Palabana Water Source 18",
      "sourceType": "Well",
      "waterBodyType": "Groundwater",
      "village": "Kaputa",
      "populationServed": 4100,
      "householdsServed": 2913,
      "flowRate": 3713,
      "waterQuality": "Good",
      "status": "Non-Functional",
      "latitude": -12.9811,
      "longitude": 28.6069,
      "averageWalkingDistance": 2.7,
      "lastMaintenance": "2025-08-10T15:00:30.630399",
      "installationYear": "2020-11-30T15:00:30.630402",
      "isProtected": false,
      "isTreated": false,
      "management": "Government"
    },
    {
      "id": 19,
      "chiefdom": "Chief Mushili",
      "district": "Ndola",
      "sourceName": "Chingola Water Source 19",
      "sourceType": "Piped Water",
      "waterBodyType": "Groundwater",
      "village": "Kaoma",
      "populationServed": 13501,
      "householdsServed": 1376,
      "flowRate": 35474,
      "waterQuality": "Good",
      "status": "Needs Repair",
      "latitude": -12.9106,
      "longitude": 28.6043,
      "averageWalkingDistance": 3.0,
      "lastMaintenance": "2025-04-14T15:00:30.630411",
      "installationYear": "2024-12-20T15:00:30.630420",
      "isProtected": false,
      "isTreated": true,
      "management": "Private"
    },
    {
      "id": 20,
      "chiefdom": "Chief Mushili",
      "district": "Ndola",
      "sourceName": "Chingola Water Source 20",
      "sourceType": "Borehole",
      "waterBodyType": "Groundwater",
      "village": "Kabwe",
      "populationServed": 14194,
      "householdsServed": 2806,
      "flowRate": 37719,
      "waterQuality": "Fair",
      "status": "Non-Functional",
      "latitude": -12.8737,
      "longitude": 28.7395,
      "averageWalkingDistance": 1.8,
      "lastMaintenance": "2025-11-28T15:00:30.630429",
      "installationYear": "2020-08-17T15:00:30.630432",
      "isProtected": true,
      "isTreated": true,
      "management": "Government"
    },
    {
      "id": 21,
      "chiefdom": "Chief Mushili",
      "district": "Ndola",
      "sourceName": "Monze Water Source 21",
      "sourceType": "Piped Water",
      "waterBodyType": "Groundwater",
      "village": "Mkushi",
      "populationServed": 10096,
      "householdsServed": 477,
      "flowRate": 34574,
      "waterQuality": "Excellent",
      "status": "Functional",
      "latitude": -13.0509,
      "longitude": 28.5968,
      "averageWalkingDistance": 0.6,
      "lastMaintenance": "2025-10-26T15:00:30.630441",
      "installationYear": "2019-09-04T15:00:30.630444",
      "isProtected": true,
      "isTreated": false,
      "management": "NGO"
    },
    {
      "id": 22,
      "chiefdom": "Chief Mushili",
      "district": "Ndola",
      "sourceName": "Ndola Water Source 22",
      "sourceType": "Well",
      "waterBodyType": "Groundwater",
      "village": "Samfya",
      "populationServed": 6903,
      "householdsServed": 404,
      "flowRate": 48515,
      "waterQuality": "Fair",
      "status": "Needs Repair",
      "latitude": -12.9366,
      "longitude": 28.6688,
      "averageWalkingDistance": 4.1,
      "lastMaintenance": "2025-06-09T15:00:30.630453",
      "installationYear": "2017-05-25T15:00:30.630456",
      "isProtected": false,
      "isTreated": true,
      "management": "Community"
    },
    {
      "id": 23,
      "chiefdom": "Chief Mushili",
      "district": "Ndola",
      "sourceName": "Kasempa Water Source 23",
      "sourceType": "Spring",
      "waterBodyType": "Groundwater",
      "village": "Chipata",
      "populationServed": 7436,
      "householdsServed": 1426,
      "flowRate": 49569,
      "waterQuality": "Poor",
      "status": "Functional",
      "latitude": -12.9261,
      "longitude": 28.7232,
      "averageWalkingDistance": 3.4,
      "lastMaintenance": "2025-07-31T15:00:30.630465",
      "installationYear": "2020-08-17T15:00:30.630468",
      "isProtected": false,
      "isTreated": true,
      "management": "NGO"
    },
    {
      "id": 24,
      "chiefdom": "Chief Mushili",
      "district": "Ndola",
      "sourceName": "Meanwood Water Source 24",
      "sourceType": "Piped Water",
      "waterBodyType": "Groundwater",
      "village": "Mansa",
      "populationServed": 850,
      "householdsServed": 1892,
      "flowRate": 6390,
      "waterQuality": "Excellent",
      "status": "Needs Repair",
      "latitude": -12.908,
      "longitude": 28.71,
      "averageWalkingDistance": 4.0,
      "lastMaintenance": "2025-02-15T15:00:30.630477",
      "installationYear": "2017-04-04T15:00:30.630480",
      "isProtected": true,
      "isTreated": false,
      "management": "NGO"
    },
    {
      "id": 25,
      "chiefdom": "Chief Mushili",
      "district": "Ndola",
      "sourceName": "Chipata Water Source 25",
      "sourceType": "Piped Water",
      "waterBodyType": "Groundwater",
      "village": "Ngwerere",
      "populationServed": 3966,
      "householdsServed": 119,
      "flowRate": 4381,
      "waterQuality": "Good",
      "status": "Functional",
      "latitude": -12.8807,
      "longitude": 28.6811,
      "averageWalkingDistance": 2.5,
      "lastMaintenance": "2025-04-18T15:00:30.630489",
      "installationYear": "2016-05-24T15:00:30.630493",
      "isProtected": false,
      "isTreated": true,
      "management": "Community"
    },
    {
      "id": 26,
      "chiefdom": "Chief Mushili",
      "district": "Ndola",
      "sourceName": "Kasempa Water Source 26",
      "sourceType": "Well",
      "waterBodyType": "Groundwater",
      "village": "Chililabombwe",
      "populationServed": 1286,
      "householdsServed": 280,
      "flowRate": 13810,
      "waterQuality": "Good",
      "status": "Needs Repair",
      "latitude": -12.8866,
      "longitude": 28.5864,
      "averageWalkingDistance": 1.7,
      "lastMaintenance": "2025-03-28T15:00:30.630501",
      "installationYear": "2021-08-05T15:00:30.630505",
      "isProtected": false,
      "isTreated": true,
      "management": "Government"
    },
    {
      "id": 27,
      "chiefdom": "Chief Mushili",
      "district": "Ndola",
      "sourceName": "Chilanga Water Source 27",
      "sourceType": "Spring",
      "waterBodyType": "Groundwater",
      "village": "Sikanze",
      "populationServed": 7127,
      "householdsServed": 2968,
      "flowRate": 11413,
      "waterQuality": "Good",
      "status": "Functional",
      "latitude": -13.0495,
      "longitude": 28.6584,
      "averageWalkingDistance": 3.7,
      "lastMaintenance": "2025-08-05T15:00:30.630513",
      "installationYear": "2020-01-14T15:00:30.630517",
      "isProtected": true,
      "isTreated": true,
      "management": "NGO"
    },
    {
      "id": 28,
      "chiefdom": "Chief Mushili",
      "district": "Ndola",
      "sourceName": "Kaunga Water Source 28",
      "sourceType": "Piped Water",
      "waterBodyType": "Groundwater",
      "village": "Chilanga",
      "populationServed": 6034,
      "householdsServed": 1789,
      "flowRate": 3848,
      "waterQuality": "Excellent",
      "status": "Needs Repair",
      "latitude": -12.8959,
      "longitude": 28.6467,
      "averageWalkingDistance": 3.6,
      "lastMaintenance": "2025-03-22T15:00:30.630525",
      "installationYear": "2017-12-02T15:00:30.630529",
      "isProtected": true,
      "isTreated": true,
      "management": "Private"
    },
    {
      "id": 29,
      "chiefdom": "Chief Mushili",
      "district": "Ndola",
      "sourceName": "Nchelenge Water Source 29",
      "sourceType": "Piped Water",
      "waterBodyType": "Groundwater",
      "village": "Chadiza",
      "populationServed": 13215,
      "householdsServed": 1743,
      "flowRate": 32432,
      "waterQuality": "Fair",
      "status": "Non-Functional",
      "latitude": -13.046,
      "longitude": 28.6439,
      "averageWalkingDistance": 1.3,
      "lastMaintenance": "2025-05-29T15:00:30.630537",
      "installationYear": "2020-05-17T15:00:30.630541",
      "isProtected": true,
      "isTreated": false,
      "management": "Government"
    },
    {
      "id": 30,
      "chiefdom": "Chief Mushili",
      "district": "Ndola",
      "sourceName": "Nakatindi Water Source 30",
      "sourceType": "Spring",
      "waterBodyType": "Groundwater",
      "village": "Livingstone",
      "populationServed": 11001,
      "householdsServed": 287,
      "flowRate": 38216,
      "waterQuality": "Poor",
      "status": "Functional",
      "latitude": -13.0029,
      "longitude": 28.5744,
      "averageWalkingDistance": 4.9,
      "lastMaintenance": "2025-09-11T15:00:30.630549",
      "installationYear": "2018-05-24T15:00:30.630553",
      "isProtected": false,
      "isTreated": false,
      "management": "NGO"
    },
    {
      "id": 31,
      "chiefdom": "Chief Mushili",
      "district": "Ndola",
      "sourceName": "Kalabo Water Source 31",
      "sourceType": "Borehole",
      "waterBodyType": "Groundwater",
      "village": "Leopards Hill",
      "populationServed": 4439,
      "householdsServed": 1678,
      "flowRate": 27796,
      "waterQuality": "Excellent",
      "status": "Functional",
      "latitude": -12.9172,
      "longitude": 28.5729,
      "averageWalkingDistance": 3.3,
      "lastMaintenance": "2025-05-12T15:00:30.630561",
      "installationYear": "2020-05-18T15:00:30.630565",
      "isProtected": true,
      "isTreated": false,
      "management": "NGO"
    },
    {
      "id": 32,
      "chiefdom": "Chief Mushili",
      "district": "Ndola",
      "sourceName": "Shimabala Water Source 32",
      "sourceType": "Piped Water",
      "waterBodyType": "Groundwater",
      "village": "Lunsemfwa",
      "populationServed": 9201,
      "householdsServed": 875,
      "flowRate": 38438,
      "waterQuality": "Good",
      "status": "Needs Repair",
      "latitude": -12.9165,
      "longitude": 28.6508,
      "averageWalkingDistance": 2.9,
      "lastMaintenance": "2025-08-04T15:00:30.630573",
      "installationYear": "2021-06-12T15:00:30.630577",
      "isProtected": false,
      "isTreated": false,
      "management": "Community"
    },
    {
      "id": 33,
      "chiefdom": "Chief Mushili",
      "district": "Ndola",
      "sourceName": "Chipapa Water Source 33",
      "sourceType": "Borehole",
      "waterBodyType": "Groundwater",
      "village": "Kafue Riverside",
      "populationServed": 678,
      "householdsServed": 2459,
      "flowRate": 49035,
      "waterQuality": "Poor",
      "status": "Functional",
      "latitude": -12.9913,
      "longitude": 28.5857,
      "averageWalkingDistance": 0.7,
      "lastMaintenance": "2025-01-30T15:00:30.630585",
      "installationYear": "2024-12-07T15:00:30.630589",
      "isProtected": false,
      "isTreated": true,
      "management": "NGO"
    },
    {
      "id": 34,
      "chiefdom": "Chief Mushili",
      "district": "Ndola",
      "sourceName": "Luwingu Water Source 34",
      "sourceType": "Piped Water",
      "waterBodyType": "Groundwater",
      "village": "Kaoma",
      "populationServed": 6849,
      "householdsServed": 2965,
      "flowRate": 5751,
      "waterQuality": "Good",
      "status": "Needs Repair",
      "latitude": -13.0273,
      "longitude": 28.6189,
      "averageWalkingDistance": 1.6,
      "lastMaintenance": "2025-09-12T15:00:30.630598",
      "installationYear": "2019-07-08T15:00:30.630601",
      "isProtected": true,
      "isTreated": false,
      "management": "Private"
    },
    {
      "id": 35,
      "chiefdom": "Chief Mushili",
      "district": "Ndola",
      "sourceName": "Mbabala Water Source 35",
      "sourceType": "Piped Water",
      "waterBodyType": "Groundwater",
      "village": "Ngwerere",
      "populationServed": 4206,
      "householdsServed": 2044,
      "flowRate": 29164,
      "waterQuality": "Excellent",
      "status": "Needs Repair",
      "latitude": -12.8993,
      "longitude": 28.5741,
      "averageWalkingDistance": 2.7,
      "lastMaintenance": "2025-06-20T15:00:30.630610",
      "installationYear": "2023-05-31T15:00:30.630614",
      "isProtected": true,
      "isTreated": false,
      "management": "NGO"
    },
    {
      "id": 36,
      "chiefdom": "Chief Mushili",
      "district": "Ndola",
      "sourceName": "Siavonga Water Source 36",
      "sourceType": "Well",
      "waterBodyType": "Groundwater",
      "village": "Kalingalinga",
      "populationServed": 12548,
      "householdsServed": 1079,
      "flowRate": 46888,
      "waterQuality": "Fair",
      "status": "Functional",
      "latitude": -12.9984,
      "longitude": 28.5621,
      "averageWalkingDistance": 1.3,
      "lastMaintenance": "2025-04-25T15:00:30.630622",
      "installationYear": "2020-05-15T15:00:30.630626",
      "isProtected": true,
      "isTreated": true,
      "management": "Private"
    },
    {
      "id": 37,
      "chiefdom": "Chief Mushili",
      "district": "Ndola",
      "sourceName": "Chadiza Water Source 37",
      "sourceType": "Borehole",
      "waterBodyType": "Groundwater",
      "village": "Sinda",
      "populationServed": 9593,
      "householdsServed": 841,
      "flowRate": 15157,
      "waterQuality": "Excellent",
      "status": "Needs Repair",
      "latitude": -12.9816,
      "longitude": 28.669,
      "averageWalkingDistance": 2.1,
      "lastMaintenance": "2025-02-11T15:00:30.630635",
      "installationYear": "2018-11-25T15:00:30.630638",
      "isProtected": true,
      "isTreated": true,
      "management": "Community"
    },
    {
      "id": 38,
      "chiefdom": "Chief Mushili",
      "district": "Ndola",
      "sourceName": "Luanshya Water Source 38",
      "sourceType": "Piped Water",
      "waterBodyType": "Groundwater",
      "village": "Mufumbwe",
      "populationServed": 8286,
      "householdsServed": 841,
      "flowRate": 49453,
      "waterQuality": "Good",
      "status": "Non-Functional",
      "latitude": -13.0562,
      "longitude": 28.7156,
      "averageWalkingDistance": 1.5,
      "lastMaintenance": "2025-12-12T15:00:30.630647",
      "installationYear": "2020-02-06T15:00:30.630650",
      "isProtected": true,
      "isTreated": false,
      "management": "Government"
    },
    {
      "id": 39,
      "chiefdom": "Chief Mushili",
      "district": "Ndola",
      "sourceName": "Makeni Water Source 39",
      "sourceType": "Borehole",
      "waterBodyType": "Groundwater",
      "village": "Chisamba",
      "populationServed": 6876,
      "householdsServed": 483,
      "flowRate": 10498,
      "waterQuality": "Poor",
      "status": "Non-Functional",
      "latitude": -12.9652,
      "longitude": 28.6389,
      "averageWalkingDistance": 4.2,
      "lastMaintenance": "2025-09-17T15:00:30.630659",
      "installationYear": "2024-09-18T15:00:30.630662",
      "isProtected": true,
      "isTreated": true,
      "management": "NGO"
    },
    {
      "id": 40,
      "chiefdom": "Chief Mushili",
      "district": "Ndola",
      "sourceName": "Chisamba Water Source 40",
      "sourceType": "Borehole",
      "waterBodyType": "Groundwater",
      "village": "Makeni",
      "populationServed": 6219,
      "householdsServed": 1312,
      "flowRate": 22587,
      "waterQuality": "Good",
      "status": "Functional",
      "latitude": -12.9081,
      "longitude": 28.7049,
      "averageWalkingDistance": 3.1,
      "lastMaintenance": "2025-11-15T15:00:30.630671",
      "installationYear": "2021-12-21T15:00:30.630674",
      "isProtected": true,
      "isTreated": true,
      "management": "Private"
    },
    {
      "id": 41,
      "chiefdom": "Chief Mushili",
      "district": "Ndola",
      "sourceName": "Chipata Water Source 41",
      "sourceType": "Spring",
      "waterBodyType": "Groundwater",
      "village": "Kalomo",
      "populationServed": 1639,
      "householdsServed": 2297,
      "flowRate": 27484,
      "waterQuality": "Good",
      "status": "Needs Repair",
      "latitude": -12.8967,
      "longitude": 28.6598,
      "averageWalkingDistance": 3.5,
      "lastMaintenance": "2025-01-28T15:00:30.630683",
      "installationYear": "2023-08-23T15:00:30.630686",
      "isProtected": true,
      "isTreated": true,
      "management": "Government"
    },
    {
      "id": 42,
      "chiefdom": "Chief Mushili",
      "district": "Ndola",
      "sourceName": "Luwingu Water Source 42",
      "sourceType": "Well",
      "waterBodyType": "Groundwater",
      "village": "Samfya",
      "populationServed": 10336,
      "householdsServed": 1537,
      "flowRate": 47695,
      "waterQuality": "Fair",
      "status": "Functional",
      "latitude": -12.9303,
      "longitude": 28.6561,
      "averageWalkingDistance": 2.1,
      "lastMaintenance": "2025-10-14T15:00:30.630695",
      "installationYear": "2018-10-11T15:00:30.630698",
      "isProtected": true,
      "isTreated": false,
      "management": "Private"
    },
    {
      "id": 43,
      "chiefdom": "Chief Mushili",
      "district": "Ndola",
      "sourceName": "Kitwe Water Source 43",
      "sourceType": "Spring",
      "waterBodyType": "Groundwater",
      "village": "Katoba",
      "populationServed": 3579,
      "householdsServed": 1670,
      "flowRate": 3484,
      "waterQuality": "Fair",
      "status": "Functional",
      "latitude": -12.8717,
      "longitude": 28.5975,
      "averageWalkingDistance": 0.9,
      "lastMaintenance": "2025-07-06T15:00:30.630707",
      "installationYear": "2023-09-09T15:00:30.630711",
      "isProtected": true,
      "isTreated": false,
      "management": "Private"
    },
    {
      "id": 44,
      "chiefdom": "Chief Mushili",
      "district": "Ndola",
      "sourceName": "Mpanshya Water Source 44",
      "sourceType": "Well",
      "waterBodyType": "Groundwater",
      "village": "Kapiri",
      "populationServed": 8435,
      "householdsServed": 1312,
      "flowRate": 7697,
      "waterQuality": "Fair",
      "status": "Non-Functional",
      "latitude": -12.9817,
      "longitude": 28.6744,
      "averageWalkingDistance": 4.4,
      "lastMaintenance": "2025-01-20T15:00:30.630719",
      "installationYear": "2020-04-10T15:00:30.630723",
      "isProtected": false,
      "isTreated": false,
      "management": "Government"
    },
    {
      "id": 45,
      "chiefdom": "Chief Mushili",
      "district": "Ndola",
      "sourceName": "Mwembezhi Water Source 45",
      "sourceType": "Borehole",
      "waterBodyType": "Groundwater",
      "village": "Kabompo",
      "populationServed": 6586,
      "householdsServed": 930,
      "flowRate": 18112,
      "waterQuality": "Fair",
      "status": "Functional",
      "latitude": -13.008,
      "longitude": 28.732,
      "averageWalkingDistance": 1.1,
      "lastMaintenance": "2025-05-31T15:00:30.630731",
      "installationYear": "2020-04-27T15:00:30.630734",
      "isProtected": true,
      "isTreated": true,
      "management": "Private"
    },
    {
      "id": 46,
      "chiefdom": "Chief Mushili",
      "district": "Ndola",
      "sourceName": "Chililabombwe Water Source 46",
      "sourceType": "Borehole",
      "waterBodyType": "Groundwater",
      "village": "Luangwa",
      "populationServed": 12430,
      "householdsServed": 1607,
      "flowRate": 28117,
      "waterQuality": "Excellent",
      "status": "Needs Repair",
      "latitude": -13.042,
      "longitude": 28.6593,
      "averageWalkingDistance": 1.3,
      "lastMaintenance": "2025-08-04T15:00:30.630743",
      "installationYear": "2020-07-09T15:00:30.630746",
      "isProtected": true,
      "isTreated": true,
      "management": "Government"
    },
    {
      "id": 47,
      "chiefdom": "Chief Mushili",
      "district": "Ndola",
      "sourceName": "Luwingu Water Source 47",
      "sourceType": "Piped Water",
      "waterBodyType": "Groundwater",
      "village": "Mpanshya",
      "populationServed": 11578,
      "householdsServed": 2078,
      "flowRate": 29438,
      "waterQuality": "Good",
      "status": "Needs Repair",
      "latitude": -13.0385,
      "longitude": 28.5748,
      "averageWalkingDistance": 0.7,
      "lastMaintenance": "2025-06-15T15:00:30.630755",
      "installationYear": "2023-02-26T15:00:30.630758",
      "isProtected": true,
      "isTreated": true,
      "management": "Community"
    },
    {
      "id": 48,
      "chiefdom": "Chief Mushili",
      "district": "Ndola",
      "sourceName": "Chibombo Water Source 48",
      "sourceType": "Spring",
      "waterBodyType": "Groundwater",
      "village": "Nakonde",
      "populationServed": 2295,
      "householdsServed": 1138,
      "flowRate": 31844,
      "waterQuality": "Poor",
      "status": "Non-Functional",
      "latitude": -12.8933,
      "longitude": 28.5605,
      "averageWalkingDistance": 0.8,
      "lastMaintenance": "2025-09-04T15:00:30.630767",
      "installationYear": "2023-07-07T15:00:30.630771",
      "isProtected": false,
      "isTreated": true,
      "management": "Community"
    },
    {
      "id": 49,
      "chiefdom": "Chief Mushili",
      "district": "Ndola",
      "sourceName": "Petauke Water Source 49",
      "sourceType": "Spring",
      "waterBodyType": "Groundwater",
      "village": "Kabompo",
      "populationServed": 12044,
      "householdsServed": 1745,
      "flowRate": 12187,
      "waterQuality": "Fair",
      "status": "Functional",
      "latitude": -13.0382,
      "longitude": 28.5763,
      "averageWalkingDistance": 3.9,
      "lastMaintenance": "2025-02-08T15:00:30.630779",
      "installationYear": "2021-06-09T15:00:30.630783",
      "isProtected": true,
      "isTreated": false,
      "management": "Government"
    },
    {
      "id": 50,
      "chiefdom": "Chief Mushili",
      "district": "Ndola",
      "sourceName": "Leopards Hill Water Source 50",
      "sourceType": "Well",
      "waterBodyType": "Groundwater",
      "village": "Kabwe",
      "populationServed": 12371,
      "householdsServed": 2306,
      "flowRate": 15180,
      "waterQuality": "Excellent",
      "status": "Needs Repair",
      "latitude": -12.9146,
      "longitude": 28.6236,
      "averageWalkingDistance": 4.7,
      "lastMaintenance": "2025-02-14T15:00:30.630791",
      "installationYear": "2017-10-16T15:00:30.630795",
      "isProtected": true,
      "isTreated": false,
      "management": "NGO"
    }
  ],
  "waterBodies": [
    {
      "id": 1,
      "chiefdom": "Chief Mushili",
      "bodyName": "Mufumbwe River 1",
      "bodyType": "Dam",
      "waterQuality": "Poor",
      "isProtected": true,
      "usageType": "Drinking",
      "latitude": -12.9988,
      "longitude": 28.5532
    },
    {
      "id": 2,
      "chiefdom": "Chief Mushili",
      "bodyName": "Gwembe Dam 2",
      "bodyType": "Stream",
      "waterQuality": "Good",
      "isProtected": false,
      "usageType": "Irrigation",
      "latitude": -13.0649,
      "longitude": 28.6358
    },
    {
      "id": 3,
      "chiefdom": "Chief Mushili",
      "bodyName": "Kitwe Stream 3",
      "bodyType": "River",
      "waterQuality": "Poor",
      "isProtected": true,
      "usageType": "Multiple",
      "latitude": -12.8871,
      "longitude": 28.6089
    },
    {
      "id": 4,
      "chiefdom": "Chief Mushili",
      "bodyName": "Mufumbwe Dam 4",
      "bodyType": "River",
      "waterQuality": "Fair",
      "isProtected": true,
      "usageType": "Multiple",
      "latitude": -13.0057,
      "longitude": 28.557
    },
    {
      "id": 5,
      "chiefdom": "Chief Mushili",
      "bodyName": "Samfya River 5",
      "bodyType": "River",
      "waterQuality": "Fair",
      "isProtected": false,
      "usageType": "Multiple",
      "latitude": -12.9115,
      "longitude": 28.6691
    },
    {
      "id": 6,
      "chiefdom": "Chief Mushili",
      "bodyName": "Samfya Stream 6",
      "bodyType": "Lake",
      "waterQuality": "Good",
      "isProtected": true,
      "usageType": "Recreation",
      "latitude": -12.8773,
      "longitude": 28.5924
    },
    {
      "id": 7,
      "chiefdom": "Chief Mushili",
      "bodyName": "Mansa Dam 7",
      "bodyType": "Lake",
      "waterQuality": "Poor",
      "isProtected": false,
      "usageType": "Recreation",
      "latitude": -12.9715,
      "longitude": 28.7132
    },
    {
      "id": 8,
      "chiefdom": "Chief Mushili",
      "bodyName": "Chipata River 8",
      "bodyType": "River",
      "waterQuality": "Good",
      "isProtected": false,
      "usageType": "Multiple",
      "latitude": -12.9379,
      "longitude": 28.6683
    },
    {
      "id": 9,
      "chiefdom": "Chief Mushili",
      "bodyName": "Mansa River 9",
      "bodyType": "Lake",
      "waterQuality": "Poor",
      "isProtected": false,
      "usageType": "Irrigation",
      "latitude": -12.9217,
      "longitude": 28.5614
    },
    {
      "id": 10,
      "chiefdom": "Chief Mushili",
      "bodyName": "Kabwe Dam 10",
      "bodyType": "Lake",
      "waterQuality": "Fair",
      "isProtected": true,
      "usageType": "Multiple",
      "latitude": -12.9814,
      "longitude": 28.5829
    }
  ],
  "sanitationFacilities": [
    {
      "id": 1,
      "chiefdom": "Chief Mushili",
      "facilityName": "Makeni Sanitation 1",
      "facilityType": "Septic System",
      "village": "Serenje",
      "populationServed": 6839,
      "capacity": 387,
      "status": "Functional",
      "latitude": -12.8901,
      "longitude": 28.7247,
      "lastMaintenance": "2025-03-11T15:00:30.630835"
    },
    {
      "id": 2,
      "chiefdom": "Chief Mushili",
      "facilityName": "Mazabuka Sanitation 2",
      "facilityType": "Waste Treatment",
      "village": "Siavonga",
      "populationServed": 6592,
      "capacity": 53,
      "status": "Functional",
      "latitude": -12.9221,
      "longitude": 28.6431,
      "lastMaintenance": "2025-09-07T15:00:30.630842"
    },
    {
      "id": 3,
      "chiefdom": "Chief Mushili",
      "facilityName": "Chadiza Sanitation 3",
      "facilityType": "Waste Treatment",
      "village": "Lukulu",
      "populationServed": 1442,
      "capacity": 498,
      "status": "Functional",
      "latitude": -12.9188,
      "longitude": 28.6924,
      "lastMaintenance": "2025-12-27T15:00:30.630849"
    },
    {
      "id": 4,
      "chiefdom": "Chief Mushili",
      "facilityName": "Kaputa Sanitation 4",
      "facilityType": "Latrine",
      "village": "Mwembezhi",
      "populationServed": 8034,
      "capacity": 440,
      "status": "Needs Repair",
      "latitude": -13.0153,
      "longitude": 28.6351,
      "lastMaintenance": "2025-10-31T15:00:30.630856"
    },
    {
      "id": 5,
      "chiefdom": "Chief Mushili",
      "facilityName": "Gwembe Sanitation 5",
      "facilityType": "Waste Treatment",
      "village": "Mutumbi",
      "populationServed": 1900,
      "capacity": 453,
      "status": "Functional",
      "latitude": -12.9332,
      "longitude": 28.7182,
      "lastMaintenance": "2025-08-21T15:00:30.630863"
    },
    {
      "id": 6,
      "chiefdom": "Chief Mushili",
      "facilityName": "Kabwe Sanitation 6",
      "facilityType": "Latrine",
      "village": "Vubwi",
      "populationServed": 6710,
      "capacity": 404,
      "status": "Needs Repair",
      "latitude": -13.01,
      "longitude": 28.5727,
      "lastMaintenance": "2025-10-11T15:00:30.630870"
    },
    {
      "id": 7,
      "chiefdom": "Chief Mushili",
      "facilityName": "Chainda Sanitation 7",
      "facilityType": "Waste Treatment",
      "village": "Luwingu",
      "populationServed": 1881,
      "capacity": 333,
      "status": "Functional",
      "latitude": -13.0128,
      "longitude": 28.5659,
      "lastMaintenance": "2025-03-24T15:00:30.630877"
    },
    {
      "id": 8,
      "chiefdom": "Chief Mushili",
      "facilityName": "Chipata Sanitation 8",
      "facilityType": "Waste Treatment",
      "village": "Chisamba",
      "populationServed": 2508,
      "capacity": 442,
      "status": "Needs Repair",
      "latitude": -12.9264,
      "longitude": 28.5937,
      "lastMaintenance": "2025-12-27T15:00:30.630884"
    },
    {
      "id": 9,
      "chiefdom": "Chief Mushili",
      "facilityName": "Senanga Sanitation 9",
      "facilityType": "Waste Treatment",
      "village": "Sikanze",
      "populationServed": 7298,
      "capacity": 360,
      "status": "Needs Repair",
      "latitude": -13.0155,
      "longitude": 28.7082,
      "lastMaintenance": "2025-02-27T15:00:30.630891"
    },
    {
      "id": 10,
      "chiefdom": "Chief Mushili",
      "facilityName": "Luangwa Sanitation 10",
      "facilityType": "Waste Treatment",
      "village": "Chipapa",
      "populationServed": 4008,
      "capacity": 262,
      "status": "Functional",
      "latitude": -13.0005,
      "longitude": 28.5409,
      "lastMaintenance": "2025-12-12T15:00:30.630898"
    },
    {
      "id": 11,
      "chiefdom": "Chief Mushili",
      "facilityName": "Munyumba Sanitation 11",
      "facilityType": "Public Toilet",
      "village": "Mansa",
      "populationServed": 987,
      "capacity": 135,
      "status": "Non-Functional",
      "latitude": -13.0174,
      "longitude": 28.6652,
      "lastMaintenance": "2025-06-09T15:00:30.630905"
    },
    {
      "id": 12,
      "chiefdom": "Chief Mushili",
      "facilityName": "Senanga Sanitation 12",
      "facilityType": "Waste Treatment",
      "village": "Kalabo",
      "populationServed": 6186,
      "capacity": 168,
      "status": "Needs Repair",
      "latitude": -13.0326,
      "longitude": 28.7146,
      "lastMaintenance": "2025-04-16T15:00:30.630911"
    },
    {
      "id": 13,
      "chiefdom": "Chief Mushili",
      "facilityName": "Lilayi Sanitation 13",
      "facilityType": "Public Toilet",
      "village": "Kalulushi",
      "populationServed": 9761,
      "capacity": 252,
      "status": "Functional",
      "latitude": -13.0489,
      "longitude": 28.6287,
      "lastMaintenance": "2025-10-03T15:00:30.630919"
    },
    {
      "id": 14,
      "chiefdom": "Chief Mushili",
      "facilityName": "Luanshya Sanitation 14",
      "facilityType": "Waste Treatment",
      "village": "Nakatindi",
      "populationServed": 6822,
      "capacity": 431,
      "status": "Non-Functional",
      "latitude": -13.0575,
      "longitude": 28.7315,
      "lastMaintenance": "2025-02-27T15:00:30.630926"
    },
    {
      "id": 15,
      "chiefdom": "Chief Mushili",
      "facilityName": "Luwingu Sanitation 15",
      "facilityType": "Waste Treatment",
      "village": "Nyimba",
      "populationServed": 8896,
      "capacity": 95,
      "status": "Needs Repair",
      "latitude": -13.0033,
      "longitude": 28.5757,
      "lastMaintenance": "2025-03-14T15:00:30.630933"
    },
    {
      "id": 16,
      "chiefdom": "Chief Mushili",
      "facilityName": "Sinazongwe Sanitation 16",
      "facilityType": "Waste Treatment",
      "village": "Kalingalinga",
      "populationServed": 6777,
      "capacity": 323,
      "status": "Non-Functional",
      "latitude": -13.027,
      "longitude": 28.609,
      "lastMaintenance": "2025-11-05T15:00:30.630940"
    },
    {
      "id": 17,
      "chiefdom": "Chief Mushili",
      "facilityName": "Mazabuka Sanitation 17",
      "facilityType": "Septic System",
      "village": "Luangwa",
      "populationServed": 2343,
      "capacity": 213,
      "status": "Functional",
      "latitude": -13.0059,
      "longitude": 28.5662,
      "lastMaintenance": "2025-12-02T15:00:30.630947"
    },
    {
      "id": 18,
      "chiefdom": "Chief Mushili",
      "facilityName": "Kafue Riverside Sanitation 18",
      "facilityType": "Latrine",
      "village": "Sinda",
      "populationServed": 8561,
      "capacity": 157,
      "status": "Functional",
      "latitude": -12.9674,
      "longitude": 28.6986,
      "lastMaintenance": "2025-05-16T15:00:30.630954"
    },
    {
      "id": 19,
      "chiefdom": "Chief Mushili",
      "facilityName": "Chama Sanitation 19",
      "facilityType": "Septic System",
      "village": "Nakatindi",
      "populationServed": 2792,
      "capacity": 258,
      "status": "Needs Repair",
      "latitude": -13.069,
      "longitude": 28.5417,
      "lastMaintenance": "2025-03-16T15:00:30.630961"
    },
    {
      "id": 20,
      "chiefdom": "Chief Mushili",
      "facilityName": "Kabompo Sanitation 20",
      "facilityType": "Septic System",
      "village": "Kalingalinga",
      "populationServed": 6246,
      "capacity": 478,
      "status": "Functional",
      "latitude": -13.0673,
      "longitude": 28.5664,
      "lastMaintenance": "2025-10-11T15:00:30.630968"
    },
    {
      "id": 21,
      "chiefdom": "Chief Mushili",
      "facilityName": "Meanwood Sanitation 21",
      "facilityType": "Waste Treatment",
      "village": "Kalomo",
      "populationServed": 8185,
      "capacity": 126,
      "status": "Needs Repair",
      "latitude": -13.0566,
      "longitude": 28.6616,
      "lastMaintenance": "2025-03-01T15:00:30.630975"
    },
    {
      "id": 22,
      "chiefdom": "Chief Mushili",
      "facilityName": "Mumbwa Sanitation 22",
      "facilityType": "Septic System",
      "village": "Gwembe",
      "populationServed": 8230,
      "capacity": 227,
      "status": "Non-Functional",
      "latitude": -12.891,
      "longitude": 28.716,
      "lastMaintenance": "2025-08-04T15:00:30.630982"
    },
    {
      "id": 23,
      "chiefdom": "Chief Mushili",
      "facilityName": "Livingstone Sanitation 23",
      "facilityType": "Septic System",
      "village": "Kawambwa",
      "populationServed": 5708,
      "capacity": 168,
      "status": "Non-Functional",
      "latitude": -13.0133,
      "longitude": 28.5888,
      "lastMaintenance": "2025-12-21T15:00:30.630988"
    },
    {
      "id": 24,
      "chiefdom": "Chief Mushili",
      "facilityName": "Kabompo Sanitation 24",
      "facilityType": "Public Toilet",
      "village": "Mutumbi",
      "populationServed": 5294,
      "capacity": 291,
      "status": "Functional",
      "latitude": -12.8709,
      "longitude": 28.5788,
      "lastMaintenance": "2025-12-09T15:00:30.630995"
    },
    {
      "id": 25,
      "chiefdom": "Chief Mushili",
      "facilityName": "Mwembezhi Sanitation 25",
      "facilityType": "Waste Treatment",
      "village": "Meanwood",
      "populationServed": 5265,
      "capacity": 132,
      "status": "Needs Repair",
      "latitude": -13.0476,
      "longitude": 28.7025,
      "lastMaintenance": "2025-01-28T15:00:30.631002"
    },
    {
      "id": 26,
      "chiefdom": "Chief Mushili",
      "facilityName": "Kawambwa Sanitation 26",
      "facilityType": "Latrine",
      "village": "Mongu",
      "populationServed": 1230,
      "capacity": 476,
      "status": "Functional",
      "latitude": -13.0522,
      "longitude": 28.6971,
      "lastMaintenance": "2025-07-02T15:00:30.631009"
    },
    {
      "id": 27,
      "chiefdom": "Chief Mushili",
      "facilityName": "Mporokoso Sanitation 27",
      "facilityType": "Septic System",
      "village": "Kabompo",
      "populationServed": 6586,
      "capacity": 231,
      "status": "Non-Functional",
      "latitude": -13.0411,
      "longitude": 28.5948,
      "lastMaintenance": "2025-11-29T15:00:30.631016"
    },
    {
      "id": 28,
      "chiefdom": "Chief Mushili",
      "facilityName": "Kawambwa Sanitation 28",
      "facilityType": "Latrine",
      "village": "Mkushi",
      "populationServed": 5271,
      "capacity": 118,
      "status": "Functional",
      "latitude": -13.0116,
      "longitude": 28.694,
      "lastMaintenance": "2025-12-05T15:00:30.631023"
    },
    {
      "id": 29,
      "chiefdom": "Chief Mushili",
      "facilityName": "Vubwi Sanitation 29",
      "facilityType": "Latrine",
      "village": "Kaputa",
      "populationServed": 1219,
      "capacity": 445,
      "status": "Needs Repair",
      "latitude": -13.0636,
      "longitude": 28.5586,
      "lastMaintenance": "2025-06-08T15:00:30.631030"
    },
    {
      "id": 30,
      "chiefdom": "Chief Mushili",
      "facilityName": "Mpanshya Sanitation 30",
      "facilityType": "Septic System",
      "village": "Chingola",
      "populationServed": 8125,
      "capacity": 403,
      "status": "Functional",
      "latitude": -12.9441,
      "longitude": 28.5994,
      "lastMaintenance": "2025-06-07T15:00:30.631037"
    },
    {
      "id": 31,
      "chiefdom": "Chief Mushili",
      "facilityName": "Kapiri Sanitation 31",
      "facilityType": "Latrine",
      "village": "Mbabala",
      "populationServed": 7834,
      "capacity": 149,
      "status": "Non-Functional",
      "latitude": -12.8922,
      "longitude": 28.6106,
      "lastMaintenance": "2025-09-27T15:00:30.631044"
    },
    {
      "id": 32,
      "chiefdom": "Chief Mushili",
      "facilityName": "Vubwi Sanitation 32",
      "facilityType": "Public Toilet",
      "village": "Ngwerere",
      "populationServed": 9557,
      "capacity": 50,
      "status": "Needs Repair",
      "latitude": -12.9952,
      "longitude": 28.7191,
      "lastMaintenance": "2025-07-28T15:00:30.631051"
    },
    {
      "id": 33,
      "chiefdom": "Chief Mushili",
      "facilityName": "Vubwi Sanitation 33",
      "facilityType": "Septic System",
      "village": "Senanga",
      "populationServed": 6222,
      "capacity": 417,
      "status": "Functional",
      "latitude": -13.0261,
      "longitude": 28.593,
      "lastMaintenance": "2025-12-13T15:00:30.631057"
    },
    {
      "id": 34,
      "chiefdom": "Chief Mushili",
      "facilityName": "Chingola Sanitation 34",
      "facilityType": "Latrine",
      "village": "Luangwa",
      "populationServed": 4711,
      "capacity": 61,
      "status": "Needs Repair",
      "latitude": -12.8902,
      "longitude": 28.6973,
      "lastMaintenance": "2025-11-19T15:00:30.631065"
    },
    {
      "id": 35,
      "chiefdom": "Chief Mushili",
      "facilityName": "Lilayi Sanitation 35",
      "facilityType": "Septic System",
      "village": "Luwingu",
      "populationServed": 5881,
      "capacity": 153,
      "status": "Non-Functional",
      "latitude": -13.0174,
      "longitude": 28.6328,
      "lastMaintenance": "2025-10-11T15:00:30.631071"
    },
    {
      "id": 36,
      "chiefdom": "Chief Mushili",
      "facilityName": "Ngwerere Sanitation 36",
      "facilityType": "Latrine",
      "village": "Chinsali",
      "populationServed": 3435,
      "capacity": 429,
      "status": "Needs Repair",
      "latitude": -13.0483,
      "longitude": 28.7294,
      "lastMaintenance": "2025-01-20T15:00:30.631078"
    },
    {
      "id": 37,
      "chiefdom": "Chief Mushili",
      "facilityName": "Kalabo Sanitation 37",
      "facilityType": "Latrine",
      "village": "Chalimbana",
      "populationServed": 7886,
      "capacity": 84,
      "status": "Functional",
      "latitude": -12.8853,
      "longitude": 28.6737,
      "lastMaintenance": "2025-10-30T15:00:30.631085"
    },
    {
      "id": 38,
      "chiefdom": "Chief Mushili",
      "facilityName": "Ndola Sanitation 38",
      "facilityType": "Public Toilet",
      "village": "Luwingu",
      "populationServed": 6370,
      "capacity": 328,
      "status": "Needs Repair",
      "latitude": -13.0319,
      "longitude": 28.6627,
      "lastMaintenance": "2025-08-15T15:00:30.631092"
    },
    {
      "id": 39,
      "chiefdom": "Chief Mushili",
      "facilityName": "Sikanze Sanitation 39",
      "facilityType": "Septic System",
      "village": "Kafue Riverside",
      "populationServed": 6182,
      "capacity": 479,
      "status": "Non-Functional",
      "latitude": -12.9979,
      "longitude": 28.5679,
      "lastMaintenance": "2025-02-02T15:00:30.631099"
    },
    {
      "id": 40,
      "chiefdom": "Chief Mushili",
      "facilityName": "Monze Sanitation 40",
      "facilityType": "Waste Treatment",
      "village": "Mwembezhi",
      "populationServed": 9963,
      "capacity": 308,
      "status": "Needs Repair",
      "latitude": -12.9781,
      "longitude": 28.6781,
      "lastMaintenance": "2025-05-16T15:00:30.631106"
    },
    {
      "id": 41,
      "chiefdom": "Chief Mushili",
      "facilityName": "Chama Sanitation 41",
      "facilityType": "Latrine",
      "village": "Mpika",
      "populationServed": 8518,
      "capacity": 50,
      "status": "Functional",
      "latitude": -12.9047,
      "longitude": 28.7186,
      "lastMaintenance": "2025-07-25T15:00:30.631112"
    },
    {
      "id": 42,
      "chiefdom": "Chief Mushili",
      "facilityName": "Katoba Sanitation 42",
      "facilityType": "Septic System",
      "village": "Zambezi",
      "populationServed": 4625,
      "capacity": 253,
      "status": "Needs Repair",
      "latitude": -13.0158,
      "longitude": 28.7168,
      "lastMaintenance": "2025-02-02T15:00:30.631119"
    },
    {
      "id": 43,
      "chiefdom": "Chief Mushili",
      "facilityName": "Petauke Sanitation 43",
      "facilityType": "Latrine",
      "village": "Senanga",
      "populationServed": 4106,
      "capacity": 275,
      "status": "Non-Functional",
      "latitude": -13.0448,
      "longitude": 28.6136,
      "lastMaintenance": "2025-03-22T15:00:30.631126"
    },
    {
      "id": 44,
      "chiefdom": "Chief Mushili",
      "facilityName": "Siavonga Sanitation 44",
      "facilityType": "Septic System",
      "village": "Choma",
      "populationServed": 4754,
      "capacity": 316,
      "status": "Needs Repair",
      "latitude": -12.9245,
      "longitude": 28.5968,
      "lastMaintenance": "2025-06-14T15:00:30.631133"
    },
    {
      "id": 45,
      "chiefdom": "Chief Mushili",
      "facilityName": "Nchelenge Sanitation 45",
      "facilityType": "Public Toilet",
      "village": "Monze",
      "populationServed": 7128,
      "capacity": 307,
      "status": "Needs Repair",
      "latitude": -12.9358,
      "longitude": 28.7172,
      "lastMaintenance": "2025-04-29T15:00:30.631140"
    },
    {
      "id": 46,
      "chiefdom": "Chief Mushili",
      "facilityName": "Katoba Sanitation 46",
      "facilityType": "Latrine",
      "village": "Mwembezhi",
      "populationServed": 1356,
      "capacity": 309,
      "status": "Needs Repair",
      "latitude": -13.0328,
      "longitude": 28.7268,
      "lastMaintenance": "2025-08-17T15:00:30.631147"
    },
    {
      "id": 47,
      "chiefdom": "Chief Mushili",
      "facilityName": "Serenje Sanitation 47",
      "facilityType": "Latrine",
      "village": "Mazabuka",
      "populationServed": 5999,
      "capacity": 245,
      "status": "Functional",
      "latitude": -13.0337,
      "longitude": 28.5961,
      "lastMaintenance": "2025-12-18T15:00:30.631153"
    },
    {
      "id": 48,
      "chiefdom": "Chief Mushili",
      "facilityName": "Shangombo Sanitation 48",
      "facilityType": "Public Toilet",
      "village": "Meanwood",
      "populationServed": 3535,
      "capacity": 152,
      "status": "Non-Functional",
      "latitude": -12.9669,
      "longitude": 28.642,
      "lastMaintenance": "2025-10-03T15:00:30.631161"
    },
    {
      "id": 49,
      "chiefdom": "Chief Mushili",
      "facilityName": "Mwembezhi Sanitation 49",
      "facilityType": "Waste Treatment",
      "village": "Munyumba",
      "populationServed": 1349,
      "capacity": 492,
      "status": "Non-Functional",
      "latitude": -12.8845,
      "longitude": 28.5781,
      "lastMaintenance": "2025-07-31T15:00:30.631167"
    },
    {
      "id": 50,
      "chiefdom": "Chief Mushili",
      "facilityName": "Mpongwe Sanitation 50",
      "facilityType": "Septic System",
      "village": "Luangwa",
      "populationServed": 7684,
      "capacity": 273,
      "status": "Functional",
      "latitude": -13.049,
      "longitude": 28.5401,
      "lastMaintenance": "2025-11-19T15:00:30.631174"
    }
  ],
  "waterAccessAreas": [
    {
      "id": 1,
      "chiefdom": "Chief Mushili",
      "areaName": "Lilayi Access 1",
      "population": 11550,
      "householdsWithAccess": 572,
      "accessRate": 73.8,
      "averageDistance": 6.4,
      "waterQuality": "Good",
      "latitude": -12.9273,
      "longitude": 28.5474
    },
    {
      "id": 2,
      "chiefdom": "Chief Mushili",
      "areaName": "Katete Access 2",
      "population": 11802,
      "householdsWithAccess": 1193,
      "accessRate": 59.6,
      "averageDistance": 4.6,
      "waterQuality": "Good",
      "latitude": -12.9095,
      "longitude": 28.6164
    },
    {
      "id": 3,
      "chiefdom": "Chief Mushili",
      "areaName": "Mongu Access 3",
      "population": 5611,
      "householdsWithAccess": 1272,
      "accessRate": 55.7,
      "averageDistance": 8.0,
      "waterQuality": "Good",
      "latitude": -13.0222,
      "longitude": 28.6043
    },
    {
      "id": 4,
      "chiefdom": "Chief Mushili",
      "areaName": "Mwembezhi Access 4",
      "population": 10311,
      "householdsWithAccess": 344,
      "accessRate": 63.7,
      "averageDistance": 1.6,
      "waterQuality": "Fair",
      "latitude": -12.9977,
      "longitude": 28.6788
    },
    {
      "id": 5,
      "chiefdom": "Chief Mushili",
      "areaName": "Munyumba Access 5",
      "population": 2182,
      "householdsWithAccess": 793,
      "accessRate": 70.0,
      "averageDistance": 1.7,
      "waterQuality": "Poor",
      "latitude": -12.9815,
      "longitude": 28.7013
    },
    {
      "id": 6,
      "chiefdom": "Chief Mushili",
      "areaName": "Chama Access 6",
      "population": 3902,
      "householdsWithAccess": 1703,
      "accessRate": 57.2,
      "averageDistance": 1.4,
      "waterQuality": "Fair",
      "latitude": -13.0506,
      "longitude": 28.5878
    },
    {
      "id": 7,
      "chiefdom": "Chief Mushili",
      "areaName": "Chingola Access 7",
      "population": 6139,
      "householdsWithAccess": 1817,
      "accessRate": 54.5,
      "averageDistance": 0.9,
      "waterQuality": "Poor",
      "latitude": -12.909,
      "longitude": 28.7068
    },
    {
      "id": 8,
      "chiefdom": "Chief Mushili",
      "areaName": "Mazabuka Access 8",
      "population": 1824,
      "householdsWithAccess": 1815,
      "accessRate": 51.0,
      "averageDistance": 5.5,
      "waterQuality": "Good",
      "latitude": -13.0474,
      "longitude": 28.544
    },
    {
      "id": 9,
      "chiefdom": "Chief Mushili",
      "areaName": "Nakatindi Access 9",
      "population": 9220,
      "householdsWithAccess": 1059,
      "accessRate": 81.6,
      "averageDistance": 1.2,
      "waterQuality": "Good",
      "latitude": -13.0675,
      "longitude": 28.6551
    },
    {
      "id": 10,
      "chiefdom": "Chief Mushili",
      "areaName": "Kanakantapa Access 10",
      "population": 5121,
      "householdsWithAccess": 1161,
      "accessRate": 92.6,
      "averageDistance": 5.7,
      "waterQuality": "Poor",
      "latitude": -13.0189,
      "longitude": 28.6304
    },
    {
      "id": 11,
      "chiefdom": "Chief Mushili",
      "areaName": "Lukulu Access 11",
      "population": 3457,
      "householdsWithAccess": 455,
      "accessRate": 83.5,
      "averageDistance": 3.6,
      "waterQuality": "Fair",
      "latitude": -13.0399,
      "longitude": 28.7336
    },
    {
      "id": 12,
      "chiefdom": "Chief Mushili",
      "areaName": "Kalulushi Access 12",
      "population": 9311,
      "householdsWithAccess": 1585,
      "accessRate": 45.2,
      "averageDistance": 6.3,
      "waterQuality": "Good",
      "latitude": -12.9203,
      "longitude": 28.7309
    },
    {
      "id": 13,
      "chiefdom": "Chief Mushili",
      "areaName": "Mwembezhi Access 13",
      "population": 3837,
      "householdsWithAccess": 1748,
      "accessRate": 59.1,
      "averageDistance": 1.2,
      "waterQuality": "Excellent",
      "latitude": -13.001,
      "longitude": 28.6257
    },
    {
      "id": 14,
      "chiefdom": "Chief Mushili",
      "areaName": "Chilanga Access 14",
      "population": 8354,
      "householdsWithAccess": 944,
      "accessRate": 70.5,
      "averageDistance": 7.2,
      "waterQuality": "Good",
      "latitude": -13.0563,
      "longitude": 28.6857
    },
    {
      "id": 15,
      "chiefdom": "Chief Mushili",
      "areaName": "Monze Access 15",
      "population": 6835,
      "householdsWithAccess": 1436,
      "accessRate": 53.8,
      "averageDistance": 6.0,
      "waterQuality": "Good",
      "latitude": -12.8772,
      "longitude": 28.6141
    },
    {
      "id": 16,
      "chiefdom": "Chief Mushili",
      "areaName": "Kawambwa Access 16",
      "population": 7716,
      "householdsWithAccess": 1601,
      "accessRate": 88.5,
      "averageDistance": 2.9,
      "waterQuality": "Excellent",
      "latitude": -12.9493,
      "longitude": 28.5495
    },
    {
      "id": 17,
      "chiefdom": "Chief Mushili",
      "areaName": "Chibombo Access 17",
      "population": 4482,
      "householdsWithAccess": 884,
      "accessRate": 61.7,
      "averageDistance": 5.5,
      "waterQuality": "Excellent",
      "latitude": -12.9814,
      "longitude": 28.6825
    },
    {
      "id": 18,
      "chiefdom": "Chief Mushili",
      "areaName": "Zambezi Access 18",
      "population": 1886,
      "householdsWithAccess": 1546,
      "accessRate": 72.6,
      "averageDistance": 2.3,
      "waterQuality": "Good",
      "latitude": -13.0357,
      "longitude": 28.5762
    },
    {
      "id": 19,
      "chiefdom": "Chief Mushili",
      "areaName": "Meanwood Access 19",
      "population": 1794,
      "householdsWithAccess": 1881,
      "accessRate": 79.1,
      "averageDistance": 6.9,
      "waterQuality": "Excellent",
      "latitude": -13.0162,
      "longitude": 28.63
    },
    {
      "id": 20,
      "chiefdom": "Chief Mushili",
      "areaName": "Kalabo Access 20",
      "population": 9118,
      "householdsWithAccess": 1542,
      "accessRate": 66.7,
      "averageDistance": 4.9,
      "waterQuality": "Poor",
      "latitude": -12.9651,
      "longitude": 28.629
    },
    {
      "id": 21,
      "chiefdom": "Chief Mushili",
      "areaName": "Sikanze Access 21",
      "population": 3488,
      "householdsWithAccess": 624,
      "accessRate": 91.5,
      "averageDistance": 4.9,
      "waterQuality": "Good",
      "latitude": -12.9219,
      "longitude": 28.6913
    },
    {
      "id": 22,
      "chiefdom": "Chief Mushili",
      "areaName": "Vubwi Access 22",
      "population": 6992,
      "householdsWithAccess": 1018,
      "accessRate": 58.8,
      "averageDistance": 2.5,
      "waterQuality": "Good",
      "latitude": -12.8782,
      "longitude": 28.6047
    },
    {
      "id": 23,
      "chiefdom": "Chief Mushili",
      "areaName": "Samfya Access 23",
      "population": 1986,
      "householdsWithAccess": 400,
      "accessRate": 94.5,
      "averageDistance": 7.5,
      "waterQuality": "Poor",
      "latitude": -12.9361,
      "longitude": 28.5918
    },
    {
      "id": 24,
      "chiefdom": "Chief Mushili",
      "areaName": "Kalomo Access 24",
      "population": 9801,
      "householdsWithAccess": 858,
      "accessRate": 61.1,
      "averageDistance": 2.1,
      "waterQuality": "Good",
      "latitude": -13.0446,
      "longitude": 28.5745
    },
    {
      "id": 25,
      "chiefdom": "Chief Mushili",
      "areaName": "Kalulushi Access 25",
      "population": 10188,
      "householdsWithAccess": 1536,
      "accessRate": 59.7,
      "averageDistance": 4.1,
      "waterQuality": "Excellent",
      "latitude": -12.9797,
      "longitude": 28.6853
    },
    {
      "id": 26,
      "chiefdom": "Chief Mushili",
      "areaName": "Kitwe Access 26",
      "population": 3836,
      "householdsWithAccess": 1134,
      "accessRate": 53.5,
      "averageDistance": 1.7,
      "waterQuality": "Good",
      "latitude": -12.9158,
      "longitude": 28.567
    },
    {
      "id": 27,
      "chiefdom": "Chief Mushili",
      "areaName": "Mpika Access 27",
      "population": 1987,
      "householdsWithAccess": 598,
      "accessRate": 56.6,
      "averageDistance": 6.0,
      "waterQuality": "Poor",
      "latitude": -12.9108,
      "longitude": 28.7228
    },
    {
      "id": 28,
      "chiefdom": "Chief Mushili",
      "areaName": "Kasempa Access 28",
      "population": 5548,
      "householdsWithAccess": 556,
      "accessRate": 60.8,
      "averageDistance": 6.3,
      "waterQuality": "Good",
      "latitude": -13.0261,
      "longitude": 28.5791
    },
    {
      "id": 29,
      "chiefdom": "Chief Mushili",
      "areaName": "Palabana Access 29",
      "population": 4417,
      "householdsWithAccess": 1132,
      "accessRate": 91.1,
      "averageDistance": 7.4,
      "waterQuality": "Fair",
      "latitude": -12.9008,
      "longitude": 28.5833
    },
    {
      "id": 30,
      "chiefdom": "Chief Mushili",
      "areaName": "Solwezi Access 30",
      "population": 4310,
      "householdsWithAccess": 1887,
      "accessRate": 78.5,
      "averageDistance": 1.2,
      "waterQuality": "Poor",
      "latitude": -12.9005,
      "longitude": 28.7085
    },
    {
      "id": 31,
      "chiefdom": "Chief Mushili",
      "areaName": "Petauke Access 31",
      "population": 1920,
      "householdsWithAccess": 1681,
      "accessRate": 64.1,
      "averageDistance": 3.8,
      "waterQuality": "Fair",
      "latitude": -12.9357,
      "longitude": 28.7123
    },
    {
      "id": 32,
      "chiefdom": "Chief Mushili",
      "areaName": "Nyimba Access 32",
      "population": 7751,
      "householdsWithAccess": 767,
      "accessRate": 86.1,
      "averageDistance": 0.9,
      "waterQuality": "Fair",
      "latitude": -13.0627,
      "longitude": 28.6664
    },
    {
      "id": 33,
      "chiefdom": "Chief Mushili",
      "areaName": "Nakatindi Access 33",
      "population": 1840,
      "householdsWithAccess": 1333,
      "accessRate": 63.1,
      "averageDistance": 2.9,
      "waterQuality": "Fair",
      "latitude": -12.8864,
      "longitude": 28.5974
    },
    {
      "id": 34,
      "chiefdom": "Chief Mushili",
      "areaName": "Luanshya Access 34",
      "population": 11331,
      "householdsWithAccess": 1539,
      "accessRate": 91.0,
      "averageDistance": 7.7,
      "waterQuality": "Good",
      "latitude": -13.0207,
      "longitude": 28.5559
    },
    {
      "id": 35,
      "chiefdom": "Chief Mushili",
      "areaName": "Mporokoso Access 35",
      "population": 9952,
      "householdsWithAccess": 661,
      "accessRate": 58.3,
      "averageDistance": 3.0,
      "waterQuality": "Fair",
      "latitude": -12.928,
      "longitude": 28.6459
    },
    {
      "id": 36,
      "chiefdom": "Chief Mushili",
      "areaName": "Mwembezhi Access 36",
      "population": 10534,
      "householdsWithAccess": 1979,
      "accessRate": 46.4,
      "averageDistance": 4.5,
      "waterQuality": "Poor",
      "latitude": -12.8856,
      "longitude": 28.6215
    },
    {
      "id": 37,
      "chiefdom": "Chief Mushili",
      "areaName": "Chibombo Access 37",
      "population": 7551,
      "householdsWithAccess": 1074,
      "accessRate": 93.4,
      "averageDistance": 2.1,
      "waterQuality": "Excellent",
      "latitude": -12.946,
      "longitude": 28.6012
    },
    {
      "id": 38,
      "chiefdom": "Chief Mushili",
      "areaName": "Leopards Hill Access 38",
      "population": 1586,
      "householdsWithAccess": 1337,
      "accessRate": 52.2,
      "averageDistance": 0.9,
      "waterQuality": "Good",
      "latitude": -12.9631,
      "longitude": 28.7151
    },
    {
      "id": 39,
      "chiefdom": "Chief Mushili",
      "areaName": "Kafue Riverside Access 39",
      "population": 9094,
      "householdsWithAccess": 735,
      "accessRate": 57.6,
      "averageDistance": 5.7,
      "waterQuality": "Poor",
      "latitude": -12.9853,
      "longitude": 28.5691
    },
    {
      "id": 40,
      "chiefdom": "Chief Mushili",
      "areaName": "Chingola Access 40",
      "population": 1766,
      "householdsWithAccess": 1977,
      "accessRate": 42.8,
      "averageDistance": 2.0,
      "waterQuality": "Fair",
      "latitude": -13.0626,
      "longitude": 28.5971
    },
    {
      "id": 41,
      "chiefdom": "Chief Mushili",
      "areaName": "Senanga Access 41",
      "population": 5611,
      "householdsWithAccess": 1732,
      "accessRate": 45.9,
      "averageDistance": 0.8,
      "waterQuality": "Poor",
      "latitude": -12.9431,
      "longitude": 28.6099
    },
    {
      "id": 42,
      "chiefdom": "Chief Mushili",
      "areaName": "Mutumbi Access 42",
      "population": 5231,
      "householdsWithAccess": 1261,
      "accessRate": 48.5,
      "averageDistance": 3.1,
      "waterQuality": "Fair",
      "latitude": -13.0625,
      "longitude": 28.5634
    },
    {
      "id": 43,
      "chiefdom": "Chief Mushili",
      "areaName": "Mongu Access 43",
      "population": 9466,
      "householdsWithAccess": 1697,
      "accessRate": 85.4,
      "averageDistance": 3.8,
      "waterQuality": "Fair",
      "latitude": -12.885,
      "longitude": 28.5551
    },
    {
      "id": 44,
      "chiefdom": "Chief Mushili",
      "areaName": "Chipapa Access 44",
      "population": 1581,
      "householdsWithAccess": 1852,
      "accessRate": 59.0,
      "averageDistance": 4.8,
      "waterQuality": "Fair",
      "latitude": -12.9066,
      "longitude": 28.702
    },
    {
      "id": 45,
      "chiefdom": "Chief Mushili",
      "areaName": "Monze Access 45",
      "population": 7966,
      "householdsWithAccess": 511,
      "accessRate": 41.4,
      "averageDistance": 1.5,
      "waterQuality": "Fair",
      "latitude": -13.0416,
      "longitude": 28.5696
    },
    {
      "id": 46,
      "chiefdom": "Chief Mushili",
      "areaName": "Kasempa Access 46",
      "population": 5972,
      "householdsWithAccess": 1009,
      "accessRate": 42.9,
      "averageDistance": 2.3,
      "waterQuality": "Poor",
      "latitude": -12.9917,
      "longitude": 28.6614
    },
    {
      "id": 47,
      "chiefdom": "Chief Mushili",
      "areaName": "Ngwerere Access 47",
      "population": 8605,
      "householdsWithAccess": 882,
      "accessRate": 72.8,
      "averageDistance": 5.9,
      "waterQuality": "Excellent",
      "latitude": -13.0415,
      "longitude": 28.7319
    },
    {
      "id": 48,
      "chiefdom": "Chief Mushili",
      "areaName": "Mwinilunga Access 48",
      "population": 2920,
      "householdsWithAccess": 787,
      "accessRate": 90.9,
      "averageDistance": 1.2,
      "waterQuality": "Excellent",
      "latitude": -12.8851,
      "longitude": 28.6702
    },
    {
      "id": 49,
      "chiefdom": "Chief Mushili",
      "areaName": "Shangombo Access 49",
      "population": 8858,
      "householdsWithAccess": 1946,
      "accessRate": 84.2,
      "averageDistance": 5.7,
      "waterQuality": "Good",
      "latitude": -13.0486,
      "longitude": 28.6343
    },
    {
      "id": 50,
      "chiefdom": "Chief Mushili",
      "areaName": "Chinsali Access 50",
      "population": 6879,
      "householdsWithAccess": 957,
      "accessRate": 42.8,
      "averageDistance": 6.9,
      "waterQuality": "Poor",
      "latitude": -13.0087,
      "longitude": 28.5418
    }
  ]
}